{"type":"FeatureCollection","features":[{"type":"Feature","geometry":{"type":"LineString","coordinates":[[13.64912,47.56231],[13.81667,47.61667],[13.61893,47.71109],[13.37969,47.82715],[13.397222,47.752778]]},"properties":{"name":"19. August 1881"}},{"type":"Feature","geometry":{"type":"Point","coordinates":[13.61893,47.71109]},"properties":{"id":"pmb213","title":"Bad Ischl","lat":"47.71109","lon":"13.61893","timestamp":["1881-08-19"],"importance":1,"wikipedia":"https://de.wikipedia.org/wiki/Bad_Ischl","wikidata":"http://www.wikidata.org/entity/Q250984","geonames":"https://sws.geonames.org/2782052/","abbr":"P.PPL","type":"Besiedelter Ort"}},{"type":"Feature","geometry":{"type":"Point","coordinates":[13.64912,47.56231]},"properties":{"id":"pmb39671","title":"Hallstatt","lat":"47.56231","lon":"13.64912","timestamp":["1881-08-19"],"importance":1,"geonames":"https://sws.geonames.org/2776943/","abbr":"P.PPL","type":"Besiedelter Ort"}},{"type":"Feature","geometry":{"type":"Point","coordinates":[13.81667,47.61667]},"properties":{"id":"pmb46000","title":"Grundlsee [Gemeinde]","lat":"47.61667","lon":"13.81667","timestamp":["1881-08-19"],"importance":1,"wikipedia":"https://de.wikipedia.org/wiki/Grundlsee_(Gemeinde)","wikidata":"http://www.wikidata.org/entity/Q700571","geonames":"https://sws.geonames.org/7873495/","abbr":"Besiedelter Ort (A.BSO)","type":"Besiedelter Ort"}},{"type":"Feature","geometry":{"type":"Point","coordinates":[13.37969,47.82715]},"properties":{"id":"pmb91272","title":"Mondsee","lat":"47.82715","lon":"13.37969","timestamp":["1881-08-19"],"importance":1,"wikipedia":"https://de.wikipedia.org/wiki/Mondsee","wikidata":"http://www.wikidata.org/entity/Q665230","geonames":"https://sws.geonames.org/7872159/","abbr":"A.ADM3","type":"Verwaltungsgebiet"}},{"type":"Feature","geometry":{"type":"Point","coordinates":[13.397222,47.752778]},"properties":{"id":"pmb40874","title":"Wolfgangsee","lat":"47.752778","lon":"13.397222","timestamp":["1881-08-19"],"importance":1,"wikipedia":"https://de.wikipedia.org/wiki/Wolfgangsee","wikidata":"http://www.wikidata.org/entity/Q871584","geonames":"https://sws.geonames.org/2783066/","abbr":"See (N.SEE)","type":"See"}}],"hierarchy":[{"id":"pmb213","name":"Bad Ischl","children":[]},{"id":"pmb39671","name":"Hallstatt","children":[]},{"id":"pmb46000","name":"Grundlsee [Gemeinde]","children":[]},{"id":"pmb91272","name":"Mondsee","children":[]},{"id":"pmb40874","name":"Wolfgangsee","children":[]}]}