{"type":"FeatureCollection","features":[{"type":"Feature","geometry":{"type":"LineString","coordinates":[[16.363819,48.20334],[16.378575,48.2058448],[16.372398,48.208898],[16.3713342,48.2101882],[16.365278,48.210278],[16.36157,48.20809]]},"properties":{"name":"1. September 1882"}},{"type":"Feature","geometry":{"type":"Point","coordinates":[16.365278,48.210278]},"properties":{"id":"pmb262","title":"Café Central","lat":"48.210278","lon":"16.365278","timestamp":["1882-09-01"],"importance":1,"wikipedia":"https://de.wikipedia.org/wiki/Caf%C3%A9_Central","wikidata":"http://www.wikidata.org/entity/Q694757","abbr":"Kaffeehaus (K.KAF)","type":"Kaffeehaus"}},{"type":"Feature","geometry":{"type":"Point","coordinates":[16.372398,48.208898]},"properties":{"id":"pmb34310","title":"Café de l’Europe","lat":"48.208898","lon":"16.372398","timestamp":["1882-09-01"],"importance":1,"abbr":"Kaffeehaus (K.KAF)","type":"Kaffeehaus"}},{"type":"Feature","geometry":{"type":"Point","coordinates":[16.378575,48.2058448]},"properties":{"id":"pmb182839","title":"Café Kurzweil »Zur Afrikanerin«","lat":"48.2058448","lon":"16.378575","timestamp":["1882-09-01"],"importance":1,"abbr":"Kaffeehaus (K.KAF)","type":"Kaffeehaus"}},{"type":"Feature","geometry":{"type":"Point","coordinates":[16.3713342,48.2101882]},"properties":{"id":"pmb116","title":"Zum rothen Igel","lat":"48.2101882","lon":"16.3713342","timestamp":["1882-09-01"],"importance":1,"abbr":"Lokal (K.LKL)","type":"Lokal"}},{"type":"Feature","geometry":{"type":"Point","coordinates":[16.36157,48.20809]},"properties":{"id":"pmb103","title":"Volksgarten","lat":"48.20809","lon":"16.36157","timestamp":["1882-09-01"],"importance":1,"geonames":"https://sws.geonames.org/6697258/","abbr":"L.PRK","type":"Park"}},{"type":"Feature","geometry":{"type":"Point","coordinates":[16.363819,48.20334]},"properties":{"id":"pmb168765","title":"Wohnung und Ordination Johann Schnitzler Burgring 1","lat":"48.20334","lon":"16.363819","timestamp":["1882-09-01"],"importance":1,"abbr":"Ordination","type":"Ordination"}}],"hierarchy":[{"id":"pmb50","name":"Wien","children":[{"id":"pmb51","name":"I., Innere Stadt","children":[{"id":"pmb262","name":"Café Central","children":[]},{"id":"pmb34310","name":"Café de l’Europe","children":[]},{"id":"pmb182839","name":"Café Kurzweil »Zur Afrikanerin«","children":[]},{"id":"pmb116","name":"Zum rothen Igel","children":[]},{"id":"pmb103","name":"Volksgarten","children":[]},{"id":"pmb168765","name":"Wohnung und Ordination Johann Schnitzler Burgring 1","children":[]}]}]}]}