{"type":"FeatureCollection","features":[{"type":"Feature","geometry":{"type":"LineString","coordinates":[[16.3642,48.19941],[16.364351,48.199478],[16.36946,48.20138],[16.38735,48.19422],[16.362757,48.213278],[16.363819,48.20334]]},"properties":{"name":"23. Dezember 1882"}},{"type":"Feature","geometry":{"type":"Point","coordinates":[16.36946,48.20138]},"properties":{"id":"pmb42","title":"Leidingers Restauration","lat":"48.20138","lon":"16.36946","timestamp":["1882-12-23"],"importance":1,"abbr":"Lokal (K.LKL)","type":"Lokal"}},{"type":"Feature","geometry":{"type":"Point","coordinates":[16.362757,48.213278]},"properties":{"id":"pmb182611","title":"Café Hobiger","lat":"48.213278","lon":"16.362757","timestamp":["1882-12-23"],"importance":1,"abbr":"Kaffeehaus (K.KAF)","type":"Kaffeehaus"}},{"type":"Feature","geometry":{"type":"Point","coordinates":[16.363819,48.20334]},"properties":{"id":"pmb168765","title":"Wohnung und Ordination Johann Schnitzler Burgring 1","lat":"48.20334","lon":"16.363819","timestamp":["1882-12-23"],"importance":1,"abbr":"Ordination","type":"Ordination"}},{"type":"Feature","geometry":{"type":"Point","coordinates":[16.38735,48.19422]},"properties":{"id":"pmb182655","title":"Café Aspang","lat":"48.19422","lon":"16.38735","timestamp":["1882-12-23"],"importance":1,"abbr":"Kaffeehaus (K.KAF)","type":"Kaffeehaus"}},{"type":"Feature","geometry":{"type":"Point","coordinates":[16.3642,48.19941]},"properties":{"id":"pmb37","title":"Theater an der Wien","lat":"48.19941","lon":"16.3642","timestamp":["1882-12-23"],"importance":1,"abbr":"Theater (K.THE)","type":"Theater"}},{"type":"Feature","geometry":{"type":"Point","coordinates":[16.364351,48.199478]},"properties":{"id":"pmb92603","title":"Wiednertheater","lat":"48.199478","lon":"16.364351","timestamp":["1882-12-23"],"importance":1}}],"hierarchy":[{"id":"pmb50","name":"Wien","children":[{"id":"pmb51","name":"I., Innere Stadt","children":[{"id":"pmb42","name":"Leidingers Restauration","children":[]},{"id":"pmb182611","name":"Café Hobiger","children":[]},{"id":"pmb168765","name":"Wohnung und Ordination Johann Schnitzler Burgring 1","children":[]}]},{"id":"pmb53","name":"III., Landstraße","children":[{"id":"pmb182655","name":"Café Aspang","children":[]}]},{"id":"pmb56","name":"VI., Mariahilf","children":[{"id":"pmb37","name":"Theater an der Wien","children":[]}]},{"id":"pmb54","name":"IV., Wieden","children":[{"id":"pmb92603","name":"Wiednertheater","children":[]}]}]}]}