{"type":"FeatureCollection","features":[{"type":"Feature","geometry":{"type":"LineString","coordinates":[[16.363819,48.20334],[16.371614,48.201589],[16.372564182283,48.201265597319],[16.374618,48.204074],[16.365278,48.210278],[16.362757,48.213278]]},"properties":{"name":"5. März 1882"}},{"type":"Feature","geometry":{"type":"Point","coordinates":[16.365278,48.210278]},"properties":{"id":"pmb262","title":"Café Central","lat":"48.210278","lon":"16.365278","timestamp":["1882-03-05"],"importance":1,"wikipedia":"https://de.wikipedia.org/wiki/Caf%C3%A9_Central","wikidata":"http://www.wikidata.org/entity/Q694757","abbr":"Kaffeehaus (K.KAF)","type":"Kaffeehaus"}},{"type":"Feature","geometry":{"type":"Point","coordinates":[16.362757,48.213278]},"properties":{"id":"pmb182611","title":"Café Hobiger","lat":"48.213278","lon":"16.362757","timestamp":["1882-03-05"],"importance":1,"abbr":"Kaffeehaus (K.KAF)","type":"Kaffeehaus"}},{"type":"Feature","geometry":{"type":"Point","coordinates":[16.371614,48.201589]},"properties":{"id":"pmb182664","title":"Café zum Künstlerhaus","lat":"48.201589","lon":"16.371614","timestamp":["1882-03-05"],"importance":1,"abbr":"Kaffeehaus (K.KAF)","type":"Kaffeehaus"}},{"type":"Feature","geometry":{"type":"Point","coordinates":[16.374618,48.204074]},"properties":{"id":"pmb187186","title":"Kaffehaus Ferdinand Gause","lat":"48.204074","lon":"16.374618","timestamp":["1882-03-05"],"importance":1,"abbr":"Kaffeehaus (K.KAF)","type":"Kaffeehaus"}},{"type":"Feature","geometry":{"type":"Point","coordinates":[16.372564182283,48.201265597319]},"properties":{"id":"pmb516","title":"Musikverein","lat":"48.201265597319","lon":"16.372564182283","timestamp":["1882-03-05"],"importance":1,"abbr":"Konzertsaal (K.KNZ)","type":"Konzertsaal"}},{"type":"Feature","geometry":{"type":"Point","coordinates":[16.363819,48.20334]},"properties":{"id":"pmb168765","title":"Wohnung und Ordination Johann Schnitzler Burgring 1","lat":"48.20334","lon":"16.363819","timestamp":["1882-03-05"],"importance":1,"abbr":"Ordination","type":"Ordination"}}],"hierarchy":[{"id":"pmb50","name":"Wien","children":[{"id":"pmb51","name":"I., Innere Stadt","children":[{"id":"pmb262","name":"Café Central","children":[]},{"id":"pmb182611","name":"Café Hobiger","children":[]},{"id":"pmb182664","name":"Café zum Künstlerhaus","children":[]},{"id":"pmb187186","name":"Kaffehaus Ferdinand Gause","children":[]},{"id":"pmb516","name":"Musikverein","children":[]},{"id":"pmb168765","name":"Wohnung und Ordination Johann Schnitzler Burgring 1","children":[]}]}]}]}