{"type":"FeatureCollection","features":[{"type":"Feature","geometry":{"type":"LineString","coordinates":[[8.74512,46.00185],[8.52676,45.89556],[8.85927,45.97167],[8.96004,46.01008],[9.23907,46.02075],[9.12921,46.03714],[8.79953,46.17086]]},"properties":{"name":"22. August 1885"}},{"type":"Feature","geometry":{"type":"Point","coordinates":[8.79953,46.17086]},"properties":{"id":"pmb49781","title":"Locarno","lat":"46.17086","lon":"8.79953","timestamp":["1885-08-22"],"importance":1,"wikipedia":"https://de.wikipedia.org/wiki/Locarno","wikidata":"http://www.wikidata.org/entity/Q11935","geonames":"https://sws.geonames.org/2659869/","abbr":"P.PPLA2","type":"Hauptstadt"}},{"type":"Feature","geometry":{"type":"Point","coordinates":[8.52676,45.89556]},"properties":{"id":"pmb89841","title":"Isola Bella","lat":"45.89556","lon":"8.52676","timestamp":["1885-08-22"],"importance":1,"wikipedia":"https://de.wikipedia.org/wiki/Isola_Bella_(Lago_Maggiore)","wikidata":"http://www.wikidata.org/entity/Q174054","geonames":"https://sws.geonames.org/6693888/","abbr":"T.ISL","type":"Insel"}},{"type":"Feature","geometry":{"type":"Point","coordinates":[8.74512,46.00185]},"properties":{"id":"pmb54223","title":"Luino","lat":"46.00185","lon":"8.74512","timestamp":["1885-08-22"],"importance":1,"geonames":"https://sws.geonames.org/3174483/","abbr":"P.PPLA3","type":"Hauptstadt"}},{"type":"Feature","geometry":{"type":"Point","coordinates":[8.96004,46.01008]},"properties":{"id":"pmb885","title":"Lugano","lat":"46.01008","lon":"8.96004","timestamp":["1885-08-22"],"importance":1,"wikipedia":"https://de.wikipedia.org/wiki/Lugano","wikidata":"http://www.wikidata.org/entity/Q7024","geonames":"https://sws.geonames.org/2659836/","abbr":"P.PPLA2","type":"Hauptstadt"}},{"type":"Feature","geometry":{"type":"Point","coordinates":[9.12921,46.03714]},"properties":{"id":"pmb91506","title":"Porlezza","lat":"46.03714","lon":"9.12921","timestamp":["1885-08-22"],"importance":1,"geonames":"https://sws.geonames.org/3170141/","abbr":"P.PPLA3","type":"Hauptstadt"}},{"type":"Feature","geometry":{"type":"Point","coordinates":[9.23907,46.02075]},"properties":{"id":"pmb91227","title":"Menaggio","lat":"46.02075","lon":"9.23907","timestamp":["1885-08-22"],"importance":1,"geonames":"https://sws.geonames.org/3173598/","abbr":"P.PPLA3","type":"Hauptstadt"}},{"type":"Feature","geometry":{"type":"Point","coordinates":[8.85927,45.97167]},"properties":{"id":"pmb91502","title":"Ponte Tresa","lat":"45.97167","lon":"8.85927","timestamp":["1885-08-22"],"importance":1,"wikipedia":"https://de.wikipedia.org/wiki/Ponte_Tresa_TI","wikidata":"http://www.wikidata.org/entity/Q68203","geonames":"https://sws.geonames.org/6620244/","abbr":"P.PPL","type":"Besiedelter Ort"}}],"hierarchy":[{"id":"pmb49781","name":"Locarno","children":[]},{"id":"pmb89841","name":"Isola Bella","children":[]},{"id":"pmb54223","name":"Luino","children":[]},{"id":"pmb885","name":"Lugano","children":[]},{"id":"pmb91506","name":"Porlezza","children":[]},{"id":"pmb91227","name":"Menaggio","children":[]},{"id":"pmb91502","name":"Ponte Tresa","children":[]}]}