{"type":"FeatureCollection","features":[{"type":"Feature","geometry":{"type":"LineString","coordinates":[[-1.5761111111111,50.666388888889],[-1.20672,50.59449],[-1.31389,50.6875],[-1.29124,50.70146],[-1.52616,50.68365]]},"properties":{"name":"24. Juli 1888"}},{"type":"Feature","geometry":{"type":"Point","coordinates":[-1.20672,50.59449]},"properties":{"id":"pmb92005","title":"Ventnor","lat":"50.59449","lon":"-1.20672","timestamp":["1888-07-24"],"importance":1,"geonames":"https://sws.geonames.org/2634985/","abbr":"P.PPL","type":"Besiedelter Ort"}},{"type":"Feature","geometry":{"type":"Point","coordinates":[-1.29124,50.70146]},"properties":{"id":"pmb91348","title":"Newport","lat":"50.70146","lon":"-1.29124","timestamp":["1888-07-24"],"importance":1,"wikipedia":"https://de.wikipedia.org/wiki/Newport_(Isle_of_Wight)","wikidata":"http://www.wikidata.org/entity/Q985594","geonames":"https://sws.geonames.org/2641599/","abbr":"P.PPLA2","type":"Hauptstadt"}},{"type":"Feature","geometry":{"type":"Point","coordinates":[-1.5761111111111,50.666388888889]},"properties":{"id":"pmb185294","title":"Alum Bay","lat":"50.666388888889","lon":"-1.5761111111111","timestamp":["1888-07-24"],"importance":1,"wikipedia":"https://de.wikipedia.org/wiki/Alum_Bay","wikidata":"http://www.wikidata.org/entity/Q447363","geonames":"https://sws.geonames.org/2657398/","abbr":"H.BAY","type":"Bucht"}},{"type":"Feature","geometry":{"type":"Point","coordinates":[-1.31389,50.6875]},"properties":{"id":"pmb185297","title":"Carisbrooke Castle","lat":"50.6875","lon":"-1.31389","timestamp":["1888-07-24"],"importance":1,"wikipedia":"https://de.wikipedia.org/wiki/Carisbrooke_Castle","wikidata":"http://www.wikidata.org/entity/Q328595","geonames":"https://sws.geonames.org/6287182/","abbr":"S.CSTL","type":"Burg"}},{"type":"Feature","geometry":{"type":"Point","coordinates":[-1.52616,50.68365]},"properties":{"id":"pmb90653","title":"Freshwater","lat":"50.68365","lon":"-1.52616","timestamp":["1888-07-24"],"importance":1,"geonames":"https://sws.geonames.org/2649069/","abbr":"P.PPLA3","type":"Hauptstadt"}}],"hierarchy":[{"id":"pmb92005","name":"Ventnor","children":[]},{"id":"pmb91348","name":"Newport","children":[]},{"id":"pmb185294","name":"Alum Bay","children":[]},{"id":"pmb185299","name":"Carisbrooke","children":[{"id":"pmb185297","name":"Carisbrooke Castle","children":[]}]},{"id":"pmb90653","name":"Freshwater","children":[]}]}