{"type":"FeatureCollection","features":[{"type":"Feature","geometry":{"type":"LineString","coordinates":[[-1.29772,50.76306],[-1.29124,50.70146],[-1.1621,50.72999],[-0.053842,51.44923],[-0.17499,51.49433]]},"properties":{"name":"25. Juli 1888"}},{"type":"Feature","geometry":{"type":"Point","coordinates":[-0.053842,51.44923]},"properties":{"id":"pmb288554","title":"Woodville Hall","lat":"51.44923","lon":"-0.053842","timestamp":["1888-07-25"],"importance":1,"wikidata":"http://www.wikidata.org/entity/Q26665316","abbr":"Wohngeb채ude (K.WHS)","type":"Wohngeb채ude","wohnort":[{"p_name":"Julie Markbreiter","p_id":"#21037"},{"p_name":"Felix Markbreiter","p_id":"#21028"}]}},{"type":"Feature","geometry":{"type":"Point","coordinates":[-0.17499,51.49433]},"properties":{"id":"pmb92194","title":"18, Cromwell Place","lat":"51.49433","lon":"-0.17499","timestamp":["1888-07-25"],"importance":1,"abbr":"Wohngeb채ude (K.WHS)","type":"Wohngeb채ude"}},{"type":"Feature","geometry":{"type":"Point","coordinates":[-1.29124,50.70146]},"properties":{"id":"pmb91348","title":"Newport","lat":"50.70146","lon":"-1.29124","timestamp":["1888-07-25"],"importance":1,"wikipedia":"https://de.wikipedia.org/wiki/Newport_(Isle_of_Wight)","wikidata":"http://www.wikidata.org/entity/Q985594","geonames":"https://sws.geonames.org/2641599/","abbr":"P.PPLA2","type":"Hauptstadt"}},{"type":"Feature","geometry":{"type":"Point","coordinates":[-1.29772,50.76306]},"properties":{"id":"pmb90069","title":"Cowes","lat":"50.76306","lon":"-1.29772","timestamp":["1888-07-25"],"importance":1,"geonames":"https://sws.geonames.org/2652204/","abbr":"P.PPLA3","type":"Hauptstadt"}},{"type":"Feature","geometry":{"type":"Point","coordinates":[-1.1621,50.72999]},"properties":{"id":"pmb91626","title":"Ryde","lat":"50.72999","lon":"-1.1621","timestamp":["1888-07-25"],"importance":1,"geonames":"https://sws.geonames.org/2638911/","abbr":"P.PPL","type":"Besiedelter Ort"}}],"hierarchy":[{"id":"pmb224","name":"London","children":[{"id":"pmb402","name":"Honor Oak","children":[{"id":"pmb288554","name":"Woodville Hall","children":[]}]},{"id":"pmb92194","name":"18, Cromwell Place","children":[]}]},{"id":"pmb90938","name":"Isle of Wight","children":[{"id":"pmb91348","name":"Newport","children":[]},{"id":"pmb90069","name":"Cowes","children":[]},{"id":"pmb91626","name":"Ryde","children":[]}]}]}