{"type":"FeatureCollection","features":[{"type":"Feature","geometry":{"type":"LineString","coordinates":[[13.060833,47.762222],[13.052689,47.796539],[13.046155,47.802721],[13.043401,47.802045],[13.0458,47.7969]]},"properties":{"name":"21. September 1890"}},{"type":"Feature","geometry":{"type":"Point","coordinates":[13.043401,47.802045]},"properties":{"id":"pmb230","title":"Österreichischer Hof","lat":"47.802045","lon":"13.043401","timestamp":["1890-09-21"],"importance":1,"wikipedia":"https://de.wikipedia.org/wiki/Hotel_Sacher_Salzburg","wikidata":"http://www.wikidata.org/entity/Q1631024","abbr":"Hotel (K.HTL)","type":"Hotel","arbeitsort":[{"p_name":"Franz Irresberger","p_id":"#28739"}]}},{"type":"Feature","geometry":{"type":"Point","coordinates":[13.0458,47.7969]},"properties":{"id":"pmb190287","title":"Stift Sankt Peter","lat":"47.7969","lon":"13.0458","timestamp":["1890-09-21"],"importance":1,"wikipedia":"https://de.wikipedia.org/wiki/Stift_Sankt_Peter_(Salzburg)","wikidata":"http://www.wikidata.org/entity/Q675735","geonames":"https://sws.geonames.org/6956636/","abbr":"S.CH","type":"Kirche"}},{"type":"Feature","geometry":{"type":"Point","coordinates":[13.052689,47.796539]},"properties":{"id":"pmb190291","title":"Restauration Schanzl","lat":"47.796539","lon":"13.052689","timestamp":["1890-09-21"],"importance":1,"abbr":"S.REST","type":"Restaurant"}},{"type":"Feature","geometry":{"type":"Point","coordinates":[13.046155,47.802721]},"properties":{"id":"pmb190294","title":"Gasthof zum Tiger","lat":"47.802721","lon":"13.046155","timestamp":["1890-09-21"],"importance":1,"abbr":"Gastgewerbegebäude (K.GGW)","type":"Gastgewerbegebäude","wohnort":[{"p_name":"Marie Glümer","p_id":"#14953"}]}},{"type":"Feature","geometry":{"type":"Point","coordinates":[13.060833,47.762222]},"properties":{"id":"pmb31","title":"Hellbrunn","lat":"47.762222","lon":"13.060833","timestamp":["1890-09-21"],"importance":1,"wikipedia":"https://de.wikipedia.org/wiki/Hellbrunn","wikidata":"http://www.wikidata.org/entity/Q1602704","geonames":"https://sws.geonames.org/2776533/","abbr":"P.PPL","type":"Besiedelter Ort"}}],"hierarchy":[{"id":"pmb30","name":"Salzburg","children":[{"id":"pmb230","name":"Österreichischer Hof","children":[]},{"id":"pmb190287","name":"Stift Sankt Peter","children":[]},{"id":"pmb190291","name":"Restauration Schanzl","children":[]},{"id":"pmb190294","name":"Gasthof zum Tiger","children":[]},{"id":"pmb31","name":"Hellbrunn","children":[]}]}]}