{"type":"FeatureCollection","features":[{"type":"Feature","geometry":{"type":"LineString","coordinates":[[12.336106,45.4328],[12.339857,45.433696],[12.33835,45.43411],[12.339722222222,45.434444444444],[12.33052,45.43598]]},"properties":{"name":"18. September 1892"}},{"type":"Feature","geometry":{"type":"Point","coordinates":[12.336106,45.4328]},"properties":{"id":"pmb310","title":"Grand Hotel Bauer-Gr체nwald","lat":"45.4328","lon":"12.336106","timestamp":["1892-09-18"],"importance":1,"abbr":"Hotel (K.HTL)","type":"Hotel"}},{"type":"Feature","geometry":{"type":"Point","coordinates":[12.339722222222,45.434444444444]},"properties":{"id":"pmb192409","title":"Basilica di San Marco","lat":"45.434444444444","lon":"12.339722222222","timestamp":["1892-09-18"],"importance":1,"wikipedia":"https://de.wikipedia.org/wiki/Markusdom","wikidata":"http://www.wikidata.org/entity/Q172988","geonames":"https://sws.geonames.org/7535507/","abbr":"S.CH","type":"Kirche"}},{"type":"Feature","geometry":{"type":"Point","coordinates":[12.339857,45.433696]},"properties":{"id":"pmb149","title":"Palazzo Ducale","lat":"45.433696","lon":"12.339857","timestamp":["1892-09-18"],"importance":1,"wikipedia":"https://de.wikipedia.org/wiki/Dogenpalast","wikidata":"http://www.wikidata.org/entity/Q189883","abbr":"Geb채ude (K.GBD)","type":"Geb채ude"}},{"type":"Feature","geometry":{"type":"Point","coordinates":[12.33052,45.43598]},"properties":{"id":"pmb90440","title":"Canal Grande","lat":"45.43598","lon":"12.33052","timestamp":["1892-09-18"],"importance":1,"wikipedia":"https://de.wikipedia.org/wiki/Canal_Grande","wikidata":"http://www.wikidata.org/entity/Q309243","geonames":"https://sws.geonames.org/3175933/","abbr":"H.CNL","type":"Kanal"}},{"type":"Feature","geometry":{"type":"Point","coordinates":[12.33835,45.43411]},"properties":{"id":"pmb261","title":"Piazza San Marco","lat":"45.43411","lon":"12.33835","timestamp":["1892-09-18"],"importance":1,"wikipedia":"https://de.wikipedia.org/wiki/Markusplatz","wikidata":"http://www.wikidata.org/entity/Q217527","geonames":"https://sws.geonames.org/3229870/","abbr":"S.SQR","type":"Platz"}}],"hierarchy":[{"id":"pmb462","name":"Venedig","children":[{"id":"pmb310","name":"Grand Hotel Bauer-Gr체nwald","children":[]},{"id":"pmb192409","name":"Basilica di San Marco","children":[]},{"id":"pmb149","name":"Palazzo Ducale","children":[]},{"id":"pmb90440","name":"Canal Grande","children":[]},{"id":"pmb261","name":"Piazza San Marco","children":[]}]}]}