{"type":"FeatureCollection","features":[{"type":"Feature","geometry":{"type":"LineString","coordinates":[[12.35,45.38333],[12.342397222222,45.439216666667],[12.33835,45.43411],[12.336106,45.4328],[12.33471,45.43062],[12.32221,45.44128],[12.32798,45.431245]]},"properties":{"name":"19. September 1892"}},{"type":"Feature","geometry":{"type":"Point","coordinates":[12.336106,45.4328]},"properties":{"id":"pmb310","title":"Grand Hotel Bauer-Grünwald","lat":"45.4328","lon":"12.336106","timestamp":["1892-09-19"],"importance":1,"abbr":"Hotel (K.HTL)","type":"Hotel"}},{"type":"Feature","geometry":{"type":"Point","coordinates":[12.32798,45.431245]},"properties":{"id":"pmb43220","title":"Gallerie dell’Accademia","lat":"45.431245","lon":"12.32798","timestamp":["1892-09-19"],"importance":1,"wikipedia":"https://de.wikipedia.org/wiki/Accademia_(Venedig)","wikidata":"http://www.wikidata.org/entity/Q338330","abbr":"Museum (K.MUS)","type":"Museum"}},{"type":"Feature","geometry":{"type":"Point","coordinates":[12.32221,45.44128]},"properties":{"id":"pmb192418","title":"Santa Maria degli Scalzi","lat":"45.44128","lon":"12.32221","timestamp":["1892-09-19"],"importance":1,"wikipedia":"https://de.wikipedia.org/wiki/Santa_Maria_di_Nazareth_(Scalzi)","wikidata":"http://www.wikidata.org/entity/Q748689","abbr":"Kirche (K.KRC)","type":"Kirche"}},{"type":"Feature","geometry":{"type":"Point","coordinates":[12.342397222222,45.439216666667]},"properties":{"id":"pmb192421","title":"Santi Giovanni e Paolo","lat":"45.439216666667","lon":"12.342397222222","timestamp":["1892-09-19"],"importance":1,"wikipedia":"https://de.wikipedia.org/wiki/San_Zanipolo","wikidata":"http://www.wikidata.org/entity/Q155225","geonames":"https://sws.geonames.org/7910511/","abbr":"S.CH","type":"Kirche"}},{"type":"Feature","geometry":{"type":"Point","coordinates":[12.33471,45.43062]},"properties":{"id":"pmb147816","title":"Santa Maria della Salute","lat":"45.43062","lon":"12.33471","timestamp":["1892-09-19"],"importance":1,"wikipedia":"https://de.wikipedia.org/wiki/Santa_Maria_della_Salute","wikidata":"http://www.wikidata.org/entity/Q52531","geonames":"https://sws.geonames.org/7910703/","abbr":"S.CH","type":"Kirche"}},{"type":"Feature","geometry":{"type":"Point","coordinates":[12.35,45.38333]},"properties":{"id":"pmb259","title":"Lido","lat":"45.38333","lon":"12.35","timestamp":["1892-09-19"],"importance":1,"wikidata":"http://www.wikidata.org/entity/Q16866834","geonames":"https://sws.geonames.org/3174748/","abbr":"P.PPL","type":"Besiedelter Ort"}},{"type":"Feature","geometry":{"type":"Point","coordinates":[12.33835,45.43411]},"properties":{"id":"pmb261","title":"Piazza San Marco","lat":"45.43411","lon":"12.33835","timestamp":["1892-09-19"],"importance":1,"wikipedia":"https://de.wikipedia.org/wiki/Markusplatz","wikidata":"http://www.wikidata.org/entity/Q217527","geonames":"https://sws.geonames.org/3229870/","abbr":"S.SQR","type":"Platz"}}],"hierarchy":[{"id":"pmb462","name":"Venedig","children":[{"id":"pmb310","name":"Grand Hotel Bauer-Grünwald","children":[]},{"id":"pmb43220","name":"Gallerie dell’Accademia","children":[]},{"id":"pmb192418","name":"Santa Maria degli Scalzi","children":[]},{"id":"pmb192421","name":"Santi Giovanni e Paolo","children":[]},{"id":"pmb147816","name":"Santa Maria della Salute","children":[]},{"id":"pmb259","name":"Lido","children":[]},{"id":"pmb261","name":"Piazza San Marco","children":[]}]}]}