{"type":"FeatureCollection","features":[{"type":"Feature","geometry":{"type":"LineString","coordinates":[[15.8241,47.64224],[15.43333,47.06667],[16.08107,47.72096],[16.357233,48.212477],[15.84704,47.70466]]},"properties":{"name":"31. August 1893"}},{"type":"Feature","geometry":{"type":"Point","coordinates":[15.43333,47.06667]},"properties":{"id":"pmb860","title":"Graz","lat":"47.06667","lon":"15.43333","timestamp":["1893-08-31"],"importance":1,"wikipedia":"https://de.wikipedia.org/wiki/Graz","wikidata":"http://www.wikidata.org/entity/Q13298","geonames":"https://sws.geonames.org/7871499/ https://sws.geonames.org/2778058/","abbr":"A.ADM2","type":"Verwaltungsgebiet"}},{"type":"Feature","geometry":{"type":"Point","coordinates":[16.357233,48.212477]},"properties":{"id":"pmb167782","title":"Wohnung und Ordination Arthur Schnitzler Grillparzerstraße 7/3. Stock","lat":"48.212477","lon":"16.357233","timestamp":["1893-08-31"],"importance":1,"abbr":"Ordination","type":"Ordination"}},{"type":"Feature","geometry":{"type":"Point","coordinates":[15.84704,47.70466]},"properties":{"id":"pmb796","title":"Thalhof","lat":"47.70466","lon":"15.84704","timestamp":["1893-08-31"],"importance":1,"geonames":"https://sws.geonames.org/2763740/","abbr":"S.HTL","type":"Hotel"}},{"type":"Feature","geometry":{"type":"Point","coordinates":[15.8241,47.64224]},"properties":{"id":"pmb189","title":"Semmering","lat":"47.64224","lon":"15.8241","timestamp":["1893-08-31"],"importance":1,"wikipedia":"https://de.wikipedia.org/wiki/Semmering_(Nieder%C3%B6sterreich)","wikidata":"http://www.wikidata.org/entity/Q659891","geonames":"https://sws.geonames.org/7873001/","abbr":"A.ADM3","type":"Verwaltungsgebiet"}},{"type":"Feature","geometry":{"type":"Point","coordinates":[16.08107,47.72096]},"properties":{"id":"pmb91340","title":"Neunkirchen","lat":"47.72096","lon":"16.08107","timestamp":["1893-08-31"],"importance":1,"geonames":"https://sws.geonames.org/2770711/","abbr":"P.PPLA3","type":"Hauptstadt"}}],"hierarchy":[{"id":"pmb860","name":"Graz","children":[]},{"id":"pmb50","name":"Wien","children":[{"id":"pmb51","name":"I., Innere Stadt","children":[{"id":"pmb167782","name":"Wohnung und Ordination Arthur Schnitzler Grillparzerstraße 7/3. Stock","children":[]}]}]},{"id":"pmb483","name":"Reichenau an der Rax","children":[{"id":"pmb796","name":"Thalhof","children":[]}]},{"id":"pmb189","name":"Semmering","children":[]},{"id":"pmb91340","name":"Neunkirchen","children":[]}]}