{"type":"FeatureCollection","features":[{"type":"Feature","geometry":{"type":"LineString","coordinates":[[10.727068,59.91505],[10.734349,59.91352],[10.74,59.91305555555556],[10.739572,59.91373],[10.7393,59.9177],[10.67931,59.97795],[10.667777777778,59.963888888889],[10.66824,59.96107]]},"properties":{"name":"25. Juli 1896"}},{"type":"Feature","geometry":{"type":"Point","coordinates":[10.739572,59.91373]},"properties":{"id":"pmb199739","title":"Grand Hotel [Oslo]","lat":"59.91373","lon":"10.739572","timestamp":["1896-07-25"],"importance":1,"wikipedia":"https://de.wikipedia.org/wiki/Grand_Hotel_(Oslo)","wikidata":"http://www.wikidata.org/entity/Q1542588","abbr":"Hotel (K.HTL)","type":"Hotel"}},{"type":"Feature","geometry":{"type":"Point","coordinates":[10.734349,59.91352]},"properties":{"id":"pmb187310","title":"Tivoli [Oslo]","lat":"59.91352","lon":"10.734349","timestamp":["1896-07-25"],"importance":1,"wikipedia":"https://de.wikipedia.org/wiki/Tivoli_(Oslo)","wikidata":"http://www.wikidata.org/entity/Q867585","abbr":"Veranstaltungsgebäude (K.VSB)","type":"Veranstaltungsgebäude"}},{"type":"Feature","geometry":{"type":"Point","coordinates":[10.74,59.91305555555556]},"properties":{"id":"pmb199750","title":"Stortinget","lat":"59.91305555555556","lon":"10.74","timestamp":["1896-07-25"],"importance":1,"wikipedia":"https://de.wikipedia.org/wiki/Storting","wikidata":"http://www.wikidata.org/entity/Q109016","abbr":"Regierungsgebäude (K.RGB)","type":"Regierungsgebäude"}},{"type":"Feature","geometry":{"type":"Point","coordinates":[10.7393,59.9177]},"properties":{"id":"pmb199753","title":"Oslo Kunstforening","lat":"59.9177","lon":"10.7393","timestamp":["1896-07-25"],"importance":1,"wikidata":"http://www.wikidata.org/entity/Q3441348","abbr":"Museum (K.MUS)","type":"Museum"}},{"type":"Feature","geometry":{"type":"Point","coordinates":[10.727068,59.91505]},"properties":{"id":"pmb199756","title":"[Wohnhaus von Henrik Ibsen]","lat":"59.91505","lon":"10.727068","timestamp":["1896-07-25"],"importance":1,"wikipedia":"https://de.wikipedia.org/wiki/Ibsen-Museum","wikidata":"http://www.wikidata.org/entity/Q1519078","abbr":"Wohngebäude (K.WHS)","type":"Wohngebäude","wohnort":[{"p_name":"Henrik Ibsen","p_id":"#11798"}]}},{"type":"Feature","geometry":{"type":"Point","coordinates":[10.667777777778,59.963888888889]},"properties":{"id":"pmb199760","title":"Holmenkollbakken","lat":"59.963888888889","lon":"10.667777777778","timestamp":["1896-07-25"],"importance":1,"wikipedia":"https://de.wikipedia.org/wiki/Holmenkollbakken","wikidata":"http://www.wikidata.org/entity/Q33572"}},{"type":"Feature","geometry":{"type":"Point","coordinates":[10.66824,59.96107]},"properties":{"id":"pmb90903","title":"Holmenkollen","lat":"59.96107","lon":"10.66824","timestamp":["1896-07-25"],"importance":1,"geonames":"https://sws.geonames.org/3152136/","abbr":"P.PPL","type":"Besiedelter Ort"}},{"type":"Feature","geometry":{"type":"Point","coordinates":[10.67931,59.97795]},"properties":{"id":"pmb90663","title":"Frognerseteren","lat":"59.97795","lon":"10.67931","timestamp":["1896-07-25"],"importance":1,"geonames":"https://sws.geonames.org/3156467/","abbr":"P.PPLX","type":"Ehemaliger Ort"}}],"hierarchy":[{"id":"pmb36296","name":"Oslo","children":[{"id":"pmb199739","name":"Grand Hotel [Oslo]","children":[]},{"id":"pmb187310","name":"Tivoli [Oslo]","children":[]},{"id":"pmb199750","name":"Stortinget","children":[]},{"id":"pmb199753","name":"Oslo Kunstforening","children":[]},{"id":"pmb199756","name":"[Wohnhaus von Henrik Ibsen]","children":[]},{"id":"pmb199760","name":"Holmenkollbakken","children":[]}]},{"id":"pmb90903","name":"Holmenkollen","children":[]},{"id":"pmb90663","name":"Frognerseteren","children":[]}]}