{"type":"FeatureCollection","features":[{"type":"Feature","geometry":{"type":"LineString","coordinates":[[9.983679,53.544509],[9.994013,53.551126],[9.99224,53.55309],[9.964,53.557],[9.8262,53.5725]]},"properties":{"name":"6. Juli 1896"}},{"type":"Feature","geometry":{"type":"Point","coordinates":[9.99224,53.55309]},"properties":{"id":"pmb43368","title":"Hotel zum Kronprinzen [Hamburg, –1911]","lat":"53.55309","lon":"9.99224","timestamp":["1896-07-06"],"importance":1,"wikidata":"http://www.wikidata.org/entity/Q134416670","abbr":"Hotel (K.HTL)","type":"Hotel"}},{"type":"Feature","geometry":{"type":"Point","coordinates":[9.994013,53.551126]},"properties":{"id":"pmb184984","title":"Restaurant Pfordte [I]","lat":"53.551126","lon":"9.994013","timestamp":["1896-07-06"],"importance":1,"abbr":"S.REST","type":"Restaurant"}},{"type":"Feature","geometry":{"type":"Point","coordinates":[9.983679,53.544509]},"properties":{"id":"pmb52304","title":"Alster","lat":"53.544509","lon":"9.983679","timestamp":["1896-07-06"],"importance":1,"wikipedia":"https://de.wikipedia.org/wiki/Alster","wikidata":"http://www.wikidata.org/entity/Q1219","geonames":"https://sws.geonames.org/2958108/","abbr":"Fluss (N.FLS)","type":"Fluss"}},{"type":"Feature","geometry":{"type":"Point","coordinates":[9.8262,53.5725]},"properties":{"id":"pmb1259","title":"Altona","lat":"53.5725","lon":"9.8262","timestamp":["1896-07-06"],"importance":1,"wikipedia":"https://de.wikipedia.org/wiki/Bezirk_Altona","wikidata":"http://www.wikidata.org/entity/Q1630","geonames":"https://sws.geonames.org/2911296/","abbr":"P.PPLX","type":"Ehemaliger Ort"}},{"type":"Feature","geometry":{"type":"Point","coordinates":[9.964,53.557]},"properties":{"id":"pmb91806","title":"St. Pauli","lat":"53.557","lon":"9.964","timestamp":["1896-07-06"],"importance":1,"wikipedia":"https://de.wikipedia.org/wiki/Hamburg-St._Pauli","wikidata":"http://www.wikidata.org/entity/Q1556","geonames":"https://sws.geonames.org/6944296/","abbr":"P.PPLX","type":"Ehemaliger Ort"}}],"hierarchy":[{"id":"pmb506","name":"Hamburg","children":[{"id":"pmb92314","name":"Jungfernstieg","children":[{"id":"pmb43368","name":"Hotel zum Kronprinzen [Hamburg, –1911]","children":[]}]},{"id":"pmb184984","name":"Restaurant Pfordte [I]","children":[]},{"id":"pmb52304","name":"Alster","children":[]},{"id":"pmb1259","name":"Altona","children":[]}]},{"id":"pmb91806","name":"St. Pauli","children":[]}]}