{"type":"FeatureCollection","features":[{"type":"Feature","geometry":{"type":"LineString","coordinates":[[2.10478,48.81449],[2.10976,48.81545],[2.340852,48.876475],[2.33662,48.88282],[2.33347,48.8833],[2.332222,48.884167]]},"properties":{"name":"28. April 1897"}},{"type":"Feature","geometry":{"type":"Point","coordinates":[2.340852,48.876475]},"properties":{"id":"pmb592","title":"5, rue de Maubeuge","lat":"48.876475","lon":"2.340852","timestamp":["1897-04-28"],"importance":1,"abbr":"Wohngebäude (K.WHS)","type":"Wohngebäude"}},{"type":"Feature","geometry":{"type":"Point","coordinates":[2.332222,48.884167]},"properties":{"id":"pmb200148","title":"Moulin Rouge","lat":"48.884167","lon":"2.332222","timestamp":["1897-04-28"],"importance":1,"wikipedia":"https://de.wikipedia.org/wiki/Moulin_Rouge","wikidata":"http://www.wikidata.org/entity/Q151030","geonames":"https://sws.geonames.org/6452937/","abbr":"S.MNMT","type":"Monument"}},{"type":"Feature","geometry":{"type":"Point","coordinates":[2.33662,48.88282]},"properties":{"id":"pmb200151","title":"Cabaret du Néant","lat":"48.88282","lon":"2.33662","timestamp":["1897-04-28"],"importance":1,"wikidata":"http://www.wikidata.org/entity/Q47172426","abbr":"Lokal (K.LKL)","type":"Lokal"}},{"type":"Feature","geometry":{"type":"Point","coordinates":[2.33347,48.8833]},"properties":{"id":"pmb200154","title":"Cabaret du Ciel","lat":"48.8833","lon":"2.33347","timestamp":["1897-04-28"],"importance":1,"wikidata":"http://www.wikidata.org/entity/Q48305510","abbr":"Lokal (K.LKL)","type":"Lokal"}},{"type":"Feature","geometry":{"type":"Point","coordinates":[2.10976,48.81545]},"properties":{"id":"pmb87808","title":"Petit Trianon","lat":"48.81545","lon":"2.10976","timestamp":["1897-04-28"],"importance":1,"wikipedia":"https://de.wikipedia.org/wiki/Petit_Trianon","wikidata":"http://www.wikidata.org/entity/Q8044","geonames":"https://sws.geonames.org/6284982/","abbr":"S.PAL","type":"Palast"}},{"type":"Feature","geometry":{"type":"Point","coordinates":[2.10478,48.81449]},"properties":{"id":"pmb87811","title":"Grand Trianon","lat":"48.81449","lon":"2.10478","timestamp":["1897-04-28"],"importance":1,"wikipedia":"https://de.wikipedia.org/wiki/Grand_Trianon","wikidata":"http://www.wikidata.org/entity/Q8049","geonames":"https://sws.geonames.org/6284981/","abbr":"S.PAL","type":"Palast"}}],"hierarchy":[{"id":"pmb182","name":"Paris","children":[{"id":"pmb592","name":"5, rue de Maubeuge","children":[]},{"id":"pmb200148","name":"Moulin Rouge","children":[]},{"id":"pmb200151","name":"Cabaret du Néant","children":[]},{"id":"pmb200154","name":"Cabaret du Ciel","children":[]}]},{"id":"pmb36549","name":"Versailles","children":[{"id":"pmb87808","name":"Petit Trianon","children":[]},{"id":"pmb87811","name":"Grand Trianon","children":[]}]}]}