{"type":"FeatureCollection","features":[{"type":"Feature","geometry":{"type":"LineString","coordinates":[[11.67418,46.41898],[11.99438,46.43783],[11.86983,46.45971],[11.79743,46.45779],[11.74199,46.47632]]},"properties":{"name":"8. August 1899"}},{"type":"Feature","geometry":{"type":"Point","coordinates":[11.99438,46.43783]},"properties":{"id":"pmb90446","title":"Caprile","lat":"46.43783","lon":"11.99438","timestamp":["1899-08-08"],"importance":1,"geonames":"https://sws.geonames.org/3180613/","abbr":"P.PPL","type":"Besiedelter Ort"}},{"type":"Feature","geometry":{"type":"Point","coordinates":[11.86983,46.45971]},"properties":{"id":"pmb90084","title":"Fedaia","lat":"46.45971","lon":"11.86983","timestamp":["1899-08-08"],"importance":1,"geonames":"https://sws.geonames.org/8354640/","abbr":"H.LK","type":"See"}},{"type":"Feature","geometry":{"type":"Point","coordinates":[11.79743,46.45779]},"properties":{"id":"pmb90208","title":"Alba-Penia","lat":"46.45779","lon":"11.79743","timestamp":["1899-08-08"],"importance":1,"wikidata":"http://www.wikidata.org/entity/Q18478635","geonames":"https://sws.geonames.org/3171264/","abbr":"P.PPL","type":"Besiedelter Ort"}},{"type":"Feature","geometry":{"type":"Point","coordinates":[11.74199,46.47632]},"properties":{"id":"pmb90436","title":"Campitello di Fassa","lat":"46.47632","lon":"11.74199","timestamp":["1899-08-08"],"importance":1,"geonames":"https://sws.geonames.org/6542172/","abbr":"A.ADM3","type":"Verwaltungsgebiet"}},{"type":"Feature","geometry":{"type":"Point","coordinates":[11.67418,46.41898]},"properties":{"id":"pmb40362","title":"Vigo di Fassa","lat":"46.41898","lon":"11.67418","timestamp":["1899-08-08"],"importance":1,"geonames":"https://sws.geonames.org/3164330/","abbr":"P.PPLA3","type":"Hauptstadt"}}],"hierarchy":[{"id":"pmb90446","name":"Caprile","children":[]},{"id":"pmb90084","name":"Fedaia","children":[]},{"id":"pmb90208","name":"Alba-Penia","children":[]},{"id":"pmb90436","name":"Campitello di Fassa","children":[]},{"id":"pmb40362","name":"Vigo di Fassa","children":[]}]}