{"type":"FeatureCollection","features":[{"type":"Feature","geometry":{"type":"LineString","coordinates":[[11.408388,46.489913],[11.4475,46.49555556],[11.58817,46.41147],[11.55704,46.47655],[11.63749,46.73901]]},"properties":{"name":"24. Juli 1901"}},{"type":"Feature","geometry":{"type":"Point","coordinates":[11.63749,46.73901]},"properties":{"id":"pmb946","title":"Vahrn","lat":"46.73901","lon":"11.63749","timestamp":["1901-07-24"],"importance":1,"geonames":"https://sws.geonames.org/3164691/","abbr":"P.PPLA3","type":"Hauptstadt"}},{"type":"Feature","geometry":{"type":"Point","coordinates":[11.58817,46.41147]},"properties":{"id":"pmb91003","title":"Carezza","lat":"46.41147","lon":"11.58817","timestamp":["1901-07-24"],"importance":1,"geonames":"https://sws.geonames.org/3180522/","abbr":"P.PPL","type":"Besiedelter Ort"}},{"type":"Feature","geometry":{"type":"Point","coordinates":[11.408388,46.489913]},"properties":{"id":"pmb231594","title":"Karneid","lat":"46.489913","lon":"11.408388","timestamp":["1901-07-24"],"importance":1,"wikipedia":"https://de.wikipedia.org/wiki/Karneid","wikidata":"http://www.wikidata.org/entity/Q377980","geonames":"https://sws.geonames.org/6536009/","abbr":"A.ADM3","type":"Verwaltungsgebiet"}},{"type":"Feature","geometry":{"type":"Point","coordinates":[11.55704,46.47655]},"properties":{"id":"pmb92071","title":"Lavina Bianca","lat":"46.47655","lon":"11.55704","timestamp":["1901-07-24"],"importance":1,"geonames":"https://sws.geonames.org/3182539/","abbr":"P.PPL","type":"Besiedelter Ort"}},{"type":"Feature","geometry":{"type":"Point","coordinates":[11.4475,46.49555556]},"properties":{"id":"pmb231599","title":"Blumau [Südtirol]","lat":"46.49555556","lon":"11.4475","timestamp":["1901-07-24"],"importance":1,"wikipedia":"https://de.wikipedia.org/wiki/Blumau_(S%C3%BCdtirol)","wikidata":"http://www.wikidata.org/entity/Q886156","abbr":"Besiedelter Ort (A.BSO)","type":"Besiedelter Ort"}}],"hierarchy":[{"id":"pmb946","name":"Vahrn","children":[{"id":"pmb333628","name":"Gasthof und Pension Waldsacker","children":[]}]},{"id":"pmb91003","name":"Carezza","children":[]},{"id":"pmb231594","name":"Karneid","children":[]},{"id":"pmb92071","name":"Lavina Bianca","children":[]},{"id":"pmb231599","name":"Blumau [Südtirol]","children":[]}]}