{"type":"FeatureCollection","features":[{"type":"Feature","geometry":{"type":"LineString","coordinates":[[13.383456,52.516152],[13.376984,52.509241],[13.389485,52.514615],[13.396,52.521],[13.396667,52.523333],[13.382222,52.524444]]},"properties":{"name":"14. Oktober 1902"}},{"type":"Feature","geometry":{"type":"Point","coordinates":[13.383456,52.516152]},"properties":{"id":"pmb127","title":"Hotel Bristol Berlin","lat":"52.516152","lon":"13.383456","timestamp":["1902-10-14"],"importance":1,"wikipedia":"https://de.wikipedia.org/wiki/Hotel_Bristol_(Berlin)","wikidata":"http://www.wikidata.org/entity/Q1630839","abbr":"Hotel (K.HTL)","type":"Hotel"}},{"type":"Feature","geometry":{"type":"Point","coordinates":[13.382222,52.524444]},"properties":{"id":"pmb3","title":"Deutsches Theater Berlin","lat":"52.524444","lon":"13.382222","timestamp":["1902-10-14"],"importance":1,"abbr":"Theater (K.THE)","type":"Theater","arbeitsort":[{"p_name":"Leopoldine Konstantin","p_id":"#8288"}]}},{"type":"Feature","geometry":{"type":"Point","coordinates":[13.396,52.521]},"properties":{"id":"pmb232180","title":"Pergamon Museum","lat":"52.521","lon":"13.396","timestamp":["1902-10-14"],"importance":1,"wikipedia":"https://de.wikipedia.org/wiki/Pergamonmuseum","wikidata":"http://www.wikidata.org/entity/Q157298","geonames":"https://sws.geonames.org/7911193/","abbr":"S.MUS","type":"Museum"}},{"type":"Feature","geometry":{"type":"Point","coordinates":[13.396667,52.523333]},"properties":{"id":"pmb232183","title":"Hohenzollern­museum","lat":"52.523333","lon":"13.396667","timestamp":["1902-10-14"],"importance":1,"wikidata":"http://www.wikidata.org/entity/Q131143711","abbr":"Museum (K.MUS)","type":"Museum"}},{"type":"Feature","geometry":{"type":"Point","coordinates":[13.389485,52.514615]},"properties":{"id":"pmb231799","title":"Eremitage","lat":"52.514615","lon":"13.389485","timestamp":["1902-10-14"],"importance":1,"abbr":"S.REST","type":"Restaurant"}},{"type":"Feature","geometry":{"type":"Point","coordinates":[13.376984,52.509241]},"properties":{"id":"pmb88","title":"Palasthotel Berlin","lat":"52.509241","lon":"13.376984","timestamp":["1902-10-14"],"importance":1,"wikipedia":"https://de.wikipedia.org/wiki/Palasthotel_(Berlin)","wikidata":"http://www.wikidata.org/entity/Q328191 http://www.wikidata.org/entity/Q114678726","abbr":"Hotel (K.HTL)","type":"Hotel","arbeitsort":[{"p_name":"Eduard Gutscher","p_id":"#146844"}]}}],"hierarchy":[{"id":"pmb168","name":"Berlin","children":[{"id":"pmb127","name":"Hotel Bristol Berlin","children":[]},{"id":"pmb3","name":"Deutsches Theater Berlin","children":[]},{"id":"pmb232180","name":"Pergamon Museum","children":[]},{"id":"pmb232183","name":"Hohenzollern­museum","children":[]},{"id":"pmb231799","name":"Eremitage","children":[]},{"id":"pmb88","name":"Palasthotel Berlin","children":[]}]}]}