{"type":"FeatureCollection","features":[{"type":"Feature","geometry":{"type":"LineString","coordinates":[[11.204546362228479,46.419092415685334],[11.205454,46.417787],[11.2105401,46.418677],[11.211145858,46.4203829],[11.211446406,46.43078237]]},"properties":{"name":"16. August 1903"}},{"type":"Feature","geometry":{"type":"Point","coordinates":[11.204546362228479,46.419092415685334]},"properties":{"id":"pmb233230","title":"Waldhof [Mendelpass]","lat":"46.419092415685334","lon":"11.204546362228479","timestamp":["1903-08-16"],"importance":1,"abbr":"Beherbergungsgebäude (K.BHB)","type":"Beherbergungsgebäude"}},{"type":"Feature","geometry":{"type":"Point","coordinates":[11.2105401,46.418677]},"properties":{"id":"pmb233247","title":"Ferdinandshöhe","lat":"46.418677","lon":"11.2105401","timestamp":["1903-08-16"],"importance":1,"abbr":"Aussichtspunkt","type":"Aussichtspunkt"}},{"type":"Feature","geometry":{"type":"Point","coordinates":[11.211145858,46.4203829]},"properties":{"id":"pmb233250","title":"Ferdinandssicht","lat":"46.4203829","lon":"11.211145858","timestamp":["1903-08-16"],"importance":1,"abbr":"Aussichtspunkt","type":"Aussichtspunkt"}},{"type":"Feature","geometry":{"type":"Point","coordinates":[11.205454,46.417787]},"properties":{"id":"pmb233257","title":"Hotel Mendelhof","lat":"46.417787","lon":"11.205454","timestamp":["1903-08-16"],"importance":1,"abbr":"Hotel (K.HTL)","type":"Hotel"}},{"type":"Feature","geometry":{"type":"Point","coordinates":[11.211446406,46.43078237]},"properties":{"id":"pmb233253","title":"Kleiner Penegal","lat":"46.43078237","lon":"11.211446406","timestamp":["1903-08-16"],"importance":1,"abbr":"Aussichtspunkt","type":"Aussichtspunkt"}}],"hierarchy":[{"id":"pmb41083","name":"Mendelpass","children":[{"id":"pmb233230","name":"Waldhof [Mendelpass]","children":[]},{"id":"pmb233247","name":"Ferdinandshöhe","children":[]},{"id":"pmb233250","name":"Ferdinandssicht","children":[]},{"id":"pmb233257","name":"Hotel Mendelhof","children":[]}]},{"id":"pmb233253","name":"Kleiner Penegal","children":[]}]}