{"type":"FeatureCollection","features":[{"type":"Feature","geometry":{"type":"LineString","coordinates":[[15.62863,47.64784],[15.86303,47.6913],[15.864472,47.695925],[15.84453,47.69852],[15.6707854,47.71778962],[15.66388888888889,47.711666666666666],[15.61159,47.70802]]},"properties":{"name":"16. Juli 1904"}},{"type":"Feature","geometry":{"type":"Point","coordinates":[15.84453,47.69852]},"properties":{"id":"pmb44982","title":"Kurhaus Rudolfsbad","lat":"47.69852","lon":"15.84453","timestamp":["1904-07-16"],"importance":1,"abbr":"Sanatorium (K.SAN)","type":"Sanatorium","arbeitsort":[{"p_name":"Wilhelm Wertheimer","p_id":"#26997"}]}},{"type":"Feature","geometry":{"type":"Point","coordinates":[15.6707854,47.71778962]},"properties":{"id":"pmb234252","title":"Binder-Wirtshaus im Reisstal","lat":"47.71778962","lon":"15.6707854","timestamp":["1904-07-16"],"importance":1,"abbr":"Gastgewerbegeb채ude (K.GGW)","type":"Gastgewerbegeb채ude"}},{"type":"Feature","geometry":{"type":"Point","coordinates":[15.66388888888889,47.711666666666666]},"properties":{"id":"pmb234270","title":"Nasskamm","lat":"47.711666666666666","lon":"15.66388888888889","timestamp":["1904-07-16"],"importance":1,"wikipedia":"https://de.wikipedia.org/wiki/Na%C3%9Fkamm","wikidata":"http://www.wikidata.org/entity/Q21866212","geonames":"https://sws.geonames.org/2770923/","abbr":"T.RDGE","type":"Grat"}},{"type":"Feature","geometry":{"type":"Point","coordinates":[15.61159,47.70802]},"properties":{"id":"pmb90231","title":"Altenberg an der Rax","lat":"47.70802","lon":"15.61159","timestamp":["1904-07-16"],"importance":1,"wikipedia":"https://de.wikipedia.org/wiki/Altenberg_an_der_Rax","wikidata":"http://www.wikidata.org/entity/Q436717","geonames":"https://sws.geonames.org/7872456/","abbr":"A.ADM3H","type":"Ehemaliges Gebiet"}},{"type":"Feature","geometry":{"type":"Point","coordinates":[15.62863,47.64784]},"properties":{"id":"pmb90995","title":"Kapellen","lat":"47.64784","lon":"15.62863","timestamp":["1904-07-16"],"importance":1,"wikipedia":"https://de.wikipedia.org/wiki/Kapellen_(Gemeinde_Neuberg_an_der_M%C3%BCrz)","wikidata":"http://www.wikidata.org/entity/Q701473","geonames":"https://sws.geonames.org/2774782/","abbr":"P.PPLA3","type":"Hauptstadt"}},{"type":"Feature","geometry":{"type":"Point","coordinates":[15.86303,47.6913]},"properties":{"id":"pmb234273","title":"Franz Oberdorfer","lat":"47.6913","lon":"15.86303","timestamp":["1904-07-16"],"importance":1,"abbr":"Lokal (K.LKL)","type":"Lokal"}},{"type":"Feature","geometry":{"type":"Point","coordinates":[15.864472,47.695925]},"properties":{"id":"pmb147590","title":"Bahnhof Payerbach-Reichenau","lat":"47.695925","lon":"15.864472","timestamp":["1904-07-16"],"importance":1,"wikipedia":"https://de.wikipedia.org/wiki/Bahnhof_Payerbach-Reichenau","wikidata":"http://www.wikidata.org/entity/Q801311","abbr":"Bahnhofsgeb채ude (K.BHF)","type":"Bahnhofsgeb채ude"}}],"hierarchy":[{"id":"pmb483","name":"Reichenau an der Rax","children":[{"id":"pmb44982","name":"Kurhaus Rudolfsbad","children":[]}]},{"id":"pmb40881","name":"Nasswald","children":[{"id":"pmb234252","name":"Binder-Wirtshaus im Reisstal","children":[]}]},{"id":"pmb234270","name":"Nasskamm","children":[]},{"id":"pmb90231","name":"Altenberg an der Rax","children":[]},{"id":"pmb90995","name":"Kapellen","children":[]},{"id":"pmb948","name":"Payerbach","children":[{"id":"pmb234273","name":"Franz Oberdorfer","children":[]},{"id":"pmb147590","name":"Bahnhof Payerbach-Reichenau","children":[]}]}]}