{"type":"FeatureCollection","features":[{"type":"Feature","geometry":{"type":"LineString","coordinates":[[13.383456,52.516152],[13.388305555556,52.516194444444],[13.390262,52.515056],[13.391532,52.516879],[13.389167,52.517222]]},"properties":{"name":"19. November 1904"}},{"type":"Feature","geometry":{"type":"Point","coordinates":[13.383456,52.516152]},"properties":{"id":"pmb127","title":"Hotel Bristol Berlin","lat":"52.516152","lon":"13.383456","timestamp":["1904-11-19"],"importance":1,"wikipedia":"https://de.wikipedia.org/wiki/Hotel_Bristol_(Berlin)","wikidata":"http://www.wikidata.org/entity/Q1630839","abbr":"Hotel (K.HTL)","type":"Hotel"}},{"type":"Feature","geometry":{"type":"Point","coordinates":[13.388305555556,52.516194444444]},"properties":{"id":"pmb185920","title":"Passage-Theater","lat":"52.516194444444","lon":"13.388305555556","timestamp":["1904-11-19"],"importance":1,"wikidata":"http://www.wikidata.org/entity/Q46110901","abbr":"Theater (K.THE)","type":"Theater"}},{"type":"Feature","geometry":{"type":"Point","coordinates":[13.391532,52.516879]},"properties":{"id":"pmb233758","title":"Restaurant Wedl","lat":"52.516879","lon":"13.391532","timestamp":["1904-11-19"],"importance":1,"abbr":"S.REST","type":"Restaurant"}},{"type":"Feature","geometry":{"type":"Point","coordinates":[13.390262,52.515056]},"properties":{"id":"pmb234614","title":"F. W. Borchardt","lat":"52.515056","lon":"13.390262","timestamp":["1904-11-19"],"importance":1,"wikipedia":"https://de.wikipedia.org/wiki/F._W._Borchardt","wikidata":"http://www.wikidata.org/entity/Q1386375","abbr":"S.REST","type":"Restaurant"}},{"type":"Feature","geometry":{"type":"Point","coordinates":[13.389167,52.517222]},"properties":{"id":"pmb208","title":"Kleines Theater","lat":"52.517222","lon":"13.389167","timestamp":["1904-11-19"],"importance":1,"abbr":"Theater (K.THE)","type":"Theater"}}],"hierarchy":[{"id":"pmb168","name":"Berlin","children":[{"id":"pmb127","name":"Hotel Bristol Berlin","children":[]},{"id":"pmb185920","name":"Passage-Theater","children":[]},{"id":"pmb233758","name":"Restaurant Wedl","children":[]},{"id":"pmb234614","name":"F. W. Borchardt","children":[]},{"id":"pmb208","name":"Kleines Theater","children":[]}]}]}