{"type":"FeatureCollection","features":[{"type":"Feature","geometry":{"type":"LineString","coordinates":[[13.330665,52.506631],[13.366666,52.516666],[13.385556,52.518889],[13.388194,52.521572],[13.376389,52.5225],[13.36774,52.52031]]},"properties":{"name":"26. November 1905"}},{"type":"Feature","geometry":{"type":"Point","coordinates":[13.385556,52.518889]},"properties":{"id":"pmb399","title":"Hotel Continental [Berlin]","lat":"52.518889","lon":"13.385556","timestamp":["1905-11-26"],"importance":1,"abbr":"Hotel (K.HTL)","type":"Hotel"}},{"type":"Feature","geometry":{"type":"Point","coordinates":[13.376389,52.5225]},"properties":{"id":"pmb18","title":"Lessing-Theater","lat":"52.5225","lon":"13.376389","timestamp":["1905-11-26"],"importance":1,"abbr":"Theater (K.THE)","type":"Theater","arbeitsort":[{"p_name":"Armin Wassermann","p_id":"#4540"},{"p_name":"Gerhard Wiese","p_id":"#35015"},{"p_name":"Oskar Blumenthal","p_id":"#14328"}]}},{"type":"Feature","geometry":{"type":"Point","coordinates":[13.366666,52.516666]},"properties":{"id":"pmb36914","title":"Tiergarten","lat":"52.516666","lon":"13.366666","timestamp":["1905-11-26"],"importance":1,"wikipedia":"https://de.wikipedia.org/wiki/Berlin-Tiergarten","wikidata":"http://www.wikidata.org/entity/Q328672","geonames":"https://sws.geonames.org/2822224/","abbr":"P.PPLX","type":"Ehemaliger Ort"}},{"type":"Feature","geometry":{"type":"Point","coordinates":[13.330665,52.506631]},"properties":{"id":"pmb232200","title":"Hardenbergstraße 24","lat":"52.506631","lon":"13.330665","timestamp":["1905-11-26"],"importance":1,"abbr":"Wohngebäude (K.WHS)","type":"Wohngebäude","wohnort":[{"p_name":"Elisabeth Steinrück","p_id":"#2315"}],"arbeitsort":[{"p_name":"Aura Hertwig","p_id":"#2370"}]}},{"type":"Feature","geometry":{"type":"Point","coordinates":[13.388194,52.521572]},"properties":{"id":"pmb545","title":"Hotel Savoy [Berlin]","lat":"52.521572","lon":"13.388194","timestamp":["1905-11-26"],"importance":1,"wikipedia":"https://de.wikipedia.org/wiki/Savoy_Hotel_(Berlin)","wikidata":"http://www.wikidata.org/entity/Q1110717","abbr":"Hotel (K.HTL)","type":"Hotel"}},{"type":"Feature","geometry":{"type":"Point","coordinates":[13.36774,52.52031]},"properties":{"id":"pmb237370","title":"Kronprinzenufer 7/In den Zelten 14","lat":"52.52031","lon":"13.36774","timestamp":["1905-11-26"],"importance":1,"abbr":"Wohngebäude (K.WHS)","type":"Wohngebäude","wohnort":[{"p_name":"Otto Brahm","p_id":"#10986"}]}}],"hierarchy":[{"id":"pmb168","name":"Berlin","children":[{"id":"pmb399","name":"Hotel Continental [Berlin]","children":[]},{"id":"pmb18","name":"Lessing-Theater","children":[]},{"id":"pmb36914","name":"Tiergarten","children":[]},{"id":"pmb232200","name":"Hardenbergstraße 24","children":[]},{"id":"pmb545","name":"Hotel Savoy [Berlin]","children":[]},{"id":"pmb237370","name":"Kronprinzenufer 7/In den Zelten 14","children":[]}]}]}