{"type":"FeatureCollection","features":[{"type":"Feature","geometry":{"type":"LineString","coordinates":[[15.075526115015428,47.58935578324892],[15.113055555555556,47.58027777777778],[15.20271237,47.56483343],[15.185509,47.611696],[15.1489,47.6222]]},"properties":{"name":"21. Juli 1905"}},{"type":"Feature","geometry":{"type":"Point","coordinates":[15.1489,47.6222]},"properties":{"id":"pmb235724","title":"Schiestlhaus","lat":"47.6222","lon":"15.1489","timestamp":["1905-07-21"],"importance":1,"wikipedia":"https://de.wikipedia.org/wiki/Schiestlhaus","wikidata":"http://www.wikidata.org/entity/Q2234844","abbr":"Beherbergungsgebäude (K.BHB)","type":"Beherbergungsgebäude"}},{"type":"Feature","geometry":{"type":"Point","coordinates":[15.20271237,47.56483343]},"properties":{"id":"pmb142510","title":"Hotel Hochschwab","lat":"47.56483343","lon":"15.20271237","timestamp":["1905-07-21"],"importance":1,"abbr":"Hotel (K.HTL)","type":"Hotel"}},{"type":"Feature","geometry":{"type":"Point","coordinates":[15.185509,47.611696]},"properties":{"id":"pmb235721","title":"Ochsensteig","lat":"47.611696","lon":"15.185509","timestamp":["1905-07-21"],"importance":1,"wikidata":"http://www.wikidata.org/entity/Q131334740","abbr":"Wanderweg (K.WND)","type":"Wanderweg"}},{"type":"Feature","geometry":{"type":"Point","coordinates":[15.075526115015428,47.58935578324892]},"properties":{"id":"pmb235727","title":"Häuslalm","lat":"47.58935578324892","lon":"15.075526115015428","timestamp":["1905-07-21"],"importance":1,"wikidata":"http://www.wikidata.org/entity/Q131337566","abbr":"Gastgewerbegebäude (K.GGW)","type":"Gastgewerbegebäude"}},{"type":"Feature","geometry":{"type":"Point","coordinates":[15.113055555555556,47.58027777777778]},"properties":{"id":"pmb235730","title":"Bodenbauer","lat":"47.58027777777778","lon":"15.113055555555556","timestamp":["1905-07-21"],"importance":1,"wikidata":"http://www.wikidata.org/entity/Q21873592","geonames":"https://sws.geonames.org/2781638/","abbr":"S.CSTL","type":"Burg"}}],"hierarchy":[{"id":"pmb52353","name":"Hochschwab","children":[{"id":"pmb235724","name":"Schiestlhaus","children":[]}]},{"id":"pmb90643","name":"Fölz","children":[{"id":"pmb142510","name":"Hotel Hochschwab","children":[]}]},{"id":"pmb235721","name":"Ochsensteig","children":[]},{"id":"pmb235727","name":"Häuslalm","children":[]},{"id":"pmb235730","name":"Bodenbauer","children":[]}]}