{"type":"FeatureCollection","features":[{"type":"Feature","geometry":{"type":"LineString","coordinates":[[7.50435,43.77649],[7.48207,43.76408],[7.36194,43.72799],[7.42732,43.73976],[7.31088,43.70392],[9.95347,44.29844]]},"properties":{"name":"6. März 1905"}},{"type":"Feature","geometry":{"type":"Point","coordinates":[9.95347,44.29844]},"properties":{"id":"pmb92013","title":"Villafranca in Lunigiana","lat":"44.29844","lon":"9.95347","timestamp":["1905-03-06"],"importance":1,"geonames":"https://sws.geonames.org/3164240/","abbr":"P.PPLA3","type":"Hauptstadt"}},{"type":"Feature","geometry":{"type":"Point","coordinates":[7.42732,43.73976]},"properties":{"id":"pmb5862","title":"Monte Carlo","lat":"43.73976","lon":"7.42732","timestamp":["1905-03-06"],"importance":1,"wikipedia":"https://de.wikipedia.org/wiki/Monte-Carlo","wikidata":"http://www.wikidata.org/entity/Q45240","geonames":"https://sws.geonames.org/2992741/","abbr":"P.PPLX","type":"Ehemaliger Ort"}},{"type":"Feature","geometry":{"type":"Point","coordinates":[7.48207,43.76408]},"properties":{"id":"pmb90442","title":"Roquebrune-Cap-Martin","lat":"43.76408","lon":"7.48207","timestamp":["1905-03-06"],"importance":1,"wikipedia":"https://de.wikipedia.org/wiki/Roquebrune-Cap-Martin","wikidata":"http://www.wikidata.org/entity/Q220668","geonames":"https://sws.geonames.org/2982876/","abbr":"P.PPL","type":"Besiedelter Ort"}},{"type":"Feature","geometry":{"type":"Point","coordinates":[7.50435,43.77649]},"properties":{"id":"pmb36456","title":"Menton","lat":"43.77649","lon":"7.50435","timestamp":["1905-03-06"],"importance":1,"wikipedia":"https://de.wikipedia.org/wiki/Menton","wikidata":"http://www.wikidata.org/entity/Q180083","geonames":"https://sws.geonames.org/2994497/","abbr":"P.PPL","type":"Besiedelter Ort"}},{"type":"Feature","geometry":{"type":"Point","coordinates":[7.31088,43.70392]},"properties":{"id":"pmb51666","title":"Villefranche-sur-Mer","lat":"43.70392","lon":"7.31088","timestamp":["1905-03-06"],"importance":1,"wikipedia":"https://de.wikipedia.org/wiki/Villefranche-sur-Mer","wikidata":"http://www.wikidata.org/entity/Q207080","geonames":"https://sws.geonames.org/2968749/","abbr":"P.PPL","type":"Besiedelter Ort"}},{"type":"Feature","geometry":{"type":"Point","coordinates":[7.36194,43.72799]},"properties":{"id":"pmb90611","title":"Èze","lat":"43.72799","lon":"7.36194","timestamp":["1905-03-06"],"importance":1,"geonames":"https://sws.geonames.org/3019174/","abbr":"P.PPL","type":"Besiedelter Ort"}}],"hierarchy":[{"id":"pmb92013","name":"Villafranca in Lunigiana","children":[]},{"id":"pmb91267","name":"Monaco","children":[{"id":"pmb5862","name":"Monte Carlo","children":[]}]},{"id":"pmb90442","name":"Roquebrune-Cap-Martin","children":[]},{"id":"pmb36456","name":"Menton","children":[]},{"id":"pmb51666","name":"Villefranche-sur-Mer","children":[]},{"id":"pmb90611","name":"Èze","children":[]}]}