{"type":"FeatureCollection","features":[{"type":"Feature","geometry":{"type":"LineString","coordinates":[[16.185099479,48.00001365],[16.1997724,47.9782139],[16.207378,47.96739],[16.241739,48.090788],[16.181389,48.018611]]},"properties":{"name":"30. Mai 1907"}},{"type":"Feature","geometry":{"type":"Point","coordinates":[16.241739,48.090788]},"properties":{"id":"pmb44510","title":"Hotel Radetzky","lat":"48.090788","lon":"16.241739","timestamp":["1907-05-30"],"importance":1,"abbr":"Hotel (K.HTL)","type":"Hotel","arbeitsort":[{"p_name":"Josef Deigner","p_id":"#15270"}]}},{"type":"Feature","geometry":{"type":"Point","coordinates":[16.207378,47.96739]},"properties":{"id":"pmb246533","title":"Villa Mandl","lat":"47.96739","lon":"16.207378","timestamp":["1907-05-30"],"importance":1,"abbr":"Wohngebäude (K.WHS)","type":"Wohngebäude"}},{"type":"Feature","geometry":{"type":"Point","coordinates":[16.1997724,47.9782139]},"properties":{"id":"pmb246543","title":"Waldandacht [Bad Vöslau]","lat":"47.9782139","lon":"16.1997724","timestamp":["1907-05-30"],"importance":1,"abbr":"Monument (K.MON)","type":"Monument"}},{"type":"Feature","geometry":{"type":"Point","coordinates":[16.185099479,48.00001365]},"properties":{"id":"pmb246546","title":"Jägerhaus [Baden bei Wien]","lat":"48.00001365","lon":"16.185099479","timestamp":["1907-05-30"],"importance":1,"abbr":"Gebäude (K.GBD)","type":"Gebäude"}},{"type":"Feature","geometry":{"type":"Point","coordinates":[16.181389,48.018611]},"properties":{"id":"pmb53848","title":"Helenental","lat":"48.018611","lon":"16.181389","timestamp":["1907-05-30"],"importance":1,"wikipedia":"https://de.wikipedia.org/wiki/Helenental","wikidata":"http://www.wikidata.org/entity/Q1602062","abbr":"Tal (N.TAL)","type":"Tal"}}],"hierarchy":[{"id":"pmb75","name":"Hinterbrühl","children":[{"id":"pmb44510","name":"Hotel Radetzky","children":[]}]},{"id":"pmb992","name":"Bad Vöslau","children":[{"id":"pmb246533","name":"Villa Mandl","children":[]},{"id":"pmb246543","name":"Waldandacht [Bad Vöslau]","children":[]}]},{"id":"pmb662","name":"Baden bei Wien","children":[{"id":"pmb246546","name":"Jägerhaus [Baden bei Wien]","children":[]}]},{"id":"pmb53848","name":"Helenental","children":[]}]}