{"type":"FeatureCollection","features":[{"type":"Feature","geometry":{"type":"LineString","coordinates":[[11.57059,48.13819],[11.578786,48.139944],[11.578786,48.139944],[11.581667,48.138889],[11.587323,48.155839],[11.576784,48.142883]]},"properties":{"name":"10. September 1908"}},{"type":"Feature","geometry":{"type":"Point","coordinates":[11.581667,48.138889]},"properties":{"id":"pmb485","title":"Hotel Vier Jahreszeiten","lat":"48.138889","lon":"11.581667","timestamp":["1908-09-10"],"importance":1,"wikipedia":"https://de.wikipedia.org/wiki/Hotel_Vier_Jahreszeiten_(M%C3%BCnchen)","wikidata":"http://www.wikidata.org/entity/Q1388047","abbr":"Hotel (K.HTL)","type":"Hotel"}},{"type":"Feature","geometry":{"type":"Point","coordinates":[11.578786,48.139944]},"properties":{"id":"pmb9","title":"Königlich Bayerische Hoftheater","lat":"48.139944","lon":"11.578786","timestamp":["1908-09-10"],"importance":1,"wikipedia":"https://de.wikipedia.org/wiki/Bayerisches_Staatsschauspiel","wikidata":"http://www.wikidata.org/entity/Q812446","abbr":"Theater (K.THE)","type":"Theater","arbeitsort":[{"p_name":"Lucy von Jacobi","p_id":"#11806"},{"p_name":"Albert von Speidel","p_id":"#12813"},{"p_name":"Albert Steinrück","p_id":"#12837"}]}},{"type":"Feature","geometry":{"type":"Point","coordinates":[11.57059,48.13819]},"properties":{"id":"pmb247550","title":"Heinrich Traut, photographisches Atelier","lat":"48.13819","lon":"11.57059","timestamp":["1908-09-10"],"importance":1,"abbr":"Fotoatelier","type":""}},{"type":"Feature","geometry":{"type":"Point","coordinates":[11.587323,48.155839]},"properties":{"id":"pmb247554","title":"Gedonstraße 6","lat":"48.155839","lon":"11.587323","timestamp":["1908-09-10"],"importance":1,"abbr":"Wohngebäude (K.WHS)","type":"Wohngebäude","wohnort":[{"p_name":"Elisabeth Steinrück","p_id":"#2315"},{"p_name":"Paul Brann","p_id":"#10998"}]}},{"type":"Feature","geometry":{"type":"Point","coordinates":[11.578786,48.139944]},"properties":{"id":"pmb635","title":"Residenztheater München","lat":"48.139944","lon":"11.578786","timestamp":["1908-09-10"],"importance":1,"abbr":"Theater (K.THE)","type":"Theater"}},{"type":"Feature","geometry":{"type":"Point","coordinates":[11.576784,48.142883]},"properties":{"id":"pmb247562","title":"Odeon-Bar","lat":"48.142883","lon":"11.576784","timestamp":["1908-09-10"],"importance":1,"abbr":"T.BAR","type":""}}],"hierarchy":[{"id":"pmb45258","name":"München","children":[{"id":"pmb485","name":"Hotel Vier Jahreszeiten","children":[]},{"id":"pmb9","name":"Königlich Bayerische Hoftheater","children":[]},{"id":"pmb247550","name":"Heinrich Traut, photographisches Atelier","children":[]},{"id":"pmb247554","name":"Gedonstraße 6","children":[]},{"id":"pmb635","name":"Residenztheater München","children":[]},{"id":"pmb247562","name":"Odeon-Bar","children":[]}]}]}