{"type":"FeatureCollection","features":[{"type":"Feature","geometry":{"type":"LineString","coordinates":[[11.552542,46.49969],[11.55704,46.47655],[11.581139,46.486938],[11.57487,46.5072],[11.560026,46.54555]]},"properties":{"name":"5. August 1908"}},{"type":"Feature","geometry":{"type":"Point","coordinates":[11.560026,46.54555]},"properties":{"id":"pmb467","title":"Villa Heufler","lat":"46.54555","lon":"11.560026","timestamp":["1908-08-05"],"importance":1,"abbr":"Beherbergungsgebäude (K.BHB)","type":"Beherbergungsgebäude"}},{"type":"Feature","geometry":{"type":"Point","coordinates":[11.57487,46.5072]},"properties":{"id":"pmb90167","title":"Schlernhaus","lat":"46.5072","lon":"11.57487","timestamp":["1908-08-05"],"importance":1,"geonames":"https://sws.geonames.org/12493334/","abbr":"Beherbergungsgebäude (K.BHB)","type":"Beherbergungsgebäude"}},{"type":"Feature","geometry":{"type":"Point","coordinates":[11.552542,46.49969]},"properties":{"id":"pmb247429","title":"Prügelsteig","lat":"46.49969","lon":"11.552542","timestamp":["1908-08-05"],"importance":1,"abbr":"Wanderweg (K.WND)","type":"Wanderweg"}},{"type":"Feature","geometry":{"type":"Point","coordinates":[11.581139,46.486938]},"properties":{"id":"pmb40861","title":"Jungbrunntal","lat":"46.486938","lon":"11.581139","timestamp":["1908-08-05"],"importance":1,"abbr":"Tal (N.TAL)","type":"Tal"}},{"type":"Feature","geometry":{"type":"Point","coordinates":[11.55704,46.47655]},"properties":{"id":"pmb92071","title":"Lavina Bianca","lat":"46.47655","lon":"11.55704","timestamp":["1908-08-05"],"importance":1,"geonames":"https://sws.geonames.org/3182539/","abbr":"P.PPL","type":"Besiedelter Ort"}}],"hierarchy":[{"id":"pmb988","name":"Seis am Schlern","children":[{"id":"pmb467","name":"Villa Heufler","children":[]},{"id":"pmb39874","name":"Schlern","children":[{"id":"pmb90167","name":"Schlernhaus","children":[]},{"id":"pmb247429","name":"Prügelsteig","children":[]},{"id":"pmb40861","name":"Jungbrunntal","children":[]}]}]},{"id":"pmb92071","name":"Lavina Bianca","children":[]}]}