{"type":"FeatureCollection","features":[{"type":"Feature","geometry":{"type":"LineString","coordinates":[[13.78475,47.61052],[13.7884,47.609927],[13.64912,47.56231],[13.92778,47.64167],[13.94306,47.64972],[13.86667,47.63333]]},"properties":{"name":"20. Juni 1908"}},{"type":"Feature","geometry":{"type":"Point","coordinates":[13.78475,47.61052]},"properties":{"id":"pmb51313","title":"Hackinger’s Hotel zum Kaiser von Österreich","lat":"47.61052","lon":"13.78475","timestamp":["1908-06-20"],"importance":1,"abbr":"Hotel (K.HTL)","type":"Hotel"}},{"type":"Feature","geometry":{"type":"Point","coordinates":[13.7884,47.609927]},"properties":{"id":"pmb52088","title":"Tauscherin","lat":"47.609927","lon":"13.7884","timestamp":["1908-06-20"],"importance":1,"abbr":"Ausflugsziel","type":"Ausflugsziel"}},{"type":"Feature","geometry":{"type":"Point","coordinates":[13.92778,47.64167]},"properties":{"id":"pmb91912","title":"Toplitzsee","lat":"47.64167","lon":"13.92778","timestamp":["1908-06-20"],"importance":1,"wikipedia":"https://de.wikipedia.org/wiki/Toplitzsee","wikidata":"http://www.wikidata.org/entity/Q605796","geonames":"https://sws.geonames.org/2763532/","abbr":"H.LK","type":"See"}},{"type":"Feature","geometry":{"type":"Point","coordinates":[13.94306,47.64972]},"properties":{"id":"pmb90072","title":"Kammer See","lat":"47.64972","lon":"13.94306","timestamp":["1908-06-20"],"importance":1,"geonames":"https://sws.geonames.org/2774820/","abbr":"H.LK","type":"See"}},{"type":"Feature","geometry":{"type":"Point","coordinates":[13.86667,47.63333]},"properties":{"id":"pmb118878","title":"Grundlsee [See]","lat":"47.63333","lon":"13.86667","timestamp":["1908-06-20"],"importance":1,"wikipedia":"https://de.wikipedia.org/wiki/Grundlsee_(See)","wikidata":"http://www.wikidata.org/entity/Q473229","geonames":"https://sws.geonames.org/2777424/","abbr":"H.LK","type":"See"}},{"type":"Feature","geometry":{"type":"Point","coordinates":[13.64912,47.56231]},"properties":{"id":"pmb39671","title":"Hallstatt","lat":"47.56231","lon":"13.64912","timestamp":["1908-06-20"],"importance":1,"geonames":"https://sws.geonames.org/2776943/","abbr":"P.PPL","type":"Besiedelter Ort"}}],"hierarchy":[{"id":"pmb415","name":"Bad Aussee","children":[{"id":"pmb51313","name":"Hackinger’s Hotel zum Kaiser von Österreich","children":[]},{"id":"pmb52088","name":"Tauscherin","children":[]}]},{"id":"pmb91912","name":"Toplitzsee","children":[]},{"id":"pmb90072","name":"Kammer See","children":[]},{"id":"pmb118878","name":"Grundlsee [See]","children":[]},{"id":"pmb39671","name":"Hallstatt","children":[]}]}