{"type":"FeatureCollection","features":[{"type":"Feature","geometry":{"type":"LineString","coordinates":[[6.1485,46.2079],[6.147915,46.204354],[8.540851,47.37683],[8.539419507180423,47.37693897280628],[7.44826,46.94693]]},"properties":{"name":"31. Mai 1910"}},{"type":"Feature","geometry":{"type":"Point","coordinates":[6.1485,46.2079]},"properties":{"id":"pmb200945","title":"Hôtel de la Paix [Genf]","lat":"46.2079","lon":"6.1485","timestamp":["1910-05-31"],"importance":1,"wikidata":"http://www.wikidata.org/entity/Q3146041","abbr":"Hotel (K.HTL)","type":"Hotel"}},{"type":"Feature","geometry":{"type":"Point","coordinates":[6.147915,46.204354]},"properties":{"id":"pmb236932","title":"Restaurant Du Nord [Genf]","lat":"46.204354","lon":"6.147915","timestamp":["1910-05-31"],"importance":1,"abbr":"Gastgewerbegebäude (K.GGW)","type":"Gastgewerbegebäude"}},{"type":"Feature","geometry":{"type":"Point","coordinates":[8.539419507180423,47.37693897280628]},"properties":{"id":"pmb236958","title":"Schweizerhof Zürich","lat":"47.37693897280628","lon":"8.539419507180423","timestamp":["1910-05-31"],"importance":1,"wikipedia":"https://de.wikipedia.org/wiki/Hotel_Schweizerhof_Z%C3%BCrich","wikidata":"http://www.wikidata.org/entity/Q50361751","abbr":"Hotel (K.HTL)","type":"Hotel"}},{"type":"Feature","geometry":{"type":"Point","coordinates":[8.540851,47.37683]},"properties":{"id":"pmb250160","title":"Restaurant Du Nord [Zürich]","lat":"47.37683","lon":"8.540851","timestamp":["1910-05-31"],"importance":1,"abbr":"S.REST","type":"Restaurant"}},{"type":"Feature","geometry":{"type":"Point","coordinates":[7.44826,46.94693]},"properties":{"id":"pmb183536","title":"Casino Bern","lat":"46.94693","lon":"7.44826","timestamp":["1910-05-31"],"importance":1,"wikipedia":"https://de.wikipedia.org/wiki/Casino_Bern","wikidata":"http://www.wikidata.org/entity/Q1791644","abbr":"Veranstaltungsgebäude (K.VSB)","type":"Veranstaltungsgebäude"}}],"hierarchy":[{"id":"pmb562","name":"Genf","children":[{"id":"pmb200945","name":"Hôtel de la Paix [Genf]","children":[]},{"id":"pmb236932","name":"Restaurant Du Nord [Genf]","children":[]}]},{"id":"pmb484","name":"Zürich","children":[{"id":"pmb236958","name":"Schweizerhof Zürich","children":[]},{"id":"pmb250160","name":"Restaurant Du Nord [Zürich]","children":[]}]},{"id":"pmb1223","name":"Bern","children":[{"id":"pmb183536","name":"Casino Bern","children":[]}]}]}