{"type":"FeatureCollection","features":[{"type":"Feature","geometry":{"type":"LineString","coordinates":[[13.60412,47.711737],[13.616701,47.713429],[13.609575,47.706537],[13.629688,47.713869],[13.65875,47.73049]]},"properties":{"name":"30. August 1910"}},{"type":"Feature","geometry":{"type":"Point","coordinates":[13.609575,47.706537]},"properties":{"id":"pmb414","title":"Hotel und Pension Rudolfshöhe (Leopold Petter)","lat":"47.706537","lon":"13.609575","timestamp":["1910-08-30"],"importance":1,"abbr":"Hotel (K.HTL)","type":"Hotel","arbeitsort":[{"p_name":"Leopold Petter","p_id":"#22474"},{"p_name":"Julie Flesch","p_id":"#16355"},{"p_name":" ?? [Portier Pension Rudolfshöhe 1895]","p_id":"#27727"}]}},{"type":"Feature","geometry":{"type":"Point","coordinates":[13.60412,47.711737]},"properties":{"id":"pmb92134","title":"Ahornbühel","lat":"47.711737","lon":"13.60412","timestamp":["1910-08-30"],"importance":1,"abbr":"Erhebung","type":"Erhebung"}},{"type":"Feature","geometry":{"type":"Point","coordinates":[13.629688,47.713869]},"properties":{"id":"pmb250767","title":"Rettenbachweg 5","lat":"47.713869","lon":"13.629688","timestamp":["1910-08-30"],"importance":1,"abbr":"Wohngebäude (K.WHS)","type":"Wohngebäude"}},{"type":"Feature","geometry":{"type":"Point","coordinates":[13.616701,47.713429]},"properties":{"id":"pmb40450","title":"Restaurant Sonnenschein","lat":"47.713429","lon":"13.616701","timestamp":["1910-08-30"],"importance":1,"abbr":"S.REST","type":"Restaurant"}},{"type":"Feature","geometry":{"type":"Point","coordinates":[13.65875,47.73049]},"properties":{"id":"pmb91578","title":"Rettenbach","lat":"47.73049","lon":"13.65875","timestamp":["1910-08-30"],"importance":1,"geonames":"https://sws.geonames.org/2604851/","abbr":"P.PPL","type":"Besiedelter Ort"}}],"hierarchy":[{"id":"pmb213","name":"Bad Ischl","children":[{"id":"pmb414","name":"Hotel und Pension Rudolfshöhe (Leopold Petter)","children":[]},{"id":"pmb92134","name":"Ahornbühel","children":[]},{"id":"pmb405","name":"Steinfeld","children":[{"id":"pmb250767","name":"Rettenbachweg 5","children":[]}]},{"id":"pmb40450","name":"Restaurant Sonnenschein","children":[]}]},{"id":"pmb91578","name":"Rettenbach","children":[]}]}