{"type":"FeatureCollection","features":[{"type":"Feature","geometry":{"type":"LineString","coordinates":[[11.097,47.4915],[11.11494,47.490183],[11.1169241,47.486637],[11.581667,48.138889],[11.569993,48.143395],[11.5682,48.1412],[11.555,48.140833]]},"properties":{"name":"13. November 1911"}},{"type":"Feature","geometry":{"type":"Point","coordinates":[11.569993,48.143395]},"properties":{"id":"pmb681","title":"Hotel Continental [München]","lat":"48.143395","lon":"11.569993","timestamp":["1911-11-13"],"importance":1,"wikipedia":"https://de.wikipedia.org/wiki/Grand_Hotel_Continental_(M%C3%BCnchen)","wikidata":"http://www.wikidata.org/entity/Q57843963","abbr":"Hotel (K.HTL)","type":"Hotel"}},{"type":"Feature","geometry":{"type":"Point","coordinates":[11.5682,48.1412]},"properties":{"id":"pmb247574","title":"Bernheimer-Haus","lat":"48.1412","lon":"11.5682","timestamp":["1911-11-13"],"importance":1,"wikipedia":"https://de.wikipedia.org/wiki/Bernheimer-Haus","wikidata":"http://www.wikidata.org/entity/Q826485","abbr":"Geschäft (K.GES)","type":"Geschäft"}},{"type":"Feature","geometry":{"type":"Point","coordinates":[11.581667,48.138889]},"properties":{"id":"pmb485","title":"Hotel Vier Jahreszeiten","lat":"48.138889","lon":"11.581667","timestamp":["1911-11-13"],"importance":1,"wikipedia":"https://de.wikipedia.org/wiki/Hotel_Vier_Jahreszeiten_(M%C3%BCnchen)","wikidata":"http://www.wikidata.org/entity/Q1388047","abbr":"Hotel (K.HTL)","type":"Hotel"}},{"type":"Feature","geometry":{"type":"Point","coordinates":[11.555,48.140833]},"properties":{"id":"pmb247583","title":"Hauptbahnhof München","lat":"48.140833","lon":"11.555","timestamp":["1911-11-13"],"importance":1,"wikipedia":"https://de.wikipedia.org/wiki/M%C3%BCnchen_Hauptbahnhof","wikidata":"http://www.wikidata.org/entity/Q254647","geonames":"https://sws.geonames.org/6324603/","abbr":"S.RSTN","type":"Bahnhof"}},{"type":"Feature","geometry":{"type":"Point","coordinates":[11.11494,47.490183]},"properties":{"id":"pmb250702","title":"Hotel Haus Gibson","lat":"47.490183","lon":"11.11494","timestamp":["1911-11-13"],"importance":1,"abbr":"Hotel (K.HTL)","type":"Hotel"}},{"type":"Feature","geometry":{"type":"Point","coordinates":[11.1169241,47.486637]},"properties":{"id":"pmb251480","title":"Villa Döllgast","lat":"47.486637","lon":"11.1169241","timestamp":["1911-11-13"],"importance":1,"abbr":"Wohngebäude (K.WHS)","type":"Wohngebäude"}},{"type":"Feature","geometry":{"type":"Point","coordinates":[11.097,47.4915]},"properties":{"id":"pmb265939","title":"Bahnhof Garmisch-Partenkirchen","lat":"47.4915","lon":"11.097","timestamp":["1911-11-13"],"importance":1,"wikipedia":"https://de.wikipedia.org/wiki/Bahnhof_Garmisch-Partenkirchen","wikidata":"http://www.wikidata.org/entity/Q800804","abbr":"Bahnhofsgebäude (K.BHF)","type":"Bahnhofsgebäude"}}],"hierarchy":[{"id":"pmb45258","name":"München","children":[{"id":"pmb681","name":"Hotel Continental [München]","children":[]},{"id":"pmb247574","name":"Bernheimer-Haus","children":[]},{"id":"pmb485","name":"Hotel Vier Jahreszeiten","children":[]},{"id":"pmb247583","name":"Hauptbahnhof München","children":[]}]},{"id":"pmb667","name":"Garmisch-Partenkirchen","children":[{"id":"pmb2318","name":"Partenkirchen","children":[{"id":"pmb250702","name":"Hotel Haus Gibson","children":[]},{"id":"pmb251480","name":"Villa Döllgast","children":[]}]},{"id":"pmb265939","name":"Bahnhof Garmisch-Partenkirchen","children":[]}]}]}