{"type":"FeatureCollection","features":[{"type":"Feature","geometry":{"type":"LineString","coordinates":[[13.303424,52.503574],[13.32321,52.50189],[13.374444,52.51],[13.389167,52.517222],[13.385679,52.518659],[13.38105,52.519911],[13.36774,52.52031]]},"properties":{"name":"11. November 1912"}},{"type":"Feature","geometry":{"type":"Point","coordinates":[13.389167,52.517222]},"properties":{"id":"pmb208","title":"Kleines Theater","lat":"52.517222","lon":"13.389167","timestamp":["1912-11-11"],"importance":1,"abbr":"Theater (K.THE)","type":"Theater"}},{"type":"Feature","geometry":{"type":"Point","coordinates":[13.374444,52.51]},"properties":{"id":"pmb245","title":"Hotel Esplanade [Berlin]","lat":"52.51","lon":"13.374444","timestamp":["1912-11-11"],"importance":1,"wikipedia":"https://de.wikipedia.org/wiki/Hotel_Esplanade_(Berlin)","wikidata":"http://www.wikidata.org/entity/Q321562","abbr":"Hotel (K.HTL)","type":"Hotel"}},{"type":"Feature","geometry":{"type":"Point","coordinates":[13.385679,52.518659]},"properties":{"id":"pmb253880","title":"Restaurant Kannenberg","lat":"52.518659","lon":"13.385679","timestamp":["1912-11-11"],"importance":1,"abbr":"S.REST","type":"Restaurant"}},{"type":"Feature","geometry":{"type":"Point","coordinates":[13.36774,52.52031]},"properties":{"id":"pmb237370","title":"Kronprinzenufer 7/In den Zelten 14","lat":"52.52031","lon":"13.36774","timestamp":["1912-11-11"],"importance":1,"abbr":"Wohngebäude (K.WHS)","type":"Wohngebäude","wohnort":[{"p_name":"Otto Brahm","p_id":"#10986"}]}},{"type":"Feature","geometry":{"type":"Point","coordinates":[13.32321,52.50189]},"properties":{"id":"pmb235972","title":"Die Komödie [Berlin]","lat":"52.50189","lon":"13.32321","timestamp":["1912-11-11"],"importance":1,"abbr":"Theater (K.THE)","type":"Theater"}},{"type":"Feature","geometry":{"type":"Point","coordinates":[13.38105,52.519911]},"properties":{"id":"pmb253892","title":"Komödienhaus [Berlin]","lat":"52.519911","lon":"13.38105","timestamp":["1912-11-11"],"importance":1,"abbr":"Theater (K.THE)","type":"Theater","arbeitsort":[{"p_name":"Erich Ziegel","p_id":"#142471"},{"p_name":"Rudolf Lothar","p_id":"#2570"}]}},{"type":"Feature","geometry":{"type":"Point","coordinates":[13.303424,52.503574]},"properties":{"id":"pmb253898","title":"Dahlmannstraße 1","lat":"52.503574","lon":"13.303424","timestamp":["1912-11-11"],"importance":1,"abbr":"Wohngebäude (K.WHS)","type":"Wohngebäude","wohnort":[{"p_name":"Mirjam Horwitz","p_id":"#2549"},{"p_name":"Erich Ziegel","p_id":"#142471"}]}}],"hierarchy":[{"id":"pmb168","name":"Berlin","children":[{"id":"pmb208","name":"Kleines Theater","children":[]},{"id":"pmb245","name":"Hotel Esplanade [Berlin]","children":[]},{"id":"pmb253880","name":"Restaurant Kannenberg","children":[]},{"id":"pmb237370","name":"Kronprinzenufer 7/In den Zelten 14","children":[]},{"id":"pmb235972","name":"Die Komödie [Berlin]","children":[]},{"id":"pmb253892","name":"Komödienhaus [Berlin]","children":[]},{"id":"pmb253898","name":"Dahlmannstraße 1","children":[]}]}]}