{"type":"FeatureCollection","features":[{"type":"Feature","geometry":{"type":"LineString","coordinates":[[13.769141,44.916324],[13.85027,44.87305],[13.84651111,46.614925],[13.772105,45.65747],[13.765556,45.649444]]},"properties":{"name":"24. August 1912"}},{"type":"Feature","geometry":{"type":"Point","coordinates":[13.769141,44.916324]},"properties":{"id":"pmb253438","title":"Hotel Neptun III","lat":"44.916324","lon":"13.769141","timestamp":["1912-08-24"],"importance":1,"abbr":"Hotel (K.HTL)","type":"Hotel"}},{"type":"Feature","geometry":{"type":"Point","coordinates":[13.84651111,46.614925]},"properties":{"id":"pmb253544","title":"Parkhotel Villach","lat":"46.614925","lon":"13.84651111","timestamp":["1912-08-24"],"importance":1,"wikidata":"http://www.wikidata.org/entity/Q37969035","abbr":"Hotel (K.HTL)","type":"Hotel"}},{"type":"Feature","geometry":{"type":"Point","coordinates":[13.765556,45.649444]},"properties":{"id":"pmb246190","title":"Savoia Excelsior Palace","lat":"45.649444","lon":"13.765556","timestamp":["1912-08-24"],"importance":1,"wikipedia":"https://de.wikipedia.org/wiki/Savoia_Excelsior_Palace","wikidata":"http://www.wikidata.org/entity/Q942564","abbr":"Hotel (K.HTL)","type":"Hotel"}},{"type":"Feature","geometry":{"type":"Point","coordinates":[13.772105,45.65747]},"properties":{"id":"pmb246196","title":"Triest Hauptbahnhof","lat":"45.65747","lon":"13.772105","timestamp":["1912-08-24"],"importance":1,"wikipedia":"https://de.wikipedia.org/wiki/Triest_Hauptbahnhof","wikidata":"http://www.wikidata.org/entity/Q801532","geonames":"https://sws.geonames.org/3165182/","abbr":"S.RSTN","type":"Bahnhof"}},{"type":"Feature","geometry":{"type":"Point","coordinates":[13.85027,44.87305]},"properties":{"id":"pmb507","title":"Arena","lat":"44.87305","lon":"13.85027","timestamp":["1912-08-24"],"importance":1,"wikipedia":"https://de.wikipedia.org/wiki/Amphitheater_Pula","wikidata":"http://www.wikidata.org/entity/Q474998","abbr":"Monument (K.MON)","type":"Monument"}}],"hierarchy":[{"id":"pmb45260","name":"Brijuni","children":[{"id":"pmb253438","name":"Hotel Neptun III","children":[]}]},{"id":"pmb40454","name":"Villach","children":[{"id":"pmb253544","name":"Parkhotel Villach","children":[]}]},{"id":"pmb873","name":"Triest","children":[{"id":"pmb246190","name":"Savoia Excelsior Palace","children":[]},{"id":"pmb246196","name":"Triest Hauptbahnhof","children":[]}]},{"id":"pmb851","name":"Pula","children":[{"id":"pmb507","name":"Arena","children":[]}]}]}