{"type":"FeatureCollection","features":[{"type":"Feature","geometry":{"type":"LineString","coordinates":[[12.32798,45.431245],[12.336899,45.432304],[12.33848,45.43457],[12.336047,45.435282],[12.33052,45.43598]]},"properties":{"name":"17. Mai 1912"}},{"type":"Feature","geometry":{"type":"Point","coordinates":[12.336899,45.432304]},"properties":{"id":"pmb34050","title":"Hotel de l’Europe [Venedig]","lat":"45.432304","lon":"12.336899","timestamp":["1912-05-17"],"importance":1,"abbr":"Hotel (K.HTL)","type":"Hotel"}},{"type":"Feature","geometry":{"type":"Point","coordinates":[12.33848,45.43457]},"properties":{"id":"pmb253166","title":"Caffè Lavena","lat":"45.43457","lon":"12.33848","timestamp":["1912-05-17"],"importance":1,"wikidata":"http://www.wikidata.org/entity/Q5017189","abbr":"Kaffeehaus (K.KAF)","type":"Kaffeehaus"}},{"type":"Feature","geometry":{"type":"Point","coordinates":[12.336047,45.435282]},"properties":{"id":"pmb260","title":"Hotel Bonvecchiati","lat":"45.435282","lon":"12.336047","timestamp":["1912-05-17"],"importance":1,"wikidata":"http://www.wikidata.org/entity/Q111412860","abbr":"Hotel (K.HTL)","type":"Hotel"}},{"type":"Feature","geometry":{"type":"Point","coordinates":[12.33052,45.43598]},"properties":{"id":"pmb90440","title":"Canal Grande","lat":"45.43598","lon":"12.33052","timestamp":["1912-05-17"],"importance":1,"wikipedia":"https://de.wikipedia.org/wiki/Canal_Grande","wikidata":"http://www.wikidata.org/entity/Q309243","geonames":"https://sws.geonames.org/3175933/","abbr":"H.CNL","type":"Kanal"}},{"type":"Feature","geometry":{"type":"Point","coordinates":[12.32798,45.431245]},"properties":{"id":"pmb43220","title":"Gallerie dell’Accademia","lat":"45.431245","lon":"12.32798","timestamp":["1912-05-17"],"importance":1,"wikipedia":"https://de.wikipedia.org/wiki/Accademia_(Venedig)","wikidata":"http://www.wikidata.org/entity/Q338330","abbr":"Museum (K.MUS)","type":"Museum"}}],"hierarchy":[{"id":"pmb462","name":"Venedig","children":[{"id":"pmb34050","name":"Hotel de l’Europe [Venedig]","children":[]},{"id":"pmb261","name":"Piazza San Marco","children":[{"id":"pmb253166","name":"Caffè Lavena","children":[]}]},{"id":"pmb260","name":"Hotel Bonvecchiati","children":[]},{"id":"pmb90440","name":"Canal Grande","children":[]},{"id":"pmb43220","name":"Gallerie dell’Accademia","children":[]}]}]}