{"type":"FeatureCollection","features":[{"type":"Feature","geometry":{"type":"LineString","coordinates":[[11.2732,47.9071],[11.27453,47.90798],[11.585161,48.135523],[11.577181,48.141422],[11.555,48.140833]]},"properties":{"name":"7. September 1912"}},{"type":"Feature","geometry":{"type":"Point","coordinates":[11.27453,47.90798]},"properties":{"id":"pmb51937","title":"Hotel Simson","lat":"47.90798","lon":"11.27453","timestamp":["1912-09-07"],"importance":1,"abbr":"Hotel (K.HTL)","type":"Hotel"}},{"type":"Feature","geometry":{"type":"Point","coordinates":[11.2732,47.9071]},"properties":{"id":"pmb253610","title":"Bahnhof Tutzing","lat":"47.9071","lon":"11.2732","timestamp":["1912-09-07"],"importance":1,"wikipedia":"https://de.wikipedia.org/wiki/Bahnhof_Tutzing","wikidata":"http://www.wikidata.org/entity/Q801533","abbr":"Bahnhofsgebäude (K.BHF)","type":"Bahnhofsgebäude"}},{"type":"Feature","geometry":{"type":"Point","coordinates":[11.555,48.140833]},"properties":{"id":"pmb247583","title":"Hauptbahnhof München","lat":"48.140833","lon":"11.555","timestamp":["1912-09-07"],"importance":1,"wikipedia":"https://de.wikipedia.org/wiki/M%C3%BCnchen_Hauptbahnhof","wikidata":"http://www.wikidata.org/entity/Q254647","geonames":"https://sws.geonames.org/6324603/","abbr":"S.RSTN","type":"Bahnhof"}},{"type":"Feature","geometry":{"type":"Point","coordinates":[11.585161,48.135523]},"properties":{"id":"pmb248958","title":"Mannhardtstraße 3","lat":"48.135523","lon":"11.585161","timestamp":["1912-09-07"],"importance":1,"abbr":"Wohngebäude (K.WHS)","type":"Wohngebäude","wohnort":[{"p_name":"Aloisia Chlum","p_id":"#27771"},{"p_name":"Auguste Glümer","p_id":"#14948"},{"p_name":"Marie Glümer","p_id":"#14953"}]}},{"type":"Feature","geometry":{"type":"Point","coordinates":[11.577181,48.141422]},"properties":{"id":"pmb253621","title":"Restaurant Preysing","lat":"48.141422","lon":"11.577181","timestamp":["1912-09-07"],"importance":1,"abbr":"S.REST","type":"Restaurant"}}],"hierarchy":[{"id":"pmb44493","name":"Tutzing","children":[{"id":"pmb51937","name":"Hotel Simson","children":[]},{"id":"pmb253610","name":"Bahnhof Tutzing","children":[]}]},{"id":"pmb45258","name":"München","children":[{"id":"pmb247583","name":"Hauptbahnhof München","children":[]},{"id":"pmb248958","name":"Mannhardtstraße 3","children":[]},{"id":"pmb253618","name":"Palais Preysing","children":[{"id":"pmb253621","name":"Restaurant Preysing","children":[]}]}]}]}