{"type":"FeatureCollection","features":[{"type":"Feature","geometry":{"type":"LineString","coordinates":[[16.197411111111112,47.973169444444444],[16.19977,47.96982],[16.208627,47.965689],[16.20632,47.96833],[16.211413,47.968507],[16.23264,48.00543],[16.13366,47.98229]]},"properties":{"name":"13. Juli 1912"}},{"type":"Feature","geometry":{"type":"Point","coordinates":[16.208627,47.965689]},"properties":{"id":"pmb253410","title":"Hotel Hallmayer","lat":"47.965689","lon":"16.208627","timestamp":["1912-07-13"],"importance":1,"abbr":"Hotel (K.HTL)","type":"Hotel"}},{"type":"Feature","geometry":{"type":"Point","coordinates":[16.13366,47.98229]},"properties":{"id":"pmb250673","title":"Ruine Merkenstein","lat":"47.98229","lon":"16.13366","timestamp":["1912-07-13"],"importance":1,"wikipedia":"https://de.wikipedia.org/wiki/Ruine_Merkenstein","wikidata":"http://www.wikidata.org/entity/Q873087","abbr":"S.RUIN","type":"Ruine"}},{"type":"Feature","geometry":{"type":"Point","coordinates":[16.197411111111112,47.973169444444444]},"properties":{"id":"pmb232085","title":"Jubiläumswarte [Bad Vöslau]","lat":"47.973169444444444","lon":"16.197411111111112","timestamp":["1912-07-13"],"importance":1,"wikipedia":"https://de.wikipedia.org/wiki/Jubil%C3%A4umswarte_(Bad_V%C3%B6slau)","wikidata":"http://www.wikidata.org/entity/Q1363013","abbr":"Monument (K.MON)","type":"Monument"}},{"type":"Feature","geometry":{"type":"Point","coordinates":[16.19977,47.96982]},"properties":{"id":"pmb253417","title":"Alexanderhöhe","lat":"47.96982","lon":"16.19977","timestamp":["1912-07-13"],"importance":1,"abbr":"Landschaftlicher Punkt","type":"Landschaftlicher Punkt"}},{"type":"Feature","geometry":{"type":"Point","coordinates":[16.211413,47.968507]},"properties":{"id":"pmb253420","title":"Jägermayerstraße 13 »Marienhaus«","lat":"47.968507","lon":"16.211413","timestamp":["1912-07-13"],"importance":1,"abbr":"Wohngebäude (K.WHS)","type":"Wohngebäude"}},{"type":"Feature","geometry":{"type":"Point","coordinates":[16.20632,47.96833]},"properties":{"id":"pmb290486","title":"Kurpark Bad Vöslau","lat":"47.96833","lon":"16.20632","timestamp":["1912-07-13"],"importance":1,"wikidata":"http://www.wikidata.org/entity/Q38110224","abbr":"Park (K.PRK)","type":"Park"}},{"type":"Feature","geometry":{"type":"Point","coordinates":[16.23264,48.00543]},"properties":{"id":"pmb662","title":"Baden bei Wien","lat":"48.00543","lon":"16.23264","timestamp":["1912-07-13"],"importance":1,"wikipedia":"https://de.wikipedia.org/wiki/Baden_(Nieder%C3%B6sterreich)","wikidata":"http://www.wikidata.org/entity/Q486450","geonames":"https://sws.geonames.org/2782067/","abbr":"P.PPLA3","type":"Hauptstadt"}}],"hierarchy":[{"id":"pmb992","name":"Bad Vöslau","children":[{"id":"pmb253410","name":"Hotel Hallmayer","children":[]},{"id":"pmb250673","name":"Ruine Merkenstein","children":[]},{"id":"pmb232085","name":"Jubiläumswarte [Bad Vöslau]","children":[]},{"id":"pmb253417","name":"Alexanderhöhe","children":[]},{"id":"pmb253420","name":"Jägermayerstraße 13 »Marienhaus«","children":[]},{"id":"pmb290486","name":"Kurpark Bad Vöslau","children":[]}]},{"id":"pmb662","name":"Baden bei Wien","children":[]}]}