{"type":"FeatureCollection","features":[{"type":"Feature","geometry":{"type":"LineString","coordinates":[[11.555,48.140833],[11.585161,48.135523],[11.582478,48.138122],[11.581667,48.138889],[11.583415,48.153287]]},"properties":{"name":"9. Februar 1913"}},{"type":"Feature","geometry":{"type":"Point","coordinates":[11.581667,48.138889]},"properties":{"id":"pmb485","title":"Hotel Vier Jahreszeiten","lat":"48.138889","lon":"11.581667","timestamp":["1913-02-09"],"importance":1,"wikipedia":"https://de.wikipedia.org/wiki/Hotel_Vier_Jahreszeiten_(M%C3%BCnchen)","wikidata":"http://www.wikidata.org/entity/Q1388047","abbr":"Hotel (K.HTL)","type":"Hotel"}},{"type":"Feature","geometry":{"type":"Point","coordinates":[11.555,48.140833]},"properties":{"id":"pmb247583","title":"Hauptbahnhof München","lat":"48.140833","lon":"11.555","timestamp":["1913-02-09"],"importance":1,"wikipedia":"https://de.wikipedia.org/wiki/M%C3%BCnchen_Hauptbahnhof","wikidata":"http://www.wikidata.org/entity/Q254647","geonames":"https://sws.geonames.org/6324603/","abbr":"S.RSTN","type":"Bahnhof"}},{"type":"Feature","geometry":{"type":"Point","coordinates":[11.583415,48.153287]},"properties":{"id":"pmb254191","title":"Leopoldstraße 10","lat":"48.153287","lon":"11.583415","timestamp":["1913-02-09"],"importance":1,"abbr":"Wohngebäude (K.WHS)","type":"Wohngebäude","wohnort":[{"p_name":"Elisabeth Steinrück","p_id":"#2315"}]}},{"type":"Feature","geometry":{"type":"Point","coordinates":[11.585161,48.135523]},"properties":{"id":"pmb248958","title":"Mannhardtstraße 3","lat":"48.135523","lon":"11.585161","timestamp":["1913-02-09"],"importance":1,"abbr":"Wohngebäude (K.WHS)","type":"Wohngebäude","wohnort":[{"p_name":"Aloisia Chlum","p_id":"#27771"},{"p_name":"Auguste Glümer","p_id":"#14948"},{"p_name":"Marie Glümer","p_id":"#14953"}]}},{"type":"Feature","geometry":{"type":"Point","coordinates":[11.582478,48.138122]},"properties":{"id":"pmb11","title":"Münchner Schauspielhaus","lat":"48.138122","lon":"11.582478","timestamp":["1913-02-09"],"importance":1,"abbr":"Theater (K.THE)","type":"Theater"}}],"hierarchy":[{"id":"pmb45258","name":"München","children":[{"id":"pmb485","name":"Hotel Vier Jahreszeiten","children":[]},{"id":"pmb247583","name":"Hauptbahnhof München","children":[]},{"id":"pmb254191","name":"Leopoldstraße 10","children":[]},{"id":"pmb248958","name":"Mannhardtstraße 3","children":[]},{"id":"pmb11","name":"Münchner Schauspielhaus","children":[]}]}]}