{"type":"FeatureCollection","features":[{"type":"Feature","geometry":{"type":"LineString","coordinates":[[9.500844,47.001225],[9.505201,47.010243],[9.604167,47.241111],[9.59854,47.237813],[9.597851,47.23838],[9.478623,47.16841]]},"properties":{"name":"15. August 1914"}},{"type":"Feature","geometry":{"type":"Point","coordinates":[9.500844,47.001225]},"properties":{"id":"pmb256955","title":"Hotel Krone","lat":"47.001225","lon":"9.500844","timestamp":["1914-08-15"],"importance":1,"abbr":"Hotel (K.HTL)","type":"Hotel"}},{"type":"Feature","geometry":{"type":"Point","coordinates":[9.505201,47.010243]},"properties":{"id":"pmb256952","title":"Bad Ragaz Bahnhof","lat":"47.010243","lon":"9.505201","timestamp":["1914-08-15"],"importance":1,"wikidata":"http://www.wikidata.org/entity/Q29786372","abbr":"Bahnhofsgebäude (K.BHF)","type":"Bahnhofsgebäude"}},{"type":"Feature","geometry":{"type":"Point","coordinates":[9.604167,47.241111]},"properties":{"id":"pmb248106","title":"Bahnhof Feldkirch","lat":"47.241111","lon":"9.604167","timestamp":["1914-08-15"],"importance":1,"wikipedia":"https://de.wikipedia.org/wiki/Bahnhof_Feldkirch","wikidata":"http://www.wikidata.org/entity/Q698785","abbr":"Bahnhofsgebäude (K.BHF)","type":"Bahnhofsgebäude"}},{"type":"Feature","geometry":{"type":"Point","coordinates":[9.59854,47.237813]},"properties":{"id":"pmb248121","title":"Hotel Post [Feldkirch]","lat":"47.237813","lon":"9.59854","timestamp":["1914-08-15"],"importance":1,"wikidata":"http://www.wikidata.org/entity/Q131869947","abbr":"Hotel (K.HTL)","type":"Hotel"}},{"type":"Feature","geometry":{"type":"Point","coordinates":[9.597851,47.23838]},"properties":{"id":"pmb248126","title":"Bezirkshauptmannschaft Feldkirch","lat":"47.23838","lon":"9.597851","timestamp":["1914-08-15"],"importance":1,"wikidata":"http://www.wikidata.org/entity/Q38070739","abbr":"Verwaltungsgebäude (K.VWL)","type":"Verwaltungsgebäude"}},{"type":"Feature","geometry":{"type":"Point","coordinates":[9.478623,47.16841]},"properties":{"id":"pmb254661","title":"Bahnhof Buchs SG","lat":"47.16841","lon":"9.478623","timestamp":["1914-08-15"],"importance":1,"wikipedia":"https://de.wikipedia.org/wiki/Bahnhof_Buchs_SG","wikidata":"http://www.wikidata.org/entity/Q15964098","abbr":"Bahnhofsgebäude (K.BHF)","type":"Bahnhofsgebäude"}}],"hierarchy":[{"id":"pmb49990","name":"Bad Ragaz","children":[{"id":"pmb256955","name":"Hotel Krone","children":[]},{"id":"pmb256952","name":"Bad Ragaz Bahnhof","children":[]}]},{"id":"pmb44368","name":"Feldkirch","children":[{"id":"pmb248106","name":"Bahnhof Feldkirch","children":[]},{"id":"pmb248121","name":"Hotel Post [Feldkirch]","children":[]},{"id":"pmb248126","name":"Bezirkshauptmannschaft Feldkirch","children":[]}]},{"id":"pmb859","name":"Buchs","children":[{"id":"pmb254661","name":"Bahnhof Buchs SG","children":[]}]}]}