{"type":"FeatureCollection","features":[{"type":"Feature","geometry":{"type":"LineString","coordinates":[[10.396918,43.712615],[10.40576,43.709],[10.3942,43.72327],[10.395502,43.723293],[10.39495,43.724],[11.246156,43.771776],[11.247527,43.776338],[8.941219,44.409045],[8.92019924113306,44.416935291174376]]},"properties":{"name":"11. Mai 1914"}},{"type":"Feature","geometry":{"type":"Point","coordinates":[11.246156,43.771776]},"properties":{"id":"pmb256209","title":"Hotel d’Italie [Florenz]","lat":"43.771776","lon":"11.246156","timestamp":["1914-05-11"],"importance":1,"abbr":"Hotel (K.HTL)","type":"Hotel"}},{"type":"Feature","geometry":{"type":"Point","coordinates":[11.247527,43.776338]},"properties":{"id":"pmb52725","title":"Bahnhof Firenze Santa Maria Novella","lat":"43.776338","lon":"11.247527","timestamp":["1914-05-11"],"importance":1,"wikipedia":"https://de.wikipedia.org/wiki/Bahnhof_Firenze_Santa_Maria_Novella","wikidata":"http://www.wikidata.org/entity/Q800761","abbr":"Bahnhofsgebäude (K.BHF)","type":"Bahnhofsgebäude"}},{"type":"Feature","geometry":{"type":"Point","coordinates":[8.92019924113306,44.416935291174376]},"properties":{"id":"pmb52288","title":"Bahnhof Genua","lat":"44.416935291174376","lon":"8.92019924113306","timestamp":["1914-05-11"],"importance":1,"abbr":"Bahnhofsgebäude (K.BHF)","type":"Bahnhofsgebäude"}},{"type":"Feature","geometry":{"type":"Point","coordinates":[8.941219,44.409045]},"properties":{"id":"pmb256346","title":"Eden Palace Hotel","lat":"44.409045","lon":"8.941219","timestamp":["1914-05-11"],"importance":1,"abbr":"Hotel (K.HTL)","type":"Hotel"}},{"type":"Feature","geometry":{"type":"Point","coordinates":[10.40576,43.709]},"properties":{"id":"pmb292567","title":"Stazione Leopolda","lat":"43.709","lon":"10.40576","timestamp":["1914-05-11"],"importance":1,"wikidata":"http://www.wikidata.org/entity/Q3968776","abbr":"Bahnhofsgebäude (K.BHF)","type":"Bahnhofsgebäude"}},{"type":"Feature","geometry":{"type":"Point","coordinates":[10.395502,43.723293]},"properties":{"id":"pmb256333","title":"Duomo di Pisa","lat":"43.723293","lon":"10.395502","timestamp":["1914-05-11"],"importance":1,"wikipedia":"https://de.wikipedia.org/wiki/Dom_zu_Pisa","wikidata":"http://www.wikidata.org/entity/Q1754247","abbr":"Kirche (K.KRC)","type":"Kirche"}},{"type":"Feature","geometry":{"type":"Point","coordinates":[10.3942,43.72327]},"properties":{"id":"pmb256336","title":"Battistero di San Giovanni","lat":"43.72327","lon":"10.3942","timestamp":["1914-05-11"],"importance":1,"wikipedia":"https://de.wikipedia.org/wiki/Baptisterium_(Pisa)","wikidata":"http://www.wikidata.org/entity/Q1278477","geonames":"https://sws.geonames.org/6295662/","abbr":"S.CTRR","type":""}},{"type":"Feature","geometry":{"type":"Point","coordinates":[10.39495,43.724]},"properties":{"id":"pmb256339","title":"Camposanto Monumentale [Pisa]","lat":"43.724","lon":"10.39495","timestamp":["1914-05-11"],"importance":1,"wikipedia":"https://de.wikipedia.org/wiki/Camposanto_Monumentale","wikidata":"http://www.wikidata.org/entity/Q1031614","abbr":"Friedhof (K.FRH)","type":"Friedhof"}},{"type":"Feature","geometry":{"type":"Point","coordinates":[10.396918,43.712615]},"properties":{"id":"pmb256342","title":"Hotel de Londres [Pisa]","lat":"43.712615","lon":"10.396918","timestamp":["1914-05-11"],"importance":1,"abbr":"Hotel (K.HTL)","type":"Hotel"}}],"hierarchy":[{"id":"pmb263","name":"Florenz","children":[{"id":"pmb256209","name":"Hotel d’Italie [Florenz]","children":[]},{"id":"pmb52725","name":"Bahnhof Firenze Santa Maria Novella","children":[]}]},{"id":"pmb994","name":"Genua","children":[{"id":"pmb52288","name":"Bahnhof Genua","children":[]},{"id":"pmb256346","name":"Eden Palace Hotel","children":[]}]},{"id":"pmb44267","name":"Pisa","children":[{"id":"pmb292567","name":"Stazione Leopolda","children":[]},{"id":"pmb256333","name":"Duomo di Pisa","children":[]},{"id":"pmb256336","name":"Battistero di San Giovanni","children":[]},{"id":"pmb256339","name":"Camposanto Monumentale [Pisa]","children":[]},{"id":"pmb256342","name":"Hotel de Londres [Pisa]","children":[]}]}]}