{"type":"FeatureCollection","features":[{"type":"Feature","geometry":{"type":"LineString","coordinates":[[13.619619,47.716395],[13.616701,47.713429],[13.61926,47.71356],[13.664415,47.74078],[13.613595,47.723751]]},"properties":{"name":"10. August 1915"}},{"type":"Feature","geometry":{"type":"Point","coordinates":[13.61926,47.71356]},"properties":{"id":"pmb655","title":"Hotel Kaiserkrone","lat":"47.71356","lon":"13.61926","timestamp":["1915-08-10"],"importance":1,"abbr":"Hotel (K.HTL)","type":"Hotel"}},{"type":"Feature","geometry":{"type":"Point","coordinates":[13.613595,47.723751]},"properties":{"id":"pmb90948","title":"Jainzen","lat":"47.723751","lon":"13.613595","timestamp":["1915-08-10"],"importance":1,"geonames":"https://sws.geonames.org/2775137/","abbr":"P.PPL","type":"Besiedelter Ort"}},{"type":"Feature","geometry":{"type":"Point","coordinates":[13.616701,47.713429]},"properties":{"id":"pmb40450","title":"Restaurant Sonnenschein","lat":"47.713429","lon":"13.616701","timestamp":["1915-08-10"],"importance":1,"abbr":"S.REST","type":"Restaurant"}},{"type":"Feature","geometry":{"type":"Point","coordinates":[13.619619,47.716395]},"properties":{"id":"pmb263446","title":"Kaiserpark","lat":"47.716395","lon":"13.619619","timestamp":["1915-08-10"],"importance":1,"wikidata":"http://www.wikidata.org/entity/Q127016505","abbr":"Park (K.PRK)","type":"Park"}},{"type":"Feature","geometry":{"type":"Point","coordinates":[13.664415,47.74078]},"properties":{"id":"pmb92222","title":"Ebenseerstraße","lat":"47.74078","lon":"13.664415","timestamp":["1915-08-10"],"importance":1,"abbr":"Straße (K.STR)","type":"Straße"}}],"hierarchy":[{"id":"pmb213","name":"Bad Ischl","children":[{"id":"pmb655","name":"Hotel Kaiserkrone","children":[]},{"id":"pmb90948","name":"Jainzen","children":[]},{"id":"pmb40450","name":"Restaurant Sonnenschein","children":[]},{"id":"pmb263446","name":"Kaiserpark","children":[]},{"id":"pmb92222","name":"Ebenseerstraße","children":[]}]}]}