{"type":"FeatureCollection","features":[{"type":"Feature","geometry":{"type":"LineString","coordinates":[[13.76819,47.63601],[13.77095,47.6416],[13.78333,47.66667],[13.7723,47.6517],[13.76667,47.65],[13.76667,47.65]]},"properties":{"name":"4. September 1916"}},{"type":"Feature","geometry":{"type":"Point","coordinates":[13.76819,47.63601]},"properties":{"id":"pmb264904","title":"Seevilla [Altaussee]","lat":"47.63601","lon":"13.76819","timestamp":["1916-09-04"],"importance":1,"wikidata":"http://www.wikidata.org/entity/Q66008943","abbr":"Wohngebäude (K.WHS)","type":"Wohngebäude","wohnort":[{"p_name":"Elsa Landesberger","p_id":"#27809"},{"p_name":"Julius von Landesberger","p_id":"#12034"}]}},{"type":"Feature","geometry":{"type":"Point","coordinates":[13.77095,47.6416]},"properties":{"id":"pmb34387","title":"Villa Annerl","lat":"47.6416","lon":"13.77095","timestamp":["1916-09-04"],"importance":1,"abbr":"Gebäude (K.GBD)","type":"Gebäude"}},{"type":"Feature","geometry":{"type":"Point","coordinates":[13.76667,47.65]},"properties":{"id":"pmb91167","title":"Loserhütte","lat":"47.65","lon":"13.76667","timestamp":["1916-09-04"],"importance":1,"geonames":"https://sws.geonames.org/2772243/","abbr":"S.HTL","type":"Hotel"}},{"type":"Feature","geometry":{"type":"Point","coordinates":[13.76667,47.65]},"properties":{"id":"pmb52428","title":"Loser","lat":"47.65","lon":"13.76667","timestamp":["1916-09-04"],"importance":1,"geonames":"https://sws.geonames.org/2772245/","abbr":"T.PK","type":"Bergspitze"}},{"type":"Feature","geometry":{"type":"Point","coordinates":[13.7723,47.6517]},"properties":{"id":"pmb92378","title":"Löcker","lat":"47.6517","lon":"13.7723","timestamp":["1916-09-04"],"importance":1,"abbr":"Pass (N.PAS)","type":"Pass"}},{"type":"Feature","geometry":{"type":"Point","coordinates":[13.78333,47.66667]},"properties":{"id":"pmb90282","title":"Augstsee","lat":"47.66667","lon":"13.78333","timestamp":["1916-09-04"],"importance":1,"geonames":"https://sws.geonames.org/2604941/","abbr":"H.LK","type":"See"}}],"hierarchy":[{"id":"pmb34401","name":"Altaussee","children":[{"id":"pmb264904","name":"Seevilla [Altaussee]","children":[]},{"id":"pmb34402","name":"Fischerndorf","children":[{"id":"pmb34387","name":"Villa Annerl","children":[]},{"id":"pmb91167","name":"Loserhütte","children":[]}]}]},{"id":"pmb52428","name":"Loser","children":[]},{"id":"pmb92378","name":"Löcker","children":[]},{"id":"pmb90282","name":"Augstsee","children":[]}]}