{"type":"FeatureCollection","features":[{"type":"Feature","geometry":{"type":"LineString","coordinates":[[13.762683,47.616298],[13.801612,47.608608],[13.7804,47.624],[13.78664,47.62109],[13.77095,47.6416],[13.76819,47.63601],[13.768567,47.633835]]},"properties":{"name":"29. August 1916"}},{"type":"Feature","geometry":{"type":"Point","coordinates":[13.77095,47.6416]},"properties":{"id":"pmb34387","title":"Villa Annerl","lat":"47.6416","lon":"13.77095","timestamp":["1916-08-29"],"importance":1,"abbr":"Gebäude (K.GBD)","type":"Gebäude"}},{"type":"Feature","geometry":{"type":"Point","coordinates":[13.76819,47.63601]},"properties":{"id":"pmb264904","title":"Seevilla [Altaussee]","lat":"47.63601","lon":"13.76819","timestamp":["1916-08-29"],"importance":1,"wikidata":"http://www.wikidata.org/entity/Q66008943","abbr":"Wohngebäude (K.WHS)","type":"Wohngebäude","wohnort":[{"p_name":"Elsa Landesberger","p_id":"#27809"},{"p_name":"Julius von Landesberger","p_id":"#12034"}]}},{"type":"Feature","geometry":{"type":"Point","coordinates":[13.768567,47.633835]},"properties":{"id":"pmb264887","title":"Villa Hellmann","lat":"47.633835","lon":"13.768567","timestamp":["1916-08-29"],"importance":1,"abbr":"Wohngebäude (K.WHS)","type":"Wohngebäude"}},{"type":"Feature","geometry":{"type":"Point","coordinates":[13.801612,47.608608]},"properties":{"id":"pmb264982","title":"Leonhardkirche Bad Aussee","lat":"47.608608","lon":"13.801612","timestamp":["1916-08-29"],"importance":1,"abbr":"Kirche (K.KRC)","type":"Kirche"}},{"type":"Feature","geometry":{"type":"Point","coordinates":[13.762683,47.616298]},"properties":{"id":"pmb92454","title":"Pötschenstraße","lat":"47.616298","lon":"13.762683","timestamp":["1916-08-29"],"importance":1,"abbr":"Straße (K.STR)","type":"Straße"}},{"type":"Feature","geometry":{"type":"Point","coordinates":[13.78664,47.62109]},"properties":{"id":"pmb264727","title":"Gasthaus »zum Loitzl«","lat":"47.62109","lon":"13.78664","timestamp":["1916-08-29"],"importance":1,"abbr":"Gastgewerbegebäude (K.GGW)","type":"Gastgewerbegebäude"}},{"type":"Feature","geometry":{"type":"Point","coordinates":[13.7804,47.624]},"properties":{"id":"pmb264896","title":"Bärenmoos","lat":"47.624","lon":"13.7804","timestamp":["1916-08-29"],"importance":1,"wikidata":"http://www.wikidata.org/entity/Q69360402","abbr":"Wiese","type":"Wiese"}}],"hierarchy":[{"id":"pmb34401","name":"Altaussee","children":[{"id":"pmb34387","name":"Villa Annerl","children":[]},{"id":"pmb264904","name":"Seevilla [Altaussee]","children":[]},{"id":"pmb264887","name":"Villa Hellmann","children":[]}]},{"id":"pmb415","name":"Bad Aussee","children":[{"id":"pmb264982","name":"Leonhardkirche Bad Aussee","children":[]},{"id":"pmb92454","name":"Pötschenstraße","children":[]},{"id":"pmb36473","name":"Obertressen","children":[{"id":"pmb264727","name":"Gasthaus »zum Loitzl«","children":[]},{"id":"pmb264896","name":"Bärenmoos","children":[]}]}]}]}