{"type":"FeatureCollection","features":[{"type":"Feature","geometry":{"type":"LineString","coordinates":[[13.776666666666667,47.59916666666667],[13.768567,47.633835],[13.77095,47.6416],[13.6273,47.7122],[13.62156,47.71319],[13.045769,47.813139],[13.043176,47.81233]]},"properties":{"name":"2. September 1916"}},{"type":"Feature","geometry":{"type":"Point","coordinates":[13.043176,47.81233]},"properties":{"id":"pmb152","title":"Grand Hotel de L’Europe, G. Jung","lat":"47.81233","lon":"13.043176","timestamp":["1916-09-02"],"importance":1,"wikipedia":"https://de.wikipedia.org/wiki/Hotel_de_l%E2%80%99Europe_(Salzburg)","wikidata":"http://www.wikidata.org/entity/Q16831871","abbr":"Hotel (K.HTL)","type":"Hotel"}},{"type":"Feature","geometry":{"type":"Point","coordinates":[13.045769,47.813139]},"properties":{"id":"pmb50792","title":"Hauptbahnhof Salzburg","lat":"47.813139","lon":"13.045769","timestamp":["1916-09-02"],"importance":1,"wikipedia":"https://de.wikipedia.org/wiki/Salzburg_Hauptbahnhof","wikidata":"http://www.wikidata.org/entity/Q694694","abbr":"Bahnhofsgebäude (K.BHF)","type":"Bahnhofsgebäude"}},{"type":"Feature","geometry":{"type":"Point","coordinates":[13.77095,47.6416]},"properties":{"id":"pmb34387","title":"Villa Annerl","lat":"47.6416","lon":"13.77095","timestamp":["1916-09-02"],"importance":1,"abbr":"Gebäude (K.GBD)","type":"Gebäude"}},{"type":"Feature","geometry":{"type":"Point","coordinates":[13.768567,47.633835]},"properties":{"id":"pmb264887","title":"Villa Hellmann","lat":"47.633835","lon":"13.768567","timestamp":["1916-09-02"],"importance":1,"abbr":"Wohngebäude (K.WHS)","type":"Wohngebäude"}},{"type":"Feature","geometry":{"type":"Point","coordinates":[13.6273,47.7122]},"properties":{"id":"pmb248791","title":"Bahnhof Bad Ischl","lat":"47.7122","lon":"13.6273","timestamp":["1916-09-02"],"importance":1,"wikipedia":"https://de.wikipedia.org/wiki/Bahnhof_Bad_Ischl","wikidata":"http://www.wikidata.org/entity/Q800426","abbr":"Bahnhofsgebäude (K.BHF)","type":"Bahnhofsgebäude"}},{"type":"Feature","geometry":{"type":"Point","coordinates":[13.62156,47.71319]},"properties":{"id":"pmb84","title":"Hotel zum goldenen Kreuz [Bad Ischl]","lat":"47.71319","lon":"13.62156","timestamp":["1916-09-02"],"importance":1,"abbr":"Hotel (K.HTL)","type":"Hotel"}},{"type":"Feature","geometry":{"type":"Point","coordinates":[13.776666666666667,47.59916666666667]},"properties":{"id":"pmb263516","title":"Bahnhof Bad Aussee","lat":"47.59916666666667","lon":"13.776666666666667","timestamp":["1916-09-02"],"importance":1,"wikipedia":"https://de.wikipedia.org/wiki/Bahnhof_Bad_Aussee","wikidata":"http://www.wikidata.org/entity/Q72823539","abbr":"Bahnhofsgebäude (K.BHF)","type":"Bahnhofsgebäude"}}],"hierarchy":[{"id":"pmb30","name":"Salzburg","children":[{"id":"pmb152","name":"Grand Hotel de L’Europe, G. Jung","children":[]},{"id":"pmb50792","name":"Hauptbahnhof Salzburg","children":[]}]},{"id":"pmb34401","name":"Altaussee","children":[{"id":"pmb34387","name":"Villa Annerl","children":[]},{"id":"pmb264887","name":"Villa Hellmann","children":[]}]},{"id":"pmb213","name":"Bad Ischl","children":[{"id":"pmb248791","name":"Bahnhof Bad Ischl","children":[]},{"id":"pmb84","name":"Hotel zum goldenen Kreuz [Bad Ischl]","children":[]}]},{"id":"pmb415","name":"Bad Aussee","children":[{"id":"pmb263516","name":"Bahnhof Bad Aussee","children":[]}]}]}