{"type":"FeatureCollection","features":[{"type":"Feature","geometry":{"type":"LineString","coordinates":[[11.097,47.4915],[11.10885,47.49085],[11.11289,47.48881],[11.570521871552252,48.141240506268204],[11.567552,48.143964],[11.555,48.140833]]},"properties":{"name":"10. September 1918"}},{"type":"Feature","geometry":{"type":"Point","coordinates":[11.11289,47.48881]},"properties":{"id":"pmb808","title":"Haus Tannenberg","lat":"47.48881","lon":"11.11289","timestamp":["1918-09-10"],"importance":1,"abbr":"Beherbergungsgebäude (K.BHB)","type":"Beherbergungsgebäude","wohnort":[{"p_name":"Anne-Elisabeth Ziegra","p_id":"#19963"}]}},{"type":"Feature","geometry":{"type":"Point","coordinates":[11.10885,47.49085]},"properties":{"id":"pmb34392","title":"Villa Zufriedenheit","lat":"47.49085","lon":"11.10885","timestamp":["1918-09-10"],"importance":1,"abbr":"Gebäude (K.GBD)","type":"Gebäude","wohnort":[{"p_name":"Elisabeth Steinrück","p_id":"#2315"}]}},{"type":"Feature","geometry":{"type":"Point","coordinates":[11.097,47.4915]},"properties":{"id":"pmb265939","title":"Bahnhof Garmisch-Partenkirchen","lat":"47.4915","lon":"11.097","timestamp":["1918-09-10"],"importance":1,"wikipedia":"https://de.wikipedia.org/wiki/Bahnhof_Garmisch-Partenkirchen","wikidata":"http://www.wikidata.org/entity/Q800804","abbr":"Bahnhofsgebäude (K.BHF)","type":"Bahnhofsgebäude"}},{"type":"Feature","geometry":{"type":"Point","coordinates":[11.555,48.140833]},"properties":{"id":"pmb247583","title":"Hauptbahnhof München","lat":"48.140833","lon":"11.555","timestamp":["1918-09-10"],"importance":1,"wikipedia":"https://de.wikipedia.org/wiki/M%C3%BCnchen_Hauptbahnhof","wikidata":"http://www.wikidata.org/entity/Q254647","geonames":"https://sws.geonames.org/6324603/","abbr":"S.RSTN","type":"Bahnhof"}},{"type":"Feature","geometry":{"type":"Point","coordinates":[11.567552,48.143964]},"properties":{"id":"pmb401","title":"Hotel Marienbad [München]","lat":"48.143964","lon":"11.567552","timestamp":["1918-09-10"],"importance":1,"abbr":"Hotel (K.HTL)","type":"Hotel"}},{"type":"Feature","geometry":{"type":"Point","coordinates":[11.570521871552252,48.141240506268204]},"properties":{"id":"pmb52580","title":"Parkhotel München","lat":"48.141240506268204","lon":"11.570521871552252","timestamp":["1918-09-10"],"importance":1,"abbr":"Hotel (K.HTL)","type":"Hotel"}}],"hierarchy":[{"id":"pmb667","name":"Garmisch-Partenkirchen","children":[{"id":"pmb2318","name":"Partenkirchen","children":[{"id":"pmb808","name":"Haus Tannenberg","children":[]},{"id":"pmb34392","name":"Villa Zufriedenheit","children":[]}]},{"id":"pmb265939","name":"Bahnhof Garmisch-Partenkirchen","children":[]}]},{"id":"pmb45258","name":"München","children":[{"id":"pmb247583","name":"Hauptbahnhof München","children":[]},{"id":"pmb401","name":"Hotel Marienbad [München]","children":[]},{"id":"pmb52580","name":"Parkhotel München","children":[]}]}]}