{"type":"FeatureCollection","features":[{"type":"Feature","geometry":{"type":"LineString","coordinates":[[13.7340478,47.6272522],[13.77004,47.628445],[13.77189,47.6417],[13.70986,47.66597],[13.70761,47.65548]]},"properties":{"name":"11. September 1920"}},{"type":"Feature","geometry":{"type":"Point","coordinates":[13.77189,47.6417]},"properties":{"id":"pmb106","title":"Hotel am See","lat":"47.6417","lon":"13.77189","timestamp":["1920-09-11"],"importance":1,"abbr":"Hotel (K.HTL)","type":"Hotel"}},{"type":"Feature","geometry":{"type":"Point","coordinates":[13.77004,47.628445]},"properties":{"id":"pmb290949","title":"Villa Schöneck","lat":"47.628445","lon":"13.77004","timestamp":["1920-09-11"],"importance":1,"abbr":"Wohngebäude (K.WHS)","type":"Wohngebäude"}},{"type":"Feature","geometry":{"type":"Point","coordinates":[13.7340478,47.6272522]},"properties":{"id":"pmb264681","title":"Gasthaus zum Bachwirt","lat":"47.6272522","lon":"13.7340478","timestamp":["1920-09-11"],"importance":1,"abbr":"Gastgewerbegebäude (K.GGW)","type":"Gastgewerbegebäude"}},{"type":"Feature","geometry":{"type":"Point","coordinates":[13.70986,47.66597]},"properties":{"id":"pmb192397","title":"Hintere Sandlingalm","lat":"47.66597","lon":"13.70986","timestamp":["1920-09-11"],"importance":1,"wikipedia":"https://de.wikipedia.org/wiki/Pitzingalm","wikidata":"http://www.wikidata.org/entity/Q111273260","abbr":"Alm","type":"Alm"}},{"type":"Feature","geometry":{"type":"Point","coordinates":[13.70761,47.65548]},"properties":{"id":"pmb192390","title":"Vordere Sandlingalm","lat":"47.65548","lon":"13.70761","timestamp":["1920-09-11"],"importance":1,"wikipedia":"https://de.wikipedia.org/wiki/Vordere_Sandlingalm","wikidata":"http://www.wikidata.org/entity/Q110953060","abbr":"Alm","type":"Alm"}}],"hierarchy":[{"id":"pmb34401","name":"Altaussee","children":[{"id":"pmb106","name":"Hotel am See","children":[]},{"id":"pmb290949","name":"Villa Schöneck","children":[]}]},{"id":"pmb264683","name":"Lupitsch","children":[{"id":"pmb264681","name":"Gasthaus zum Bachwirt","children":[]}]},{"id":"pmb213","name":"Bad Ischl","children":[{"id":"pmb192397","name":"Hintere Sandlingalm","children":[]}]},{"id":"pmb614","name":"Sandling","children":[{"id":"pmb192397","name":"Hintere Sandlingalm","children":[]},{"id":"pmb192390","name":"Vordere Sandlingalm","children":[]}]},{"id":"pmb672","name":"Bad Goisern","children":[{"id":"pmb192390","name":"Vordere Sandlingalm","children":[]}]}]}