{"type":"FeatureCollection","features":[{"type":"Feature","geometry":{"type":"LineString","coordinates":[[13.7340478,47.6272522],[13.77004,47.628445],[13.79683,47.63156],[13.77189,47.6417],[13.760194,47.64285]]},"properties":{"name":"13. September 1920"}},{"type":"Feature","geometry":{"type":"Point","coordinates":[13.77189,47.6417]},"properties":{"id":"pmb106","title":"Hotel am See","lat":"47.6417","lon":"13.77189","timestamp":["1920-09-13"],"importance":1,"abbr":"Hotel (K.HTL)","type":"Hotel"}},{"type":"Feature","geometry":{"type":"Point","coordinates":[13.77004,47.628445]},"properties":{"id":"pmb290949","title":"Villa Schöneck","lat":"47.628445","lon":"13.77004","timestamp":["1920-09-13"],"importance":1,"abbr":"Wohngebäude (K.WHS)","type":"Wohngebäude"}},{"type":"Feature","geometry":{"type":"Point","coordinates":[13.760194,47.64285]},"properties":{"id":"pmb290936","title":"Villa Gisela und Markus Hajek","lat":"47.64285","lon":"13.760194","timestamp":["1920-09-13"],"importance":1,"abbr":"Wohngebäude (K.WHS)","type":"Wohngebäude"}},{"type":"Feature","geometry":{"type":"Point","coordinates":[13.7340478,47.6272522]},"properties":{"id":"pmb264681","title":"Gasthaus zum Bachwirt","lat":"47.6272522","lon":"13.7340478","timestamp":["1920-09-13"],"importance":1,"abbr":"Gastgewerbegebäude (K.GGW)","type":"Gastgewerbegebäude"}},{"type":"Feature","geometry":{"type":"Point","coordinates":[13.79683,47.63156]},"properties":{"id":"pmb264744","title":"Tressensattel","lat":"47.63156","lon":"13.79683","timestamp":["1920-09-13"],"importance":1,"wikidata":"http://www.wikidata.org/entity/Q133567364","abbr":"Pass (N.PAS)","type":"Pass"}}],"hierarchy":[{"id":"pmb34401","name":"Altaussee","children":[{"id":"pmb106","name":"Hotel am See","children":[]},{"id":"pmb290949","name":"Villa Schöneck","children":[]},{"id":"pmb290936","name":"Villa Gisela und Markus Hajek","children":[]}]},{"id":"pmb264683","name":"Lupitsch","children":[{"id":"pmb264681","name":"Gasthaus zum Bachwirt","children":[]}]},{"id":"pmb264744","name":"Tressensattel","children":[]}]}