{"type":"FeatureCollection","features":[{"type":"Feature","geometry":{"type":"LineString","coordinates":[[15.84453,47.69852],[15.850262,47.696809],[15.8634,47.69209],[15.84804,47.7107],[15.84704,47.70466]]},"properties":{"name":"22. Juni 1920"}},{"type":"Feature","geometry":{"type":"Point","coordinates":[15.84453,47.69852]},"properties":{"id":"pmb44982","title":"Kurhaus Rudolfsbad","lat":"47.69852","lon":"15.84453","timestamp":["1920-06-22"],"importance":1,"abbr":"Sanatorium (K.SAN)","type":"Sanatorium","arbeitsort":[{"p_name":"Wilhelm Wertheimer","p_id":"#26997"}]}},{"type":"Feature","geometry":{"type":"Point","coordinates":[15.84704,47.70466]},"properties":{"id":"pmb796","title":"Thalhof","lat":"47.70466","lon":"15.84704","timestamp":["1920-06-22"],"importance":1,"geonames":"https://sws.geonames.org/2763740/","abbr":"S.HTL","type":"Hotel"}},{"type":"Feature","geometry":{"type":"Point","coordinates":[15.850262,47.696809]},"properties":{"id":"pmb142169","title":"Atzberg","lat":"47.696809","lon":"15.850262","timestamp":["1920-06-22"],"importance":1,"abbr":"T.PK","type":"Bergspitze"}},{"type":"Feature","geometry":{"type":"Point","coordinates":[15.84804,47.7107]},"properties":{"id":"pmb256813","title":"Scheiterplatz","lat":"47.7107","lon":"15.84804","timestamp":["1920-06-22"],"importance":1,"abbr":"Teil eines besiedelten Ortes (A.BSOX)","type":"Teil eines besiedelten Ortes"}},{"type":"Feature","geometry":{"type":"Point","coordinates":[15.8634,47.69209]},"properties":{"id":"pmb948","title":"Payerbach","lat":"47.69209","lon":"15.8634","timestamp":["1920-06-22"],"importance":1,"wikipedia":"https://de.wikipedia.org/wiki/Payerbach","wikidata":"http://www.wikidata.org/entity/Q676675","geonames":"https://sws.geonames.org/2769182/","abbr":"P.PPLA3","type":"Hauptstadt"}}],"hierarchy":[{"id":"pmb483","name":"Reichenau an der Rax","children":[{"id":"pmb44982","name":"Kurhaus Rudolfsbad","children":[]},{"id":"pmb796","name":"Thalhof","children":[]},{"id":"pmb142169","name":"Atzberg","children":[]},{"id":"pmb256813","name":"Scheiterplatz","children":[]}]},{"id":"pmb948","name":"Payerbach","children":[]}]}