{"type":"FeatureCollection","features":[{"type":"Feature","geometry":{"type":"LineString","coordinates":[[13.742411,47.635639],[13.75,47.63333],[13.77004,47.628445],[13.77189,47.6417],[13.7392,47.6514],[13.732299,47.645521]]},"properties":{"name":"1. September 1920"}},{"type":"Feature","geometry":{"type":"Point","coordinates":[13.77189,47.6417]},"properties":{"id":"pmb106","title":"Hotel am See","lat":"47.6417","lon":"13.77189","timestamp":["1920-09-01"],"importance":1,"abbr":"Hotel (K.HTL)","type":"Hotel"}},{"type":"Feature","geometry":{"type":"Point","coordinates":[13.732299,47.645521]},"properties":{"id":"pmb92411","title":"Moosberg","lat":"47.645521","lon":"13.732299","timestamp":["1920-09-01"],"importance":1,"abbr":"Berg (N.BRG)","type":"Berg"}},{"type":"Feature","geometry":{"type":"Point","coordinates":[13.7392,47.6514]},"properties":{"id":"pmb264818","title":"Salzberg Altaussee","lat":"47.6514","lon":"13.7392","timestamp":["1920-09-01"],"importance":1,"wikipedia":"https://de.wikipedia.org/wiki/Salzbergwerk_Altaussee","wikidata":"http://www.wikidata.org/entity/Q1635896","abbr":"Bergwerk","type":"Bergwerk"}},{"type":"Feature","geometry":{"type":"Point","coordinates":[13.742411,47.635639]},"properties":{"id":"pmb264868","title":"Wasserfall des Trattenbaches","lat":"47.635639","lon":"13.742411","timestamp":["1920-09-01"],"importance":1,"abbr":"Wasserfall","type":""}},{"type":"Feature","geometry":{"type":"Point","coordinates":[13.75,47.63333]},"properties":{"id":"pmb91474","title":"Ruine Pflindsberg","lat":"47.63333","lon":"13.75","timestamp":["1920-09-01"],"importance":1,"wikipedia":"https://de.wikipedia.org/wiki/Burg_Pflindsberg","wikidata":"http://www.wikidata.org/entity/Q1013484","geonames":"https://sws.geonames.org/2605042/","abbr":"S.RUIN","type":"Ruine"}},{"type":"Feature","geometry":{"type":"Point","coordinates":[13.77004,47.628445]},"properties":{"id":"pmb290949","title":"Villa Schöneck","lat":"47.628445","lon":"13.77004","timestamp":["1920-09-01"],"importance":1,"abbr":"Wohngebäude (K.WHS)","type":"Wohngebäude"}}],"hierarchy":[{"id":"pmb34401","name":"Altaussee","children":[{"id":"pmb106","name":"Hotel am See","children":[]},{"id":"pmb92411","name":"Moosberg","children":[]},{"id":"pmb264818","name":"Salzberg Altaussee","children":[]},{"id":"pmb264868","name":"Wasserfall des Trattenbaches","children":[]},{"id":"pmb91474","name":"Ruine Pflindsberg","children":[]},{"id":"pmb290949","name":"Villa Schöneck","children":[]}]}]}