{"type":"FeatureCollection","features":[{"type":"Feature","geometry":{"type":"LineString","coordinates":[[13.0458,47.7969],[13.046944444444444,47.797777777777775],[13.043401,47.802045],[13.0455473,47.8021271],[13.048984,47.802236],[13.042019,47.805528],[11.567552,48.143964]]},"properties":{"name":"6. September 1921"}},{"type":"Feature","geometry":{"type":"Point","coordinates":[11.567552,48.143964]},"properties":{"id":"pmb401","title":"Hotel Marienbad [München]","lat":"48.143964","lon":"11.567552","timestamp":["1921-09-06"],"importance":1,"abbr":"Hotel (K.HTL)","type":"Hotel"}},{"type":"Feature","geometry":{"type":"Point","coordinates":[13.0458,47.7969]},"properties":{"id":"pmb190287","title":"Stift Sankt Peter","lat":"47.7969","lon":"13.0458","timestamp":["1921-09-06"],"importance":1,"wikipedia":"https://de.wikipedia.org/wiki/Stift_Sankt_Peter_(Salzburg)","wikidata":"http://www.wikidata.org/entity/Q675735","geonames":"https://sws.geonames.org/6956636/","abbr":"S.CH","type":"Kirche"}},{"type":"Feature","geometry":{"type":"Point","coordinates":[13.043401,47.802045]},"properties":{"id":"pmb230","title":"Österreichischer Hof","lat":"47.802045","lon":"13.043401","timestamp":["1921-09-06"],"importance":1,"wikipedia":"https://de.wikipedia.org/wiki/Hotel_Sacher_Salzburg","wikidata":"http://www.wikidata.org/entity/Q1631024","abbr":"Hotel (K.HTL)","type":"Hotel","arbeitsort":[{"p_name":"Franz Irresberger","p_id":"#28739"}]}},{"type":"Feature","geometry":{"type":"Point","coordinates":[13.042019,47.805528]},"properties":{"id":"pmb180","title":"Schloss Mirabell","lat":"47.805528","lon":"13.042019","timestamp":["1921-09-06"],"importance":1,"wikipedia":"https://de.wikipedia.org/wiki/Schloss_Mirabell","wikidata":"http://www.wikidata.org/entity/Q688546","abbr":"Schloss (K.SLS)","type":"Schloss"}},{"type":"Feature","geometry":{"type":"Point","coordinates":[13.0455473,47.8021271]},"properties":{"id":"pmb477","title":"Hotel Traube","lat":"47.8021271","lon":"13.0455473","timestamp":["1921-09-06"],"importance":1,"abbr":"Hotel (K.HTL)","type":"Hotel"}},{"type":"Feature","geometry":{"type":"Point","coordinates":[13.048984,47.802236]},"properties":{"id":"pmb252997","title":"Zauberflöten-Häuschen","lat":"47.802236","lon":"13.048984","timestamp":["1921-09-06"],"importance":1,"abbr":"Denkmal","type":"Denkmal"}},{"type":"Feature","geometry":{"type":"Point","coordinates":[13.046944444444444,47.797777777777775]},"properties":{"id":"pmb292327","title":"Salzburger Dom","lat":"47.797777777777775","lon":"13.046944444444444","timestamp":["1921-09-06"],"importance":1,"wikipedia":"https://de.wikipedia.org/wiki/Salzburger_Dom","wikidata":"http://www.wikidata.org/entity/Q258908","geonames":"https://sws.geonames.org/6956631/","abbr":"S.CH","type":"Kirche"}}],"hierarchy":[{"id":"pmb45258","name":"München","children":[{"id":"pmb401","name":"Hotel Marienbad [München]","children":[]}]},{"id":"pmb30","name":"Salzburg","children":[{"id":"pmb190287","name":"Stift Sankt Peter","children":[]},{"id":"pmb230","name":"Österreichischer Hof","children":[]},{"id":"pmb180","name":"Schloss Mirabell","children":[]},{"id":"pmb477","name":"Hotel Traube","children":[]},{"id":"pmb297","name":"Kapuzinerberg","children":[{"id":"pmb252997","name":"Zauberflöten-Häuschen","children":[]}]},{"id":"pmb292327","name":"Salzburger Dom","children":[]}]}]}