{"type":"FeatureCollection","features":[{"type":"Feature","geometry":{"type":"LineString","coordinates":[[11.058008,47.599103],[11.1608,47.6908],[11.19297,47.682251],[11.200763,47.678343],[11.604186,48.151045],[11.581667,48.138889],[11.563915,48.13836],[11.567552,48.143964],[11.555,48.140833]]},"properties":{"name":"3. September 1921"}},{"type":"Feature","geometry":{"type":"Point","coordinates":[11.567552,48.143964]},"properties":{"id":"pmb401","title":"Hotel Marienbad [München]","lat":"48.143964","lon":"11.567552","timestamp":["1921-09-03"],"importance":1,"abbr":"Hotel (K.HTL)","type":"Hotel"}},{"type":"Feature","geometry":{"type":"Point","coordinates":[11.555,48.140833]},"properties":{"id":"pmb247583","title":"Hauptbahnhof München","lat":"48.140833","lon":"11.555","timestamp":["1921-09-03"],"importance":1,"wikipedia":"https://de.wikipedia.org/wiki/M%C3%BCnchen_Hauptbahnhof","wikidata":"http://www.wikidata.org/entity/Q254647","geonames":"https://sws.geonames.org/6324603/","abbr":"S.RSTN","type":"Bahnhof"}},{"type":"Feature","geometry":{"type":"Point","coordinates":[11.581667,48.138889]},"properties":{"id":"pmb485","title":"Hotel Vier Jahreszeiten","lat":"48.138889","lon":"11.581667","timestamp":["1921-09-03"],"importance":1,"wikipedia":"https://de.wikipedia.org/wiki/Hotel_Vier_Jahreszeiten_(M%C3%BCnchen)","wikidata":"http://www.wikidata.org/entity/Q1388047","abbr":"Hotel (K.HTL)","type":"Hotel"}},{"type":"Feature","geometry":{"type":"Point","coordinates":[11.604186,48.151045]},"properties":{"id":"pmb292354","title":"Mauerkircherstraße 24","lat":"48.151045","lon":"11.604186","timestamp":["1921-09-03"],"importance":1,"abbr":"Wohngebäude (K.WHS)","type":"Wohngebäude","wohnort":[{"p_name":"Lucy von Jacobi","p_id":"#11806"},{"p_name":"Olga Schnitzler","p_id":"#2173"}]}},{"type":"Feature","geometry":{"type":"Point","coordinates":[11.563915,48.13836]},"properties":{"id":"pmb292367","title":"Restaurant Schwarz","lat":"48.13836","lon":"11.563915","timestamp":["1921-09-03"],"importance":1,"abbr":"S.REST","type":"Restaurant"}},{"type":"Feature","geometry":{"type":"Point","coordinates":[11.058008,47.599103]},"properties":{"id":"pmb292423","title":"Bahnhofshotel [Oberammergau]","lat":"47.599103","lon":"11.058008","timestamp":["1921-09-03"],"importance":1,"abbr":"Hotel (K.HTL)","type":"Hotel"}},{"type":"Feature","geometry":{"type":"Point","coordinates":[11.19297,47.682251]},"properties":{"id":"pmb292428","title":"Bahnhof Murnau","lat":"47.682251","lon":"11.19297","timestamp":["1921-09-03"],"importance":1,"wikipedia":"https://de.wikipedia.org/wiki/Bahnhof_Murnau","wikidata":"http://www.wikidata.org/entity/Q15107232","abbr":"Bahnhofsgebäude (K.BHF)","type":"Bahnhofsgebäude"}},{"type":"Feature","geometry":{"type":"Point","coordinates":[11.200763,47.678343]},"properties":{"id":"pmb292434","title":"Hotel Post [Murnau am Staffelsee]","lat":"47.678343","lon":"11.200763","timestamp":["1921-09-03"],"importance":1,"abbr":"Hotel (K.HTL)","type":"Hotel"}},{"type":"Feature","geometry":{"type":"Point","coordinates":[11.1608,47.6908]},"properties":{"id":"pmb292431","title":"Staffelsee","lat":"47.6908","lon":"11.1608","timestamp":["1921-09-03"],"importance":1,"wikipedia":"https://de.wikipedia.org/wiki/Staffelsee","wikidata":"http://www.wikidata.org/entity/Q278982","geonames":"https://sws.geonames.org/2829702/","abbr":"H.LK","type":"See"}}],"hierarchy":[{"id":"pmb45258","name":"München","children":[{"id":"pmb401","name":"Hotel Marienbad [München]","children":[]},{"id":"pmb247583","name":"Hauptbahnhof München","children":[]},{"id":"pmb485","name":"Hotel Vier Jahreszeiten","children":[]},{"id":"pmb292354","name":"Mauerkircherstraße 24","children":[]},{"id":"pmb292367","name":"Restaurant Schwarz","children":[]}]},{"id":"pmb925","name":"Oberammergau","children":[{"id":"pmb292423","name":"Bahnhofshotel [Oberammergau]","children":[]}]},{"id":"pmb49953","name":"Murnau am Staffelsee","children":[{"id":"pmb292428","name":"Bahnhof Murnau","children":[]},{"id":"pmb292434","name":"Hotel Post [Murnau am Staffelsee]","children":[]}]},{"id":"pmb292431","name":"Staffelsee","children":[]}]}