{"type":"FeatureCollection","features":[{"type":"Feature","geometry":{"type":"LineString","coordinates":[[13.777236,47.634596],[13.79093,47.63761],[13.800792,47.643511],[13.7861,47.6417],[13.78428,47.64495],[13.77189,47.6417]]},"properties":{"name":"12. August 1921"}},{"type":"Feature","geometry":{"type":"Point","coordinates":[13.77189,47.6417]},"properties":{"id":"pmb106","title":"Hotel am See","lat":"47.6417","lon":"13.77189","timestamp":["1921-08-12"],"importance":1,"abbr":"Hotel (K.HTL)","type":"Hotel"}},{"type":"Feature","geometry":{"type":"Point","coordinates":[13.79093,47.63761]},"properties":{"id":"pmb291023","title":"Promenadenweg [Südufer]","lat":"47.63761","lon":"13.79093","timestamp":["1921-08-12"],"importance":1,"abbr":"Wanderweg (K.WND)","type":"Wanderweg"}},{"type":"Feature","geometry":{"type":"Point","coordinates":[13.800792,47.643511]},"properties":{"id":"pmb291021","title":"Promenadenweg [Ostufer]","lat":"47.643511","lon":"13.800792","timestamp":["1921-08-12"],"importance":1,"abbr":"Wanderweg (K.WND)","type":"Wanderweg"}},{"type":"Feature","geometry":{"type":"Point","coordinates":[13.78428,47.64495]},"properties":{"id":"pmb291026","title":"Promenadenweg [Nordufer]","lat":"47.64495","lon":"13.78428","timestamp":["1921-08-12"],"importance":1,"abbr":"Wanderweg (K.WND)","type":"Wanderweg"}},{"type":"Feature","geometry":{"type":"Point","coordinates":[13.777236,47.634596]},"properties":{"id":"pmb291374","title":"Strandbad Altaussee","lat":"47.634596","lon":"13.777236","timestamp":["1921-08-12"],"importance":1,"abbr":"Schwimmbad (K.BAD)","type":"Schwimmbad"}},{"type":"Feature","geometry":{"type":"Point","coordinates":[13.7861,47.6417]},"properties":{"id":"pmb264803","title":"Altausseer See","lat":"47.6417","lon":"13.7861","timestamp":["1921-08-12"],"importance":1,"wikipedia":"https://de.wikipedia.org/wiki/Altausseer_See","wikidata":"http://www.wikidata.org/entity/Q434688","geonames":"https://sws.geonames.org/2782723/","abbr":"H.LK","type":"See"}}],"hierarchy":[{"id":"pmb34401","name":"Altaussee","children":[{"id":"pmb106","name":"Hotel am See","children":[]},{"id":"pmb291023","name":"Promenadenweg [Südufer]","children":[]},{"id":"pmb291021","name":"Promenadenweg [Ostufer]","children":[]},{"id":"pmb291026","name":"Promenadenweg [Nordufer]","children":[]},{"id":"pmb291374","name":"Strandbad Altaussee","children":[]},{"id":"pmb291633","name":"?? [Unterkunft von Carry Benedikt, August 1921]","children":[]}]},{"id":"pmb264803","name":"Altausseer See","children":[]}]}