{"type":"FeatureCollection","features":[{"type":"Feature","geometry":{"type":"LineString","coordinates":[[13.77004,47.628445],[13.79093,47.63761],[13.800792,47.643511],[13.78428,47.64495],[13.77189,47.6417],[13.760194,47.64285]]},"properties":{"name":"7. August 1921"}},{"type":"Feature","geometry":{"type":"Point","coordinates":[13.77189,47.6417]},"properties":{"id":"pmb106","title":"Hotel am See","lat":"47.6417","lon":"13.77189","timestamp":["1921-08-07"],"importance":1,"abbr":"Hotel (K.HTL)","type":"Hotel"}},{"type":"Feature","geometry":{"type":"Point","coordinates":[13.78428,47.64495]},"properties":{"id":"pmb291026","title":"Promenadenweg [Nordufer]","lat":"47.64495","lon":"13.78428","timestamp":["1921-08-07"],"importance":1,"abbr":"Wanderweg (K.WND)","type":"Wanderweg"}},{"type":"Feature","geometry":{"type":"Point","coordinates":[13.800792,47.643511]},"properties":{"id":"pmb291021","title":"Promenadenweg [Ostufer]","lat":"47.643511","lon":"13.800792","timestamp":["1921-08-07"],"importance":1,"abbr":"Wanderweg (K.WND)","type":"Wanderweg"}},{"type":"Feature","geometry":{"type":"Point","coordinates":[13.79093,47.63761]},"properties":{"id":"pmb291023","title":"Promenadenweg [Südufer]","lat":"47.63761","lon":"13.79093","timestamp":["1921-08-07"],"importance":1,"abbr":"Wanderweg (K.WND)","type":"Wanderweg"}},{"type":"Feature","geometry":{"type":"Point","coordinates":[13.760194,47.64285]},"properties":{"id":"pmb290936","title":"Villa Gisela und Markus Hajek","lat":"47.64285","lon":"13.760194","timestamp":["1921-08-07"],"importance":1,"abbr":"Wohngebäude (K.WHS)","type":"Wohngebäude"}},{"type":"Feature","geometry":{"type":"Point","coordinates":[13.77004,47.628445]},"properties":{"id":"pmb290949","title":"Villa Schöneck","lat":"47.628445","lon":"13.77004","timestamp":["1921-08-07"],"importance":1,"abbr":"Wohngebäude (K.WHS)","type":"Wohngebäude"}}],"hierarchy":[{"id":"pmb34401","name":"Altaussee","children":[{"id":"pmb106","name":"Hotel am See","children":[]},{"id":"pmb291026","name":"Promenadenweg [Nordufer]","children":[]},{"id":"pmb291021","name":"Promenadenweg [Ostufer]","children":[]},{"id":"pmb291023","name":"Promenadenweg [Südufer]","children":[]},{"id":"pmb290936","name":"Villa Gisela und Markus Hajek","children":[]},{"id":"pmb290949","name":"Villa Schöneck","children":[]}]}]}