{"type":"FeatureCollection","features":[{"type":"Feature","geometry":{"type":"LineString","coordinates":[[11.34367,47.995963],[11.31038,47.95947],[11.31187,47.90348],[11.57805,48.1302],[11.581667,48.138889],[11.582778,48.142222],[11.571111,48.148333],[11.555,48.140833],[11.553336,48.145952]]},"properties":{"name":"23. Juni 1921"}},{"type":"Feature","geometry":{"type":"Point","coordinates":[11.581667,48.138889]},"properties":{"id":"pmb485","title":"Hotel Vier Jahreszeiten","lat":"48.138889","lon":"11.581667","timestamp":["1921-06-23"],"importance":1,"wikipedia":"https://de.wikipedia.org/wiki/Hotel_Vier_Jahreszeiten_(M%C3%BCnchen)","wikidata":"http://www.wikidata.org/entity/Q1388047","abbr":"Hotel (K.HTL)","type":"Hotel"}},{"type":"Feature","geometry":{"type":"Point","coordinates":[11.553336,48.145952]},"properties":{"id":"pmb186796","title":"Spatenbräu","lat":"48.145952","lon":"11.553336","timestamp":["1921-06-23"],"importance":1,"wikipedia":"https://de.wikipedia.org/wiki/Spatenbr%C3%A4u","wikidata":"http://www.wikidata.org/entity/Q874166","abbr":"Bierhaus (K.BIR)","type":"Bierhaus"}},{"type":"Feature","geometry":{"type":"Point","coordinates":[11.571111,48.148333]},"properties":{"id":"pmb511","title":"Alte Pinakothek","lat":"48.148333","lon":"11.571111","timestamp":["1921-06-23"],"importance":1,"wikipedia":"https://de.wikipedia.org/wiki/Alte_Pinakothek","wikidata":"http://www.wikidata.org/entity/Q154568","abbr":"Museum (K.MUS)","type":"Museum"}},{"type":"Feature","geometry":{"type":"Point","coordinates":[11.555,48.140833]},"properties":{"id":"pmb247583","title":"Hauptbahnhof München","lat":"48.140833","lon":"11.555","timestamp":["1921-06-23"],"importance":1,"wikipedia":"https://de.wikipedia.org/wiki/M%C3%BCnchen_Hauptbahnhof","wikidata":"http://www.wikidata.org/entity/Q254647","geonames":"https://sws.geonames.org/6324603/","abbr":"S.RSTN","type":"Bahnhof"}},{"type":"Feature","geometry":{"type":"Point","coordinates":[11.582778,48.142222]},"properties":{"id":"pmb256574","title":"Bayerisches Armeemuseum","lat":"48.142222","lon":"11.582778","timestamp":["1921-06-23"],"importance":1,"wikipedia":"https://de.wikipedia.org/wiki/Bayerisches_Armeemuseum","wikidata":"http://www.wikidata.org/entity/Q812396","abbr":"Museum (K.MUS)","type":"Museum"}},{"type":"Feature","geometry":{"type":"Point","coordinates":[11.57805,48.1302]},"properties":{"id":"pmb293031","title":"Alt Wien, Gasthaus zum Kaiser Friedrich","lat":"48.1302","lon":"11.57805","timestamp":["1921-06-23"],"importance":1,"abbr":"Gastgewerbegebäude (K.GGW)","type":"Gastgewerbegebäude"}},{"type":"Feature","geometry":{"type":"Point","coordinates":[11.31038,47.95947]},"properties":{"id":"pmb34896","title":"Possenhofen","lat":"47.95947","lon":"11.31038","timestamp":["1921-06-23"],"importance":1,"wikipedia":"https://de.wikipedia.org/wiki/Possenhofen","wikidata":"http://www.wikidata.org/entity/Q559986","geonames":"https://sws.geonames.org/2852520/","abbr":"P.PPL","type":"Besiedelter Ort"}},{"type":"Feature","geometry":{"type":"Point","coordinates":[11.31187,47.90348]},"properties":{"id":"pmb52262","title":"Starnberger See","lat":"47.90348","lon":"11.31187","timestamp":["1921-06-23"],"importance":1,"wikipedia":"https://de.wikipedia.org/wiki/Starnberger_See","wikidata":"http://www.wikidata.org/entity/Q131615","geonames":"https://sws.geonames.org/2829454/","abbr":"H.LK","type":"See"}},{"type":"Feature","geometry":{"type":"Point","coordinates":[11.34367,47.995963]},"properties":{"id":"pmb256572","title":"Bahnhof Starnberg","lat":"47.995963","lon":"11.34367","timestamp":["1921-06-23"],"importance":1,"wikipedia":"https://de.wikipedia.org/wiki/Bahnhof_Starnberg","wikidata":"http://www.wikidata.org/entity/Q41258362","abbr":"Bahnhofsgebäude (K.BHF)","type":"Bahnhofsgebäude"}}],"hierarchy":[{"id":"pmb45258","name":"München","children":[{"id":"pmb485","name":"Hotel Vier Jahreszeiten","children":[]},{"id":"pmb186796","name":"Spatenbräu","children":[]},{"id":"pmb511","name":"Alte Pinakothek","children":[]},{"id":"pmb247583","name":"Hauptbahnhof München","children":[]},{"id":"pmb256574","name":"Bayerisches Armeemuseum","children":[]},{"id":"pmb293031","name":"Alt Wien, Gasthaus zum Kaiser Friedrich","children":[]}]},{"id":"pmb34896","name":"Possenhofen","children":[]},{"id":"pmb52262","name":"Starnberger See","children":[]},{"id":"pmb40951","name":"Starnberg","children":[{"id":"pmb256572","name":"Bahnhof Starnberg","children":[]}]}]}