{"type":"FeatureCollection","features":[{"type":"Feature","geometry":{"type":"LineString","coordinates":[[12.93717,47.61935],[12.927684,47.61388],[12.946273,47.61339],[12.939094,47.609078],[13.0012152,47.6306026],[13.00757,47.63496]]},"properties":{"name":"20. August 1922"}},{"type":"Feature","geometry":{"type":"Point","coordinates":[13.00757,47.63496]},"properties":{"id":"pmb289742","title":"Hotel Bellevue [Berchtesgaden]","lat":"47.63496","lon":"13.00757","timestamp":["1922-08-20"],"importance":1,"abbr":"Hotel (K.HTL)","type":"Hotel"}},{"type":"Feature","geometry":{"type":"Point","coordinates":[12.927684,47.61388]},"properties":{"id":"pmb92537","title":"Soleleitungsweg","lat":"47.61388","lon":"12.927684","timestamp":["1922-08-20"],"importance":1,"abbr":"Wanderweg (K.WND)","type":"Wanderweg"}},{"type":"Feature","geometry":{"type":"Point","coordinates":[12.939094,47.609078]},"properties":{"id":"pmb263501","title":"Triftweg","lat":"47.609078","lon":"12.939094","timestamp":["1922-08-20"],"importance":1,"abbr":"Wanderweg (K.WND)","type":"Wanderweg"}},{"type":"Feature","geometry":{"type":"Point","coordinates":[13.0012152,47.6306026]},"properties":{"id":"pmb263504","title":"Hotel »Deutsches Haus«","lat":"47.6306026","lon":"13.0012152","timestamp":["1922-08-20"],"importance":1,"abbr":"Hotel (K.HTL)","type":"Hotel"}},{"type":"Feature","geometry":{"type":"Point","coordinates":[12.946273,47.61339]},"properties":{"id":"pmb92299","title":"Ilsank","lat":"47.61339","lon":"12.946273","timestamp":["1922-08-20"],"importance":1,"wikipedia":"https://de.wikipedia.org/wiki/Ilsank","wikidata":"http://www.wikidata.org/entity/Q1659070","abbr":"Besiedelter Ort (A.BSO)","type":"Besiedelter Ort"}},{"type":"Feature","geometry":{"type":"Point","coordinates":[12.93717,47.61935]},"properties":{"id":"pmb263498","title":"Söldenköpfl","lat":"47.61935","lon":"12.93717","timestamp":["1922-08-20"],"importance":1,"wikidata":"http://www.wikidata.org/entity/Q41274546","abbr":"Lokal (K.LKL)","type":"Lokal"}}],"hierarchy":[{"id":"pmb797","name":"Berchtesgaden","children":[{"id":"pmb289742","name":"Hotel Bellevue [Berchtesgaden]","children":[]},{"id":"pmb92537","name":"Soleleitungsweg","children":[]},{"id":"pmb263501","name":"Triftweg","children":[]},{"id":"pmb263504","name":"Hotel »Deutsches Haus«","children":[]}]},{"id":"pmb263493","name":"Bischofswiesen","children":[{"id":"pmb92299","name":"Ilsank","children":[]},{"id":"pmb263498","name":"Söldenköpfl","children":[]}]}]}