{"type":"FeatureCollection","features":[{"type":"Feature","geometry":{"type":"LineString","coordinates":[[11.2923,47.7921],[11.30413,47.78558],[11.31187,47.90348],[11.31038,47.95947],[11.298363683529006,47.94933649585533]]},"properties":{"name":"31. Juli 1922"}},{"type":"Feature","geometry":{"type":"Point","coordinates":[11.298363683529006,47.94933649585533]},"properties":{"id":"pmb53152","title":"Hotel Kaiserin Elisabeth [Feldafing]","lat":"47.94933649585533","lon":"11.298363683529006","timestamp":["1922-07-31"],"importance":1,"abbr":"Hotel (K.HTL)","type":"Hotel"}},{"type":"Feature","geometry":{"type":"Point","coordinates":[11.2923,47.7921]},"properties":{"id":"pmb289436","title":"Lauterbacher Mühle","lat":"47.7921","lon":"11.2923","timestamp":["1922-07-31"],"importance":1,"abbr":"Krankenhaus (K.KKH)","type":"Krankenhaus"}},{"type":"Feature","geometry":{"type":"Point","coordinates":[11.31038,47.95947]},"properties":{"id":"pmb34896","title":"Possenhofen","lat":"47.95947","lon":"11.31038","timestamp":["1922-07-31"],"importance":1,"wikipedia":"https://de.wikipedia.org/wiki/Possenhofen","wikidata":"http://www.wikidata.org/entity/Q559986","geonames":"https://sws.geonames.org/2852520/","abbr":"P.PPL","type":"Besiedelter Ort"}},{"type":"Feature","geometry":{"type":"Point","coordinates":[11.31187,47.90348]},"properties":{"id":"pmb52262","title":"Starnberger See","lat":"47.90348","lon":"11.31187","timestamp":["1922-07-31"],"importance":1,"wikipedia":"https://de.wikipedia.org/wiki/Starnberger_See","wikidata":"http://www.wikidata.org/entity/Q131615","geonames":"https://sws.geonames.org/2829454/","abbr":"H.LK","type":"See"}},{"type":"Feature","geometry":{"type":"Point","coordinates":[11.30413,47.78558]},"properties":{"id":"pmb91419","title":"Ostersee","lat":"47.78558","lon":"11.30413","timestamp":["1922-07-31"],"importance":1,"geonames":"https://sws.geonames.org/2856383/","abbr":"H.LK","type":"See"}}],"hierarchy":[{"id":"pmb53150","name":"Feldafing","children":[{"id":"pmb53152","name":"Hotel Kaiserin Elisabeth [Feldafing]","children":[]}]},{"id":"pmb91725","name":"Seeshaupt","children":[{"id":"pmb289436","name":"Lauterbacher Mühle","children":[]}]},{"id":"pmb34896","name":"Possenhofen","children":[]},{"id":"pmb52262","name":"Starnberger See","children":[]},{"id":"pmb91419","name":"Ostersee","children":[]}]}