{"type":"FeatureCollection","features":[{"type":"Feature","geometry":{"type":"LineString","coordinates":[[13.34635,52.49755],[13.374444,52.51],[13.392222,52.513611],[13.38853,52.51449],[13.389167,52.517222],[13.394722222222,52.521944444444],[13.207159,52.547798]]},"properties":{"name":"11. Mai 1922"}},{"type":"Feature","geometry":{"type":"Point","coordinates":[13.374444,52.51]},"properties":{"id":"pmb245","title":"Hotel Esplanade [Berlin]","lat":"52.51","lon":"13.374444","timestamp":["1922-05-11"],"importance":1,"wikipedia":"https://de.wikipedia.org/wiki/Hotel_Esplanade_(Berlin)","wikidata":"http://www.wikidata.org/entity/Q321562","abbr":"Hotel (K.HTL)","type":"Hotel"}},{"type":"Feature","geometry":{"type":"Point","coordinates":[13.392222,52.513611]},"properties":{"id":"pmb784","title":"Schauspielhaus Berlin","lat":"52.513611","lon":"13.392222","timestamp":["1922-05-11"],"importance":1,"wikipedia":"https://de.wikipedia.org/wiki/Schauspielhaus_(Berlin)","wikidata":"http://www.wikidata.org/entity/Q702548","abbr":"Theater (K.THE)","type":"Theater","arbeitsort":[{"p_name":"Albert Patry","p_id":"#9198"}]}},{"type":"Feature","geometry":{"type":"Point","coordinates":[13.394722222222,52.521944444444]},"properties":{"id":"pmb249719","title":"Bode-Museum","lat":"52.521944444444","lon":"13.394722222222","timestamp":["1922-05-11"],"importance":1,"wikipedia":"https://de.wikipedia.org/wiki/Bode-Museum","wikidata":"http://www.wikidata.org/entity/Q157825","geonames":"https://sws.geonames.org/7911195/","abbr":"S.MUS","type":"Museum"}},{"type":"Feature","geometry":{"type":"Point","coordinates":[13.34635,52.49755]},"properties":{"id":"pmb235925","title":"Horcher","lat":"52.49755","lon":"13.34635","timestamp":["1922-05-11"],"importance":1,"wikipedia":"https://de.wikipedia.org/wiki/Horcher_(Berlin)","wikidata":"http://www.wikidata.org/entity/Q1628048","abbr":"Gastgewerbegebäude (K.GGW)","type":"Gastgewerbegebäude"}},{"type":"Feature","geometry":{"type":"Point","coordinates":[13.207159,52.547798]},"properties":{"id":"pmb92383","title":"Lutherstraße","lat":"52.547798","lon":"13.207159","timestamp":["1922-05-11"],"importance":1,"abbr":"Straße (K.STR)","type":"Straße","wohnort":[{"p_name":"Philipp Stein","p_id":"#10007"}]}},{"type":"Feature","geometry":{"type":"Point","coordinates":[13.389167,52.517222]},"properties":{"id":"pmb208","title":"Kleines Theater","lat":"52.517222","lon":"13.389167","timestamp":["1922-05-11"],"importance":1,"abbr":"Theater (K.THE)","type":"Theater"}},{"type":"Feature","geometry":{"type":"Point","coordinates":[13.38853,52.51449]},"properties":{"id":"pmb247","title":"Restaurant Stallmann","lat":"52.51449","lon":"13.38853","timestamp":["1922-05-11"],"importance":1,"abbr":"S.REST","type":"Restaurant"}}],"hierarchy":[{"id":"pmb168","name":"Berlin","children":[{"id":"pmb245","name":"Hotel Esplanade [Berlin]","children":[]},{"id":"pmb784","name":"Schauspielhaus Berlin","children":[]},{"id":"pmb249719","name":"Bode-Museum","children":[]},{"id":"pmb235925","name":"Horcher","children":[]},{"id":"pmb92383","name":"Lutherstraße","children":[]},{"id":"pmb208","name":"Kleines Theater","children":[]},{"id":"pmb247","name":"Restaurant Stallmann","children":[]}]}]}