{"type":"FeatureCollection","features":[{"type":"Feature","geometry":{"type":"LineString","coordinates":[[13.36042,52.498402],[13.36234,52.498388],[13.387328,52.500042],[13.38853,52.51449],[13.374444,52.51]]},"properties":{"name":"9. Mai 1922"}},{"type":"Feature","geometry":{"type":"Point","coordinates":[13.387328,52.500042]},"properties":{"id":"pmb13","title":"Hebbel-Theater","lat":"52.500042","lon":"13.387328","timestamp":["1922-05-09"],"importance":1,"wikipedia":"https://de.wikipedia.org/wiki/Hebbel-Theater","wikidata":"http://www.wikidata.org/entity/Q1592692","abbr":"Theater (K.THE)","type":"Theater","arbeitsort":[{"p_name":"Rudolf Bernauer","p_id":"#10896"},{"p_name":"Carl Meinhard","p_id":"#8889"}]}},{"type":"Feature","geometry":{"type":"Point","coordinates":[13.374444,52.51]},"properties":{"id":"pmb245","title":"Hotel Esplanade [Berlin]","lat":"52.51","lon":"13.374444","timestamp":["1922-05-09"],"importance":1,"wikipedia":"https://de.wikipedia.org/wiki/Hotel_Esplanade_(Berlin)","wikidata":"http://www.wikidata.org/entity/Q321562","abbr":"Hotel (K.HTL)","type":"Hotel"}},{"type":"Feature","geometry":{"type":"Point","coordinates":[13.36042,52.498402]},"properties":{"id":"pmb235295","title":"S. Fischer Verlag","lat":"52.498402","lon":"13.36042","timestamp":["1922-05-09"],"importance":1,"abbr":"Bürogebäude (K.BUR)","type":"Bürogebäude","arbeitsort":[{"p_name":"Samuel Fischer","p_id":"#11324"}]}},{"type":"Feature","geometry":{"type":"Point","coordinates":[13.36234,52.498388]},"properties":{"id":"pmb265165","title":"Potsdamer Straße 123","lat":"52.498388","lon":"13.36234","timestamp":["1922-05-09"],"importance":1,"abbr":"Wohngebäude (K.WHS)","type":"Wohngebäude","wohnort":[{"p_name":"Dora Michaelis","p_id":"#2774"},{"p_name":"Karl Michaelis","p_id":"#3064"}]}},{"type":"Feature","geometry":{"type":"Point","coordinates":[13.38853,52.51449]},"properties":{"id":"pmb247","title":"Restaurant Stallmann","lat":"52.51449","lon":"13.38853","timestamp":["1922-05-09"],"importance":1,"abbr":"S.REST","type":"Restaurant"}}],"hierarchy":[{"id":"pmb168","name":"Berlin","children":[{"id":"pmb13","name":"Hebbel-Theater","children":[]},{"id":"pmb245","name":"Hotel Esplanade [Berlin]","children":[]},{"id":"pmb235295","name":"S. Fischer Verlag","children":[]},{"id":"pmb265165","name":"Potsdamer Straße 123","children":[]},{"id":"pmb247","name":"Restaurant Stallmann","children":[]}]}]}