{"type":"FeatureCollection","features":[{"type":"Feature","geometry":{"type":"LineString","coordinates":[[15.43772,47.07215],[15.43729,47.07183],[15.4379,47.0698],[15.441599,47.067966],[15.479915,47.088633],[15.460869,47.084328],[15.43778,47.07673]]},"properties":{"name":"9. Juni 1922"}},{"type":"Feature","geometry":{"type":"Point","coordinates":[15.43729,47.07183]},"properties":{"id":"pmb288767","title":"Palais-Hotel Erzherzog-Johann","lat":"47.07183","lon":"15.43729","timestamp":["1922-06-09"],"importance":1,"abbr":"Hotel (K.HTL)","type":"Hotel"}},{"type":"Feature","geometry":{"type":"Point","coordinates":[15.441599,47.067966]},"properties":{"id":"pmb169420","title":"Café Kaiserhof [Graz]","lat":"47.067966","lon":"15.441599","timestamp":["1922-06-09"],"importance":1,"abbr":"Kaffeehaus (K.KAF)","type":"Kaffeehaus"}},{"type":"Feature","geometry":{"type":"Point","coordinates":[15.460869,47.084328]},"properties":{"id":"pmb192816","title":"Hilmteich","lat":"47.084328","lon":"15.460869","timestamp":["1922-06-09"],"importance":1,"wikipedia":"https://de.wikipedia.org/wiki/Hilmteich","wikidata":"http://www.wikidata.org/entity/Q42304048","abbr":"See (N.SEE)","type":"See"}},{"type":"Feature","geometry":{"type":"Point","coordinates":[15.43778,47.07673]},"properties":{"id":"pmb91689","title":"Schlossberg","lat":"47.07673","lon":"15.43778","timestamp":["1922-06-09"],"importance":1,"geonames":"https://sws.geonames.org/6691953/","abbr":"T.HLL","type":"Hügel"}},{"type":"Feature","geometry":{"type":"Point","coordinates":[15.4379,47.0698]},"properties":{"id":"pmb183437","title":"Stefaniensaal","lat":"47.0698","lon":"15.4379","timestamp":["1922-06-09"],"importance":1,"wikipedia":"https://de.wikipedia.org/wiki/Stefaniensaal","wikidata":"http://www.wikidata.org/entity/Q2801827","abbr":"Veranstaltungsgebäude (K.VSB)","type":"Veranstaltungsgebäude"}},{"type":"Feature","geometry":{"type":"Point","coordinates":[15.43772,47.07215]},"properties":{"id":"pmb288770","title":"Buchhandlung Kienreich","lat":"47.07215","lon":"15.43772","timestamp":["1922-06-09"],"importance":1,"abbr":"Buchhandlung (K.BHL)","type":"Buchhandlung"}},{"type":"Feature","geometry":{"type":"Point","coordinates":[15.479915,47.088633]},"properties":{"id":"pmb92551","title":"Stifting","lat":"47.088633","lon":"15.479915","timestamp":["1922-06-09"],"importance":1,"wikipedia":"https://de.wikipedia.org/wiki/Stifting_(Graz)","wikidata":"http://www.wikidata.org/entity/Q18413254","abbr":"Besiedelter Ort (A.BSO)","type":"Besiedelter Ort"}}],"hierarchy":[{"id":"pmb860","name":"Graz","children":[{"id":"pmb288767","name":"Palais-Hotel Erzherzog-Johann","children":[]},{"id":"pmb169420","name":"Café Kaiserhof [Graz]","children":[]},{"id":"pmb192816","name":"Hilmteich","children":[]},{"id":"pmb91689","name":"Schlossberg","children":[]},{"id":"pmb183437","name":"Stefaniensaal","children":[]},{"id":"pmb288770","name":"Buchhandlung Kienreich","children":[]}]},{"id":"pmb92551","name":"Stifting","children":[]}]}