{"type":"FeatureCollection","features":[{"type":"Feature","geometry":{"type":"LineString","coordinates":[[18.07079,59.33304],[18.07583,59.33077],[18.075555555556,59.329722222222],[18.085302,59.337024],[18.08137,59.34147]]},"properties":{"name":"18. Mai 1923"}},{"type":"Feature","geometry":{"type":"Point","coordinates":[18.08137,59.34147]},"properties":{"id":"pmb265500","title":"Östermalmsgatan 69","lat":"59.34147","lon":"18.08137","timestamp":["1923-05-18"],"importance":1,"abbr":"Wohngebäude (K.WHS)","type":"Wohngebäude","wohnort":[{"p_name":"Walter Singer","p_id":"#24992"}]}},{"type":"Feature","geometry":{"type":"Point","coordinates":[18.07079,59.33304]},"properties":{"id":"pmb265505","title":"Nordiska Kompaniet","lat":"59.33304","lon":"18.07079","timestamp":["1923-05-18"],"importance":1,"wikipedia":"https://de.wikipedia.org/wiki/Nordiska_Kompaniet","wikidata":"http://www.wikidata.org/entity/Q1998385","abbr":"Einkaufszentrum","type":""}},{"type":"Feature","geometry":{"type":"Point","coordinates":[18.085302,59.337024]},"properties":{"id":"pmb92532","title":"Skepparegatan","lat":"59.337024","lon":"18.085302","timestamp":["1923-05-18"],"importance":1,"wikidata":"http://www.wikidata.org/entity/Q18332589","abbr":"Straße (K.STR)","type":"Straße","wohnort":[{"p_name":"Dorothea Kohnberger","p_id":"#19509"}]}},{"type":"Feature","geometry":{"type":"Point","coordinates":[18.075555555556,59.329722222222]},"properties":{"id":"pmb266204","title":"Grand Hôtel Stockholm","lat":"59.329722222222","lon":"18.075555555556","timestamp":["1923-05-18"],"importance":1,"wikipedia":"https://de.wikipedia.org/wiki/Grand_H%C3%B4tel_Stockholm","wikidata":"http://www.wikidata.org/entity/Q1221513","abbr":"Hotel (K.HTL)","type":"Hotel"}},{"type":"Feature","geometry":{"type":"Point","coordinates":[18.07583,59.33077]},"properties":{"id":"pmb266201","title":"Kungliga Musikaliska Akademien","lat":"59.33077","lon":"18.07583","timestamp":["1923-05-18"],"importance":1,"abbr":"Gebäude (K.GBD)","type":"Gebäude"}}],"hierarchy":[{"id":"pmb1119","name":"Stockholm","children":[{"id":"pmb265500","name":"Östermalmsgatan 69","children":[]},{"id":"pmb265505","name":"Nordiska Kompaniet","children":[]},{"id":"pmb92532","name":"Skepparegatan","children":[]},{"id":"pmb266204","name":"Grand Hôtel Stockholm","children":[]},{"id":"pmb266201","name":"Kungliga Musikaliska Akademien","children":[]}]}]}