{"type":"FeatureCollection","features":[{"type":"Feature","geometry":{"type":"LineString","coordinates":[[13.329784,52.504678],[13.36234,52.498388],[13.3772,52.5087],[13.39333,52.51483],[13.318595,52.51421]]},"properties":{"name":"8. Mai 1923"}},{"type":"Feature","geometry":{"type":"Point","coordinates":[13.318595,52.51421]},"properties":{"id":"pmb1058","title":"Tribüne","lat":"52.51421","lon":"13.318595","timestamp":["1923-05-08"],"importance":1,"wikipedia":"https://de.wikipedia.org/wiki/Trib%C3%BCne_(Theater)","wikidata":"http://www.wikidata.org/entity/Q2452572","abbr":"Theater (K.THE)","type":"Theater"}},{"type":"Feature","geometry":{"type":"Point","coordinates":[13.3772,52.5087]},"properties":{"id":"pmb246994","title":"Hotel Fürstenhof [Berlin]","lat":"52.5087","lon":"13.3772","timestamp":["1923-05-08"],"importance":1,"wikipedia":"https://de.wikipedia.org/wiki/Hotel_F%C3%BCrstenhof_(Berlin)","wikidata":"http://www.wikidata.org/entity/Q1630898","abbr":"Hotel (K.HTL)","type":"Hotel"}},{"type":"Feature","geometry":{"type":"Point","coordinates":[13.36234,52.498388]},"properties":{"id":"pmb265165","title":"Potsdamer Straße 123","lat":"52.498388","lon":"13.36234","timestamp":["1923-05-08"],"importance":1,"abbr":"Wohngebäude (K.WHS)","type":"Wohngebäude","wohnort":[{"p_name":"Dora Michaelis","p_id":"#2774"},{"p_name":"Karl Michaelis","p_id":"#3064"}]}},{"type":"Feature","geometry":{"type":"Point","coordinates":[13.39333,52.51483]},"properties":{"id":"pmb493","title":"Bank für Auswärtigen Handel","lat":"52.51483","lon":"13.39333","timestamp":["1923-05-08"],"importance":1,"abbr":"Bank (K.BNK)","type":"Bank","arbeitsort":[{"p_name":"Franz Karl Feilchenfeld","p_id":"#16125"}]}},{"type":"Feature","geometry":{"type":"Point","coordinates":[13.329784,52.504678]},"properties":{"id":"pmb265171","title":"Weinhaus Brechler","lat":"52.504678","lon":"13.329784","timestamp":["1923-05-08"],"importance":1,"abbr":"Lokal (K.LKL)","type":"Lokal"}}],"hierarchy":[{"id":"pmb168","name":"Berlin","children":[{"id":"pmb1058","name":"Tribüne","children":[]},{"id":"pmb246994","name":"Hotel Fürstenhof [Berlin]","children":[]},{"id":"pmb265165","name":"Potsdamer Straße 123","children":[]},{"id":"pmb493","name":"Bank für Auswärtigen Handel","children":[]},{"id":"pmb265171","name":"Weinhaus Brechler","children":[]}]}]}