{"type":"FeatureCollection","features":[{"type":"Feature","geometry":{"type":"LineString","coordinates":[[8.94587,45.99506],[8.946726,46.002723],[8.9499,46.00219],[8.95046,46.00285],[8.30899,47.050286]]},"properties":{"name":"27. August 1924"}},{"type":"Feature","geometry":{"type":"Point","coordinates":[8.30899,47.050286]},"properties":{"id":"pmb200956","title":"Hotel St. Gotthard Luzern","lat":"47.050286","lon":"8.30899","timestamp":["1924-08-27"],"importance":1,"wikidata":"http://www.wikidata.org/entity/Q130712387","abbr":"Hotel (K.HTL)","type":"Hotel"}},{"type":"Feature","geometry":{"type":"Point","coordinates":[8.94587,45.99506]},"properties":{"id":"pmb263315","title":"Splendide Royal","lat":"45.99506","lon":"8.94587","timestamp":["1924-08-27"],"importance":1,"abbr":"Hotel (K.HTL)","type":"Hotel"}},{"type":"Feature","geometry":{"type":"Point","coordinates":[8.946726,46.002723]},"properties":{"id":"pmb513","title":"Hôtel du Parc","lat":"46.002723","lon":"8.946726","timestamp":["1924-08-27"],"importance":1,"abbr":"Hotel (K.HTL)","type":"Hotel"}},{"type":"Feature","geometry":{"type":"Point","coordinates":[8.95046,46.00285]},"properties":{"id":"pmb263319","title":"Hotel Walter Au Lac","lat":"46.00285","lon":"8.95046","timestamp":["1924-08-27"],"importance":1,"abbr":"Hotel (K.HTL)","type":"Hotel"}},{"type":"Feature","geometry":{"type":"Point","coordinates":[8.9499,46.00219]},"properties":{"id":"pmb263322","title":"Caffè Riviera","lat":"46.00219","lon":"8.9499","timestamp":["1924-08-27"],"importance":1,"abbr":"Kaffeehaus (K.KAF)","type":"Kaffeehaus"}}],"hierarchy":[{"id":"pmb967","name":"Luzern","children":[{"id":"pmb200956","name":"Hotel St. Gotthard Luzern","children":[]}]},{"id":"pmb885","name":"Lugano","children":[{"id":"pmb263315","name":"Splendide Royal","children":[]},{"id":"pmb513","name":"Hôtel du Parc","children":[]},{"id":"pmb263319","name":"Hotel Walter Au Lac","children":[]},{"id":"pmb263322","name":"Caffè Riviera","children":[]}]}]}