{"type":"FeatureCollection","features":[{"type":"Feature","geometry":{"type":"LineString","coordinates":[[11.35552,46.49817],[11.46552,46.53861],[11.434,46.54],[11.407963,46.528441],[11.40596,46.52787]]},"properties":{"name":"30. Juni 1925"}},{"type":"Feature","geometry":{"type":"Point","coordinates":[11.35552,46.49817]},"properties":{"id":"pmb233170","title":"Hotel Greif","lat":"46.49817","lon":"11.35552","timestamp":["1925-06-30"],"importance":1,"wikidata":"http://www.wikidata.org/entity/Q111413166","abbr":"Hotel (K.HTL)","type":"Hotel"}},{"type":"Feature","geometry":{"type":"Point","coordinates":[11.407963,46.528441]},"properties":{"id":"pmb254401","title":"Rittner Bahn","lat":"46.528441","lon":"11.407963","timestamp":["1925-06-30"],"importance":1,"wikipedia":"https://de.wikipedia.org/wiki/Rittner_Bahn","wikidata":"http://www.wikidata.org/entity/Q2155318","abbr":"Bahn","type":"Bahn"}},{"type":"Feature","geometry":{"type":"Point","coordinates":[11.434,46.54]},"properties":{"id":"pmb65723","title":"Renon","lat":"46.54","lon":"11.434","timestamp":["1925-06-30"],"importance":1,"wikipedia":"https://de.wikipedia.org/wiki/Klobenstein_(Ritten)","wikidata":"http://www.wikidata.org/entity/Q987465","geonames":"https://sws.geonames.org/6534786/","abbr":"P.PPLA3","type":"Hauptstadt"}},{"type":"Feature","geometry":{"type":"Point","coordinates":[11.46552,46.53861]},"properties":{"id":"pmb50822","title":"Klobenstein","lat":"46.53861","lon":"11.46552","timestamp":["1925-06-30"],"importance":1,"geonames":"https://sws.geonames.org/6621593/","abbr":"P.PPL","type":"Besiedelter Ort"}},{"type":"Feature","geometry":{"type":"Point","coordinates":[11.40596,46.52787]},"properties":{"id":"pmb248210","title":"Hotel Holzner","lat":"46.52787","lon":"11.40596","timestamp":["1925-06-30"],"importance":1,"abbr":"Hotel (K.HTL)","type":"Hotel"}}],"hierarchy":[{"id":"pmb40260","name":"Bozen","children":[{"id":"pmb233170","name":"Hotel Greif","children":[]},{"id":"pmb254401","name":"Rittner Bahn","children":[]}]},{"id":"pmb65723","name":"Renon","children":[]},{"id":"pmb50822","name":"Klobenstein","children":[]},{"id":"pmb246114","name":"Oberbozen","children":[{"id":"pmb248210","name":"Hotel Holzner","children":[]}]}]}