{"type":"FeatureCollection","features":[{"type":"Feature","geometry":{"type":"LineString","coordinates":[[8.94439,44.40478],[10.233333,43.866667],[10.173758622210785,43.95291802957647],[9.203988,45.485658],[9.192341,45.465893]]},"properties":{"name":"8. September 1925"}},{"type":"Feature","geometry":{"type":"Point","coordinates":[9.192341,45.465893]},"properties":{"id":"pmb254529","title":"Hotel de la Ville [Mailand]","lat":"45.465893","lon":"9.192341","timestamp":["1925-09-08"],"importance":1,"abbr":"Hotel (K.HTL)","type":"Hotel"}},{"type":"Feature","geometry":{"type":"Point","coordinates":[9.203988,45.485658]},"properties":{"id":"pmb254937","title":"Bahnhof Milano Centrale","lat":"45.485658","lon":"9.203988","timestamp":["1925-09-08"],"importance":1,"wikipedia":"https://de.wikipedia.org/wiki/Bahnhof_Milano_Centrale","wikidata":"http://www.wikidata.org/entity/Q801193","geonames":"https://sws.geonames.org/3173433/","abbr":"S.RSTN","type":"Bahnhof"}},{"type":"Feature","geometry":{"type":"Point","coordinates":[8.94439,44.40478]},"properties":{"id":"pmb994","title":"Genua","lat":"44.40478","lon":"8.94439","timestamp":["1925-09-08"],"importance":1,"wikipedia":"https://de.wikipedia.org/wiki/Genua","wikidata":"http://www.wikidata.org/entity/Q1449","geonames":"https://sws.geonames.org/6542282/","abbr":"P.PPLA","type":"Besiedelter Ort"}},{"type":"Feature","geometry":{"type":"Point","coordinates":[10.173758622210785,43.95291802957647]},"properties":{"id":"pmb52716","title":"Grand Hotel Forte dei Marmi","lat":"43.95291802957647","lon":"10.173758622210785","timestamp":["1925-09-08"],"importance":1,"abbr":"Hotel (K.HTL)","type":"Hotel"}},{"type":"Feature","geometry":{"type":"Point","coordinates":[10.233333,43.866667]},"properties":{"id":"pmb1174","title":"Viareggio","lat":"43.866667","lon":"10.233333","timestamp":["1925-09-08"],"importance":1,"wikipedia":"https://de.wikipedia.org/wiki/Viareggio","wikidata":"http://www.wikidata.org/entity/Q221377","geonames":"https://sws.geonames.org/3164433/","abbr":"P.PPLA3","type":"Hauptstadt"}}],"hierarchy":[{"id":"pmb886","name":"Mailand","children":[{"id":"pmb254529","name":"Hotel de la Ville [Mailand]","children":[]},{"id":"pmb254937","name":"Bahnhof Milano Centrale","children":[]}]},{"id":"pmb994","name":"Genua","children":[]},{"id":"pmb44248","name":"Forte dei Marmi","children":[{"id":"pmb52716","name":"Grand Hotel Forte dei Marmi","children":[]}]},{"id":"pmb1174","name":"Viareggio","children":[]}]}