{"type":"FeatureCollection","features":[{"type":"Feature","geometry":{"type":"LineString","coordinates":[[13.282944,52.47847],[13.3418,52.49831],[13.392222,52.513611],[13.374444,52.51],[13.3342,52.5061],[13.33465,52.50422]]},"properties":{"name":"19. Oktober 1925"}},{"type":"Feature","geometry":{"type":"Point","coordinates":[13.374444,52.51]},"properties":{"id":"pmb245","title":"Hotel Esplanade [Berlin]","lat":"52.51","lon":"13.374444","timestamp":["1925-10-19"],"importance":1,"wikipedia":"https://de.wikipedia.org/wiki/Hotel_Esplanade_(Berlin)","wikidata":"http://www.wikidata.org/entity/Q321562","abbr":"Hotel (K.HTL)","type":"Hotel"}},{"type":"Feature","geometry":{"type":"Point","coordinates":[13.392222,52.513611]},"properties":{"id":"pmb784","title":"Schauspielhaus Berlin","lat":"52.513611","lon":"13.392222","timestamp":["1925-10-19"],"importance":1,"wikipedia":"https://de.wikipedia.org/wiki/Schauspielhaus_(Berlin)","wikidata":"http://www.wikidata.org/entity/Q702548","abbr":"Theater (K.THE)","type":"Theater","arbeitsort":[{"p_name":"Albert Patry","p_id":"#9198"}]}},{"type":"Feature","geometry":{"type":"Point","coordinates":[13.3418,52.49831]},"properties":{"id":"pmb249484","title":"Welserstraße 19","lat":"52.49831","lon":"13.3418","timestamp":["1925-10-19"],"importance":1,"abbr":"Wohngebäude (K.WHS)","type":"Wohngebäude","wohnort":[{"p_name":"Georg Engel","p_id":"#15908"}]}},{"type":"Feature","geometry":{"type":"Point","coordinates":[13.282944,52.47847]},"properties":{"id":"pmb250448","title":"Hohenzollerndamm 90","lat":"52.47847","lon":"13.282944","timestamp":["1925-10-19"],"importance":1,"abbr":"Wohngebäude (K.WHS)","type":"Wohngebäude","wohnort":[{"p_name":"Dora Michaelis","p_id":"#2774"},{"p_name":"Karl Michaelis","p_id":"#3064"}]}},{"type":"Feature","geometry":{"type":"Point","coordinates":[13.33465,52.50422]},"properties":{"id":"pmb235978","title":"Zum Austernmeyer","lat":"52.50422","lon":"13.33465","timestamp":["1925-10-19"],"importance":1,"abbr":"Gastgewerbegebäude (K.GGW)","type":"Gastgewerbegebäude"}},{"type":"Feature","geometry":{"type":"Point","coordinates":[13.3342,52.5061]},"properties":{"id":"pmb237759","title":"Ufa-Palast am Zoo","lat":"52.5061","lon":"13.3342","timestamp":["1925-10-19"],"importance":1,"wikipedia":"https://de.wikipedia.org/wiki/Ufa-Palast_am_Zoo","wikidata":"http://www.wikidata.org/entity/Q1285122","abbr":"Kino (K.KNO)","type":"Kino"}}],"hierarchy":[{"id":"pmb168","name":"Berlin","children":[{"id":"pmb245","name":"Hotel Esplanade [Berlin]","children":[]},{"id":"pmb784","name":"Schauspielhaus Berlin","children":[]},{"id":"pmb249484","name":"Welserstraße 19","children":[]},{"id":"pmb250448","name":"Hohenzollerndamm 90","children":[]},{"id":"pmb235978","name":"Zum Austernmeyer","children":[]},{"id":"pmb237759","name":"Ufa-Palast am Zoo","children":[]}]}]}