{"type":"FeatureCollection","features":[{"type":"Feature","geometry":{"type":"LineString","coordinates":[[11.25063,43.7748],[12.338208333333334,45.433675],[12.33835,45.43411],[12.3369089,45.4324384],[12.336047,45.435282]]},"properties":{"name":"17. September 1925"}},{"type":"Feature","geometry":{"type":"Point","coordinates":[11.25063,43.7748]},"properties":{"id":"pmb254949","title":"Grand Hotel Baglioni","lat":"43.7748","lon":"11.25063","timestamp":["1925-09-17"],"importance":1,"abbr":"Hotel (K.HTL)","type":"Hotel"}},{"type":"Feature","geometry":{"type":"Point","coordinates":[12.33835,45.43411]},"properties":{"id":"pmb261","title":"Piazza San Marco","lat":"45.43411","lon":"12.33835","timestamp":["1925-09-17"],"importance":1,"wikipedia":"https://de.wikipedia.org/wiki/Markusplatz","wikidata":"http://www.wikidata.org/entity/Q217527","geonames":"https://sws.geonames.org/3229870/","abbr":"S.SQR","type":"Platz"}},{"type":"Feature","geometry":{"type":"Point","coordinates":[12.338208333333334,45.433675]},"properties":{"id":"pmb232856","title":"Caffè Florian","lat":"45.433675","lon":"12.338208333333334","timestamp":["1925-09-17"],"importance":1,"wikipedia":"https://de.wikipedia.org/wiki/Caff%C3%A8_Florian","wikidata":"http://www.wikidata.org/entity/Q960610","abbr":"Kaffeehaus (K.KAF)","type":"Kaffeehaus"}},{"type":"Feature","geometry":{"type":"Point","coordinates":[12.336047,45.435282]},"properties":{"id":"pmb260","title":"Hotel Bonvecchiati","lat":"45.435282","lon":"12.336047","timestamp":["1925-09-17"],"importance":1,"wikidata":"http://www.wikidata.org/entity/Q111412860","abbr":"Hotel (K.HTL)","type":"Hotel"}},{"type":"Feature","geometry":{"type":"Point","coordinates":[12.3369089,45.4324384]},"properties":{"id":"pmb255036","title":"Hotel Monaco Grand Canal","lat":"45.4324384","lon":"12.3369089","timestamp":["1925-09-17"],"importance":1,"wikidata":"http://www.wikidata.org/entity/Q56256122","abbr":"Hotel (K.HTL)","type":"Hotel"}}],"hierarchy":[{"id":"pmb263","name":"Florenz","children":[{"id":"pmb254949","name":"Grand Hotel Baglioni","children":[]}]},{"id":"pmb462","name":"Venedig","children":[{"id":"pmb261","name":"Piazza San Marco","children":[]},{"id":"pmb232856","name":"Caffè Florian","children":[]},{"id":"pmb260","name":"Hotel Bonvecchiati","children":[]},{"id":"pmb255036","name":"Hotel Monaco Grand Canal","children":[]}]}]}