{"type":"FeatureCollection","features":[{"type":"Feature","geometry":{"type":"LineString","coordinates":[[13.282944,52.47847],[13.3853,52.4533],[13.374444,52.51],[13.33465,52.50422],[13.3239,52.5019]]},"properties":{"name":"28. Dezember 1926"}},{"type":"Feature","geometry":{"type":"Point","coordinates":[13.374444,52.51]},"properties":{"id":"pmb245","title":"Hotel Esplanade [Berlin]","lat":"52.51","lon":"13.374444","timestamp":["1926-12-28"],"importance":1,"wikipedia":"https://de.wikipedia.org/wiki/Hotel_Esplanade_(Berlin)","wikidata":"http://www.wikidata.org/entity/Q321562","abbr":"Hotel (K.HTL)","type":"Hotel"}},{"type":"Feature","geometry":{"type":"Point","coordinates":[13.3853,52.4533]},"properties":{"id":"pmb244563","title":"Ullsteinhaus","lat":"52.4533","lon":"13.3853","timestamp":["1926-12-28"],"importance":1,"wikipedia":"https://de.wikipedia.org/wiki/Ullsteinhaus","wikidata":"http://www.wikidata.org/entity/Q143984","abbr":"Gebäude (K.GBD)","type":"Gebäude"}},{"type":"Feature","geometry":{"type":"Point","coordinates":[13.282944,52.47847]},"properties":{"id":"pmb250448","title":"Hohenzollerndamm 90","lat":"52.47847","lon":"13.282944","timestamp":["1926-12-28"],"importance":1,"abbr":"Wohngebäude (K.WHS)","type":"Wohngebäude","wohnort":[{"p_name":"Dora Michaelis","p_id":"#2774"},{"p_name":"Karl Michaelis","p_id":"#3064"}]}},{"type":"Feature","geometry":{"type":"Point","coordinates":[13.33465,52.50422]},"properties":{"id":"pmb235978","title":"Zum Austernmeyer","lat":"52.50422","lon":"13.33465","timestamp":["1926-12-28"],"importance":1,"abbr":"Gastgewerbegebäude (K.GGW)","type":"Gastgewerbegebäude"}},{"type":"Feature","geometry":{"type":"Point","coordinates":[13.3239,52.5019]},"properties":{"id":"pmb251603","title":"Theater am Kurfürstendamm","lat":"52.5019","lon":"13.3239","timestamp":["1926-12-28"],"importance":1,"wikipedia":"https://de.wikipedia.org/wiki/Theater_am_Kurf%C3%BCrstendamm","wikidata":"http://www.wikidata.org/entity/Q869970","abbr":"Theater (K.THE)","type":"Theater"}}],"hierarchy":[{"id":"pmb168","name":"Berlin","children":[{"id":"pmb245","name":"Hotel Esplanade [Berlin]","children":[]},{"id":"pmb244563","name":"Ullsteinhaus","children":[]},{"id":"pmb250448","name":"Hohenzollerndamm 90","children":[]},{"id":"pmb235978","name":"Zum Austernmeyer","children":[]},{"id":"pmb251603","name":"Theater am Kurfürstendamm","children":[]}]}]}