{"type":"FeatureCollection","features":[{"type":"Feature","geometry":{"type":"LineString","coordinates":[[13.282944,52.47847],[13.36042,52.498402],[13.374444,52.51],[13.33465,52.50422],[13.30817,52.500386]]},"properties":{"name":"14. Mai 1926"}},{"type":"Feature","geometry":{"type":"Point","coordinates":[13.374444,52.51]},"properties":{"id":"pmb245","title":"Hotel Esplanade [Berlin]","lat":"52.51","lon":"13.374444","timestamp":["1926-05-14"],"importance":1,"wikipedia":"https://de.wikipedia.org/wiki/Hotel_Esplanade_(Berlin)","wikidata":"http://www.wikidata.org/entity/Q321562","abbr":"Hotel (K.HTL)","type":"Hotel"}},{"type":"Feature","geometry":{"type":"Point","coordinates":[13.36042,52.498402]},"properties":{"id":"pmb235295","title":"S. Fischer Verlag","lat":"52.498402","lon":"13.36042","timestamp":["1926-05-14"],"importance":1,"abbr":"Bürogebäude (K.BUR)","type":"Bürogebäude","arbeitsort":[{"p_name":"Samuel Fischer","p_id":"#11324"}]}},{"type":"Feature","geometry":{"type":"Point","coordinates":[13.282944,52.47847]},"properties":{"id":"pmb250448","title":"Hohenzollerndamm 90","lat":"52.47847","lon":"13.282944","timestamp":["1926-05-14"],"importance":1,"abbr":"Wohngebäude (K.WHS)","type":"Wohngebäude","wohnort":[{"p_name":"Dora Michaelis","p_id":"#2774"},{"p_name":"Karl Michaelis","p_id":"#3064"}]}},{"type":"Feature","geometry":{"type":"Point","coordinates":[13.33465,52.50422]},"properties":{"id":"pmb235978","title":"Zum Austernmeyer","lat":"52.50422","lon":"13.33465","timestamp":["1926-05-14"],"importance":1,"abbr":"Gastgewerbegebäude (K.GGW)","type":"Gastgewerbegebäude"}},{"type":"Feature","geometry":{"type":"Point","coordinates":[13.30817,52.500386]},"properties":{"id":"pmb250459","title":"Alhambra","lat":"52.500386","lon":"13.30817","timestamp":["1926-05-14"],"importance":1,"abbr":"Kino (K.KNO)","type":"Kino"}}],"hierarchy":[{"id":"pmb168","name":"Berlin","children":[{"id":"pmb245","name":"Hotel Esplanade [Berlin]","children":[]},{"id":"pmb235295","name":"S. Fischer Verlag","children":[]},{"id":"pmb250448","name":"Hohenzollerndamm 90","children":[]},{"id":"pmb235978","name":"Zum Austernmeyer","children":[]},{"id":"pmb250459","name":"Alhambra","children":[]}]}]}