{"type":"FeatureCollection","features":[{"type":"Feature","geometry":{"type":"LineString","coordinates":[[13.282944,52.47847],[13.29417,52.46601],[13.374444,52.51],[13.383747,52.517908],[13.327556,52.502382],[13.312815,52.499088]]},"properties":{"name":"16. Mai 1926"}},{"type":"Feature","geometry":{"type":"Point","coordinates":[13.374444,52.51]},"properties":{"id":"pmb245","title":"Hotel Esplanade [Berlin]","lat":"52.51","lon":"13.374444","timestamp":["1926-05-16"],"importance":1,"wikipedia":"https://de.wikipedia.org/wiki/Hotel_Esplanade_(Berlin)","wikidata":"http://www.wikidata.org/entity/Q321562","abbr":"Hotel (K.HTL)","type":"Hotel"}},{"type":"Feature","geometry":{"type":"Point","coordinates":[13.312815,52.499088]},"properties":{"id":"pmb249499","title":"Olivaer Platz 1","lat":"52.499088","lon":"13.312815","timestamp":["1926-05-16"],"importance":1,"abbr":"Wohngebäude (K.WHS)","type":"Wohngebäude","wohnort":[{"p_name":"Olga Schnitzler","p_id":"#2173"},{"p_name":"Nazary Kantorowicz","p_id":"#19078"}]}},{"type":"Feature","geometry":{"type":"Point","coordinates":[13.327556,52.502382]},"properties":{"id":"pmb233590","title":"Restaurant Frolics","lat":"52.502382","lon":"13.327556","timestamp":["1926-05-16"],"importance":1,"abbr":"Gastgewerbegebäude (K.GGW)","type":"Gastgewerbegebäude"}},{"type":"Feature","geometry":{"type":"Point","coordinates":[13.282944,52.47847]},"properties":{"id":"pmb250448","title":"Hohenzollerndamm 90","lat":"52.47847","lon":"13.282944","timestamp":["1926-05-16"],"importance":1,"abbr":"Wohngebäude (K.WHS)","type":"Wohngebäude","wohnort":[{"p_name":"Dora Michaelis","p_id":"#2774"},{"p_name":"Karl Michaelis","p_id":"#3064"}]}},{"type":"Feature","geometry":{"type":"Point","coordinates":[13.29417,52.46601]},"properties":{"id":"pmb235344","title":"Podbielskiallee 35–37","lat":"52.46601","lon":"13.29417","timestamp":["1926-05-16"],"importance":1,"abbr":"Wohngebäude (K.WHS)","type":"Wohngebäude","wohnort":[{"p_name":"Edmund Pietrkowski","p_id":"#9274"}]}},{"type":"Feature","geometry":{"type":"Point","coordinates":[13.383747,52.517908]},"properties":{"id":"pmb250470","title":"Schadowstraße 6/7","lat":"52.517908","lon":"13.383747","timestamp":["1926-05-16"],"importance":1,"abbr":"Gebäude (K.GBD)","type":"Gebäude"}}],"hierarchy":[{"id":"pmb168","name":"Berlin","children":[{"id":"pmb245","name":"Hotel Esplanade [Berlin]","children":[]},{"id":"pmb249499","name":"Olivaer Platz 1","children":[]},{"id":"pmb233590","name":"Restaurant Frolics","children":[]},{"id":"pmb90508","name":"Dahlem","children":[{"id":"pmb250448","name":"Hohenzollerndamm 90","children":[]}]},{"id":"pmb235344","name":"Podbielskiallee 35–37","children":[]}]},{"id":"pmb250470","name":"Schadowstraße 6/7","children":[]}]}