{"type":"FeatureCollection","features":[{"type":"Feature","geometry":{"type":"LineString","coordinates":[[13.310732,52.495142],[13.312815,52.499088],[13.374444,52.51],[9.98546,53.57],[9.99215,53.553527],[9.98277778,53.54]]},"properties":{"name":"11. Mai 1926"}},{"type":"Feature","geometry":{"type":"Point","coordinates":[13.310732,52.495142]},"properties":{"id":"pmb92191","title":"Konstanzer Straße","lat":"52.495142","lon":"13.310732","timestamp":["1926-05-11"],"importance":1,"abbr":"Straße (K.STR)","type":"Straße"}},{"type":"Feature","geometry":{"type":"Point","coordinates":[13.374444,52.51]},"properties":{"id":"pmb245","title":"Hotel Esplanade [Berlin]","lat":"52.51","lon":"13.374444","timestamp":["1926-05-11"],"importance":1,"wikipedia":"https://de.wikipedia.org/wiki/Hotel_Esplanade_(Berlin)","wikidata":"http://www.wikidata.org/entity/Q321562","abbr":"Hotel (K.HTL)","type":"Hotel"}},{"type":"Feature","geometry":{"type":"Point","coordinates":[13.312815,52.499088]},"properties":{"id":"pmb249499","title":"Olivaer Platz 1","lat":"52.499088","lon":"13.312815","timestamp":["1926-05-11"],"importance":1,"abbr":"Wohngebäude (K.WHS)","type":"Wohngebäude","wohnort":[{"p_name":"Olga Schnitzler","p_id":"#2173"},{"p_name":"Nazary Kantorowicz","p_id":"#19078"}]}},{"type":"Feature","geometry":{"type":"Point","coordinates":[9.98277778,53.54]},"properties":{"id":"pmb199707","title":"Hamburger Hafen","lat":"53.54","lon":"9.98277778","timestamp":["1926-05-11"],"importance":1,"wikipedia":"https://de.wikipedia.org/wiki/Hamburger_Hafen","wikidata":"http://www.wikidata.org/entity/Q3964","abbr":"Hafen (K.HFN)","type":"Hafen"}},{"type":"Feature","geometry":{"type":"Point","coordinates":[9.98546,53.57]},"properties":{"id":"pmb250435","title":"Hamburger Kammerspiele","lat":"53.57","lon":"9.98546","timestamp":["1926-05-11"],"importance":1,"wikipedia":"https://de.wikipedia.org/wiki/Hamburger_Kammerspiele","wikidata":"http://www.wikidata.org/entity/Q2711057","abbr":"Theater (K.THE)","type":"Theater"}},{"type":"Feature","geometry":{"type":"Point","coordinates":[9.99215,53.553527]},"properties":{"id":"pmb92314","title":"Jungfernstieg","lat":"53.553527","lon":"9.99215","timestamp":["1926-05-11"],"importance":1,"abbr":"Straße (K.STR)","type":"Straße"}}],"hierarchy":[{"id":"pmb168","name":"Berlin","children":[{"id":"pmb92191","name":"Konstanzer Straße","children":[]},{"id":"pmb245","name":"Hotel Esplanade [Berlin]","children":[]},{"id":"pmb249499","name":"Olivaer Platz 1","children":[]}]},{"id":"pmb506","name":"Hamburg","children":[{"id":"pmb199707","name":"Hamburger Hafen","children":[]},{"id":"pmb250435","name":"Hamburger Kammerspiele","children":[]},{"id":"pmb92314","name":"Jungfernstieg","children":[]}]}]}