{"type":"FeatureCollection","features":[{"type":"Feature","geometry":{"type":"LineString","coordinates":[[7.7511208,46.001478],[7.78484,45.98322],[7.74972222,46.02361111],[7.75065,46.02066],[7.7475,46.0242]]},"properties":{"name":"19. August 1926"}},{"type":"Feature","geometry":{"type":"Point","coordinates":[7.75065,46.02066]},"properties":{"id":"pmb245351","title":"Parkhotel Beau Site","lat":"46.02066","lon":"7.75065","timestamp":["1926-08-19"],"importance":1,"wikidata":"http://www.wikidata.org/entity/Q111409825","abbr":"Hotel (K.HTL)","type":"Hotel"}},{"type":"Feature","geometry":{"type":"Point","coordinates":[7.7511208,46.001478]},"properties":{"id":"pmb245358","title":"Hotel Riffelalp","lat":"46.001478","lon":"7.7511208","timestamp":["1926-08-19"],"importance":1,"wikidata":"http://www.wikidata.org/entity/Q7333237","abbr":"Hotel (K.HTL)","type":"Hotel"}},{"type":"Feature","geometry":{"type":"Point","coordinates":[7.74972222,46.02361111]},"properties":{"id":"pmb245361","title":"Gornergratbahn","lat":"46.02361111","lon":"7.74972222","timestamp":["1926-08-19"],"importance":1,"wikipedia":"https://de.wikipedia.org/wiki/Gornergratbahn","wikidata":"http://www.wikidata.org/entity/Q667247","abbr":"Bahn","type":"Bahn"}},{"type":"Feature","geometry":{"type":"Point","coordinates":[7.7475,46.0242]},"properties":{"id":"pmb251070","title":"Bahnhof Zermatt","lat":"46.0242","lon":"7.7475","timestamp":["1926-08-19"],"importance":1,"wikipedia":"https://de.wikipedia.org/wiki/Bahnhof_Zermatt","wikidata":"http://www.wikidata.org/entity/Q8069422","abbr":"Bahnhofsgebäude (K.BHF)","type":"Bahnhofsgebäude"}},{"type":"Feature","geometry":{"type":"Point","coordinates":[7.78484,45.98322]},"properties":{"id":"pmb90741","title":"Gornergrat","lat":"45.98322","lon":"7.78484","timestamp":["1926-08-19"],"importance":1,"geonames":"https://sws.geonames.org/2660554/","abbr":"T.MT","type":"Berg"}}],"hierarchy":[{"id":"pmb34005","name":"Zermatt","children":[{"id":"pmb245351","name":"Parkhotel Beau Site","children":[]},{"id":"pmb92485","name":"Riffelalp","children":[{"id":"pmb245358","name":"Hotel Riffelalp","children":[]},{"id":"pmb245361","name":"Gornergratbahn","children":[]}]},{"id":"pmb251070","name":"Bahnhof Zermatt","children":[]}]},{"id":"pmb90741","name":"Gornergrat","children":[]}]}