{"type":"FeatureCollection","features":[{"type":"Feature","geometry":{"type":"LineString","coordinates":[[7.62166,46.75118],[7.69111,46.68473],[7.6603043,46.733974],[7.70236,46.71185],[7.4409,46.9487],[7.439116666666667,46.948819444444446]]},"properties":{"name":"14. August 1926"}},{"type":"Feature","geometry":{"type":"Point","coordinates":[7.4409,46.9487]},"properties":{"id":"pmb245309","title":"Hotel Schweizerhof Bern","lat":"46.9487","lon":"7.4409","timestamp":["1926-08-14"],"importance":1,"wikipedia":"https://de.wikipedia.org/wiki/Hotel_Schweizerhof_(Bern)","wikidata":"http://www.wikidata.org/entity/Q55505690","abbr":"Hotel (K.HTL)","type":"Hotel"}},{"type":"Feature","geometry":{"type":"Point","coordinates":[7.439116666666667,46.948819444444446]},"properties":{"id":"pmb251066","title":"Bahnhof Bern","lat":"46.948819444444446","lon":"7.439116666666667","timestamp":["1926-08-14"],"importance":1,"wikipedia":"https://de.wikipedia.org/wiki/Bahnhof_Bern","wikidata":"http://www.wikidata.org/entity/Q28870","geonames":"https://sws.geonames.org/8556244/","abbr":"S.RSTN","type":"Bahnhof"}},{"type":"Feature","geometry":{"type":"Point","coordinates":[7.6603043,46.733974]},"properties":{"id":"pmb250075","title":"Grand Hotel Bellevue au lac","lat":"46.733974","lon":"7.6603043","timestamp":["1926-08-14"],"importance":1,"abbr":"Hotel (K.HTL)","type":"Hotel"}},{"type":"Feature","geometry":{"type":"Point","coordinates":[7.69111,46.68473]},"properties":{"id":"pmb91788","title":"Spiez","lat":"46.68473","lon":"7.69111","timestamp":["1926-08-14"],"importance":1,"wikipedia":"https://de.wikipedia.org/wiki/Spiez","wikidata":"http://www.wikidata.org/entity/Q69484","geonames":"https://sws.geonames.org/2658536/","abbr":"P.PPL","type":"Besiedelter Ort"}},{"type":"Feature","geometry":{"type":"Point","coordinates":[7.70236,46.71185]},"properties":{"id":"pmb90805","title":"Gunten","lat":"46.71185","lon":"7.70236","timestamp":["1926-08-14"],"importance":1,"geonames":"https://sws.geonames.org/2660443/","abbr":"P.PPL","type":"Besiedelter Ort"}},{"type":"Feature","geometry":{"type":"Point","coordinates":[7.62166,46.75118]},"properties":{"id":"pmb49540","title":"Thun","lat":"46.75118","lon":"7.62166","timestamp":["1926-08-14"],"importance":1,"geonames":"https://sws.geonames.org/2658377/","abbr":"P.PPLA2","type":"Hauptstadt"}}],"hierarchy":[{"id":"pmb1223","name":"Bern","children":[{"id":"pmb245309","name":"Hotel Schweizerhof Bern","children":[]},{"id":"pmb251066","name":"Bahnhof Bern","children":[]}]},{"id":"pmb48530","name":"Hilterfingen","children":[{"id":"pmb250075","name":"Grand Hotel Bellevue au lac","children":[]}]},{"id":"pmb91788","name":"Spiez","children":[]},{"id":"pmb90805","name":"Gunten","children":[]},{"id":"pmb49540","name":"Thun","children":[]}]}