{"type":"FeatureCollection","features":[{"type":"Feature","geometry":{"type":"LineString","coordinates":[[13.26442,52.481123],[13.3915,52.50095],[13.39333,52.51483],[13.383456,52.516152],[13.363698,52.508221]]},"properties":{"name":"5. Dezember 1927"}},{"type":"Feature","geometry":{"type":"Point","coordinates":[13.383456,52.516152]},"properties":{"id":"pmb127","title":"Hotel Bristol Berlin","lat":"52.516152","lon":"13.383456","timestamp":["1927-12-05"],"importance":1,"wikipedia":"https://de.wikipedia.org/wiki/Hotel_Bristol_(Berlin)","wikidata":"http://www.wikidata.org/entity/Q1630839","abbr":"Hotel (K.HTL)","type":"Hotel"}},{"type":"Feature","geometry":{"type":"Point","coordinates":[13.39333,52.51483]},"properties":{"id":"pmb493","title":"Bank für Auswärtigen Handel","lat":"52.51483","lon":"13.39333","timestamp":["1927-12-05"],"importance":1,"abbr":"Bank (K.BNK)","type":"Bank","arbeitsort":[{"p_name":"Franz Karl Feilchenfeld","p_id":"#16125"}]}},{"type":"Feature","geometry":{"type":"Point","coordinates":[13.26442,52.481123]},"properties":{"id":"pmb249121","title":"Höhmannstraße 6","lat":"52.481123","lon":"13.26442","timestamp":["1927-12-05"],"importance":1,"abbr":"Wohngebäude (K.WHS)","type":"Wohngebäude","wohnort":[{"p_name":"Alfred Kerr","p_id":"#11910"}]}},{"type":"Feature","geometry":{"type":"Point","coordinates":[13.3915,52.50095]},"properties":{"id":"pmb246997","title":"Hegewald Film","lat":"52.50095","lon":"13.3915","timestamp":["1927-12-05"],"importance":1,"abbr":"Filmproduktionsfirma","type":"Filmproduktionsfirma"}},{"type":"Feature","geometry":{"type":"Point","coordinates":[13.363698,52.508221]},"properties":{"id":"pmb244585","title":"Stauffenbergstraße 36","lat":"52.508221","lon":"13.363698","timestamp":["1927-12-05"],"importance":1,"abbr":"Wohngebäude (K.WHS)","type":"Wohngebäude","wohnort":[{"p_name":"Eva Marie Goldmann","p_id":"#17164"},{"p_name":"Paul Goldmann","p_id":"#11485"}]}}],"hierarchy":[{"id":"pmb168","name":"Berlin","children":[{"id":"pmb127","name":"Hotel Bristol Berlin","children":[]},{"id":"pmb493","name":"Bank für Auswärtigen Handel","children":[]},{"id":"pmb129","name":"Grunewald","children":[{"id":"pmb249121","name":"Höhmannstraße 6","children":[]}]},{"id":"pmb246997","name":"Hegewald Film","children":[]},{"id":"pmb244585","name":"Stauffenbergstraße 36","children":[]}]}]}