{"type":"FeatureCollection","features":[{"type":"Feature","geometry":{"type":"LineString","coordinates":[[10.837,46.24144],[10.8411,46.2397],[11.207222,46.416944],[11.356905,46.498049],[10.91246,46.35356]]},"properties":{"name":"12. August 1927"}},{"type":"Feature","geometry":{"type":"Point","coordinates":[11.356905,46.498049]},"properties":{"id":"pmb248108","title":"Hotel Laurin","lat":"46.498049","lon":"11.356905","timestamp":["1927-08-12"],"importance":1,"wikipedia":"https://de.wikipedia.org/wiki/Parkhotel_Laurin","wikidata":"http://www.wikidata.org/entity/Q15839550","abbr":"Hotel (K.HTL)","type":"Hotel"}},{"type":"Feature","geometry":{"type":"Point","coordinates":[10.837,46.24144]},"properties":{"id":"pmb248124","title":"Carlo Magno Zeledria Hotel","lat":"46.24144","lon":"10.837","timestamp":["1927-08-12"],"importance":1,"abbr":"Hotel (K.HTL)","type":"Hotel"}},{"type":"Feature","geometry":{"type":"Point","coordinates":[11.207222,46.416944]},"properties":{"id":"pmb41083","title":"Mendelpass","lat":"46.416944","lon":"11.207222","timestamp":["1927-08-12"],"importance":1,"wikipedia":"https://de.wikipedia.org/wiki/Mendelpass","wikidata":"http://www.wikidata.org/entity/Q253818","geonames":"https://sws.geonames.org/3173592/","abbr":"Pass (N.PAS)","type":"Pass"}},{"type":"Feature","geometry":{"type":"Point","coordinates":[10.91246,46.35356]},"properties":{"id":"pmb90126","title":"Malé","lat":"46.35356","lon":"10.91246","timestamp":["1927-08-12"],"importance":1,"geonames":"https://sws.geonames.org/3174186/","abbr":"P.PPLA3","type":"Hauptstadt"}},{"type":"Feature","geometry":{"type":"Point","coordinates":[10.8411,46.2397]},"properties":{"id":"pmb90438","title":"Campo Carlo Magno","lat":"46.2397","lon":"10.8411","timestamp":["1927-08-12"],"importance":1,"wikipedia":"https://de.wikipedia.org/wiki/Passo_Campo_Carlo_Magno","wikidata":"http://www.wikidata.org/entity/Q1031398","geonames":"https://sws.geonames.org/3180988/ https://www.geonames.org/3180988/campo-carlo-magno.html","abbr":"T.PASS","type":"Pass"}}],"hierarchy":[{"id":"pmb40260","name":"Bozen","children":[{"id":"pmb248108","name":"Hotel Laurin","children":[]}]},{"id":"pmb427","name":"Madonna di Campiglio","children":[{"id":"pmb248124","name":"Carlo Magno Zeledria Hotel","children":[]}]},{"id":"pmb41083","name":"Mendelpass","children":[]},{"id":"pmb90126","name":"Malé","children":[]},{"id":"pmb90438","name":"Campo Carlo Magno","children":[]}]}