{"type":"FeatureCollection","features":[{"type":"Feature","geometry":{"type":"LineString","coordinates":[[11.8428,45.3708],[11.001638888889,45.447416666667],[11.002777777778,45.446944444444],[10.997942,45.444152],[10.9989275,45.44364367],[10.99644,45.44133],[10.99277778,45.43888889],[10.9979,45.4338]]},"properties":{"name":"4. September 1927"}},{"type":"Feature","geometry":{"type":"Point","coordinates":[10.997942,45.444152]},"properties":{"id":"pmb248261","title":"Hotel Londra e Reale due Torre","lat":"45.444152","lon":"10.997942","timestamp":["1927-09-04"],"importance":1,"abbr":"Hotel (K.HTL)","type":"Hotel"}},{"type":"Feature","geometry":{"type":"Point","coordinates":[10.9989275,45.44364367]},"properties":{"id":"pmb232897","title":"Arche scaligere","lat":"45.44364367","lon":"10.9989275","timestamp":["1927-09-04"],"importance":1,"wikipedia":"https://de.wikipedia.org/wiki/Scaliger-Grabm%C3%A4ler","wikidata":"http://www.wikidata.org/entity/Q2253540","geonames":"https://sws.geonames.org/8014996/","abbr":"S.TMB","type":"Grab"}},{"type":"Feature","geometry":{"type":"Point","coordinates":[10.9979,45.4338]},"properties":{"id":"pmb232891","title":"Tomba di Giulietta","lat":"45.4338","lon":"10.9979","timestamp":["1927-09-04"],"importance":1,"wikidata":"http://www.wikidata.org/entity/Q3992618","abbr":"Monument (K.MON)","type":"Monument"}},{"type":"Feature","geometry":{"type":"Point","coordinates":[11.8428,45.3708]},"properties":{"id":"pmb232902","title":"Villa Giusti","lat":"45.3708","lon":"11.8428","timestamp":["1927-09-04"],"importance":1,"wikipedia":"https://de.wikipedia.org/wiki/Villa_Giusti","wikidata":"http://www.wikidata.org/entity/Q7884889","abbr":"Gebäude (K.GBD)","type":"Gebäude"}},{"type":"Feature","geometry":{"type":"Point","coordinates":[11.002777777778,45.446944444444]},"properties":{"id":"pmb232910","title":"Santa Maria in Organo","lat":"45.446944444444","lon":"11.002777777778","timestamp":["1927-09-04"],"importance":1,"wikidata":"http://www.wikidata.org/entity/Q1052661","abbr":"Kirche (K.KRC)","type":"Kirche"}},{"type":"Feature","geometry":{"type":"Point","coordinates":[11.001638888889,45.447416666667]},"properties":{"id":"pmb232884","title":"Teatro Romano di Verona","lat":"45.447416666667","lon":"11.001638888889","timestamp":["1927-09-04"],"importance":1,"wikipedia":"https://de.wikipedia.org/wiki/Teatro_Romano_di_Verona","wikidata":"http://www.wikidata.org/entity/Q1477572","geonames":"https://sws.geonames.org/8014999/","abbr":"S.RUIN","type":"Ruine"}},{"type":"Feature","geometry":{"type":"Point","coordinates":[10.99644,45.44133]},"properties":{"id":"pmb248583","title":"Hotel Accademia","lat":"45.44133","lon":"10.99644","timestamp":["1927-09-04"],"importance":1,"abbr":"Hotel (K.HTL)","type":"Hotel"}},{"type":"Feature","geometry":{"type":"Point","coordinates":[10.99277778,45.43888889]},"properties":{"id":"pmb248264","title":"Piazza Brà","lat":"45.43888889","lon":"10.99277778","timestamp":["1927-09-04"],"importance":1,"wikidata":"http://www.wikidata.org/entity/Q1056360","geonames":"https://sws.geonames.org/8014990/","abbr":"S.SQR","type":"Platz"}}],"hierarchy":[{"id":"pmb44153","name":"Verona","children":[{"id":"pmb248261","name":"Hotel Londra e Reale due Torre","children":[]},{"id":"pmb232897","name":"Arche scaligere","children":[]},{"id":"pmb232891","name":"Tomba di Giulietta","children":[]},{"id":"pmb232902","name":"Villa Giusti","children":[]},{"id":"pmb232910","name":"Santa Maria in Organo","children":[]},{"id":"pmb232884","name":"Teatro Romano di Verona","children":[]},{"id":"pmb248583","name":"Hotel Accademia","children":[]},{"id":"pmb248264","name":"Piazza Brà","children":[]}]}]}