{"type":"FeatureCollection","features":[{"type":"Feature","geometry":{"type":"LineString","coordinates":[[12.35,45.38333],[12.339857,45.433696],[12.33835,45.43411],[12.33669,45.44127],[12.336047,45.435282]]},"properties":{"name":"26. April 1927"}},{"type":"Feature","geometry":{"type":"Point","coordinates":[12.336047,45.435282]},"properties":{"id":"pmb260","title":"Hotel Bonvecchiati","lat":"45.435282","lon":"12.336047","timestamp":["1927-04-26"],"importance":1,"wikidata":"http://www.wikidata.org/entity/Q111412860","abbr":"Hotel (K.HTL)","type":"Hotel"}},{"type":"Feature","geometry":{"type":"Point","coordinates":[12.339857,45.433696]},"properties":{"id":"pmb149","title":"Palazzo Ducale","lat":"45.433696","lon":"12.339857","timestamp":["1927-04-26"],"importance":1,"wikipedia":"https://de.wikipedia.org/wiki/Dogenpalast","wikidata":"http://www.wikidata.org/entity/Q189883","abbr":"Gebäude (K.GBD)","type":"Gebäude"}},{"type":"Feature","geometry":{"type":"Point","coordinates":[12.35,45.38333]},"properties":{"id":"pmb259","title":"Lido","lat":"45.38333","lon":"12.35","timestamp":["1927-04-26"],"importance":1,"wikidata":"http://www.wikidata.org/entity/Q16866834","geonames":"https://sws.geonames.org/3174748/","abbr":"P.PPL","type":"Besiedelter Ort"}},{"type":"Feature","geometry":{"type":"Point","coordinates":[12.33835,45.43411]},"properties":{"id":"pmb261","title":"Piazza San Marco","lat":"45.43411","lon":"12.33835","timestamp":["1927-04-26"],"importance":1,"wikipedia":"https://de.wikipedia.org/wiki/Markusplatz","wikidata":"http://www.wikidata.org/entity/Q217527","geonames":"https://sws.geonames.org/3229870/","abbr":"S.SQR","type":"Platz"}},{"type":"Feature","geometry":{"type":"Point","coordinates":[12.33669,45.44127]},"properties":{"id":"pmb247602","title":"Hotel Giorgione","lat":"45.44127","lon":"12.33669","timestamp":["1927-04-26"],"importance":1,"abbr":"Hotel (K.HTL)","type":"Hotel"}}],"hierarchy":[{"id":"pmb462","name":"Venedig","children":[{"id":"pmb260","name":"Hotel Bonvecchiati","children":[]},{"id":"pmb149","name":"Palazzo Ducale","children":[]},{"id":"pmb259","name":"Lido","children":[]},{"id":"pmb261","name":"Piazza San Marco","children":[]},{"id":"pmb247602","name":"Hotel Giorgione","children":[]}]}]}