{"type":"FeatureCollection","features":[{"type":"Feature","geometry":{"type":"LineString","coordinates":[[12.3334661,45.433844],[12.338208333333334,45.433675],[12.33835,45.43411],[12.336047,45.435282],[12.32858,45.43879],[12.32768,45.4378]]},"properties":{"name":"27. April 1927"}},{"type":"Feature","geometry":{"type":"Point","coordinates":[12.336047,45.435282]},"properties":{"id":"pmb260","title":"Hotel Bonvecchiati","lat":"45.435282","lon":"12.336047","timestamp":["1927-04-27"],"importance":1,"wikidata":"http://www.wikidata.org/entity/Q111412860","abbr":"Hotel (K.HTL)","type":"Hotel"}},{"type":"Feature","geometry":{"type":"Point","coordinates":[12.33835,45.43411]},"properties":{"id":"pmb261","title":"Piazza San Marco","lat":"45.43411","lon":"12.33835","timestamp":["1927-04-27"],"importance":1,"wikipedia":"https://de.wikipedia.org/wiki/Markusplatz","wikidata":"http://www.wikidata.org/entity/Q217527","geonames":"https://sws.geonames.org/3229870/","abbr":"S.SQR","type":"Platz"}},{"type":"Feature","geometry":{"type":"Point","coordinates":[12.338208333333334,45.433675]},"properties":{"id":"pmb232856","title":"Caffè Florian","lat":"45.433675","lon":"12.338208333333334","timestamp":["1927-04-27"],"importance":1,"wikipedia":"https://de.wikipedia.org/wiki/Caff%C3%A8_Florian","wikidata":"http://www.wikidata.org/entity/Q960610","abbr":"Kaffeehaus (K.KAF)","type":"Kaffeehaus"}},{"type":"Feature","geometry":{"type":"Point","coordinates":[12.32768,45.4378]},"properties":{"id":"pmb246656","title":"Casa Mahler","lat":"45.4378","lon":"12.32768","timestamp":["1927-04-27"],"importance":1,"abbr":"Wohngebäude (K.WHS)","type":"Wohngebäude","wohnort":[{"p_name":"Alma Maria Mahler-Werfel","p_id":"#12160"}]}},{"type":"Feature","geometry":{"type":"Point","coordinates":[12.32858,45.43879]},"properties":{"id":"pmb246661","title":"Campo Sant’Agostin 2545","lat":"45.43879","lon":"12.32858","timestamp":["1927-04-27"],"importance":1,"abbr":"Wohngebäude (K.WHS)","type":"Wohngebäude","wohnort":[{"p_name":"Arnoldo Cappellini","p_id":"#14850"},{"p_name":"Lili Cappellini","p_id":"#2238"}]}},{"type":"Feature","geometry":{"type":"Point","coordinates":[12.3334661,45.433844]},"properties":{"id":"pmb247625","title":"Taverna La Fenice","lat":"45.433844","lon":"12.3334661","timestamp":["1927-04-27"],"importance":1,"abbr":"Gastgewerbegebäude (K.GGW)","type":"Gastgewerbegebäude"}}],"hierarchy":[{"id":"pmb462","name":"Venedig","children":[{"id":"pmb260","name":"Hotel Bonvecchiati","children":[]},{"id":"pmb261","name":"Piazza San Marco","children":[]},{"id":"pmb232856","name":"Caffè Florian","children":[]},{"id":"pmb246656","name":"Casa Mahler","children":[]},{"id":"pmb246661","name":"Campo Sant’Agostin 2545","children":[]},{"id":"pmb247625","name":"Taverna La Fenice","children":[]}]}]}