{"type":"FeatureCollection","features":[{"type":"Feature","geometry":{"type":"LineString","coordinates":[[12.366944,45.403889],[12.33669,45.44127],[12.339027777777778,45.43402777777778],[12.33835,45.43411],[12.338208333333334,45.433675],[12.336047,45.435282]]},"properties":{"name":"28. April 1927"}},{"type":"Feature","geometry":{"type":"Point","coordinates":[12.336047,45.435282]},"properties":{"id":"pmb260","title":"Hotel Bonvecchiati","lat":"45.435282","lon":"12.336047","timestamp":["1927-04-28"],"importance":1,"wikidata":"http://www.wikidata.org/entity/Q111412860","abbr":"Hotel (K.HTL)","type":"Hotel"}},{"type":"Feature","geometry":{"type":"Point","coordinates":[12.366944,45.403889]},"properties":{"id":"pmb46831","title":"Grand Hotel Excelsior [Lido]","lat":"45.403889","lon":"12.366944","timestamp":["1927-04-28"],"importance":1,"wikipedia":"https://de.wikipedia.org/wiki/Grand_Hotel_Excelsior_(Venedig)","wikidata":"http://www.wikidata.org/entity/Q1542590","abbr":"Hotel (K.HTL)","type":"Hotel"}},{"type":"Feature","geometry":{"type":"Point","coordinates":[12.339027777777778,45.43402777777778]},"properties":{"id":"pmb247630","title":"Campanile di San Marco","lat":"45.43402777777778","lon":"12.339027777777778","timestamp":["1927-04-28"],"importance":1,"wikipedia":"https://de.wikipedia.org/wiki/Markusturm_(Venedig)","wikidata":"http://www.wikidata.org/entity/Q754194","geonames":"https://sws.geonames.org/7910625/","abbr":"S.TOWR","type":"Turm"}},{"type":"Feature","geometry":{"type":"Point","coordinates":[12.33669,45.44127]},"properties":{"id":"pmb247602","title":"Hotel Giorgione","lat":"45.44127","lon":"12.33669","timestamp":["1927-04-28"],"importance":1,"abbr":"Hotel (K.HTL)","type":"Hotel"}},{"type":"Feature","geometry":{"type":"Point","coordinates":[12.338208333333334,45.433675]},"properties":{"id":"pmb232856","title":"Caffè Florian","lat":"45.433675","lon":"12.338208333333334","timestamp":["1927-04-28"],"importance":1,"wikipedia":"https://de.wikipedia.org/wiki/Caff%C3%A8_Florian","wikidata":"http://www.wikidata.org/entity/Q960610","abbr":"Kaffeehaus (K.KAF)","type":"Kaffeehaus"}},{"type":"Feature","geometry":{"type":"Point","coordinates":[12.33835,45.43411]},"properties":{"id":"pmb261","title":"Piazza San Marco","lat":"45.43411","lon":"12.33835","timestamp":["1927-04-28"],"importance":1,"wikipedia":"https://de.wikipedia.org/wiki/Markusplatz","wikidata":"http://www.wikidata.org/entity/Q217527","geonames":"https://sws.geonames.org/3229870/","abbr":"S.SQR","type":"Platz"}}],"hierarchy":[{"id":"pmb462","name":"Venedig","children":[{"id":"pmb260","name":"Hotel Bonvecchiati","children":[]},{"id":"pmb259","name":"Lido","children":[{"id":"pmb46831","name":"Grand Hotel Excelsior [Lido]","children":[]}]},{"id":"pmb247630","name":"Campanile di San Marco","children":[]},{"id":"pmb247602","name":"Hotel Giorgione","children":[]},{"id":"pmb232856","name":"Caffè Florian","children":[]},{"id":"pmb261","name":"Piazza San Marco","children":[]}]}]}