{"type":"FeatureCollection","features":[{"type":"Feature","geometry":{"type":"LineString","coordinates":[[16.11437,48.13047],[16.130278,48.055278],[16.24801,48.08509],[16.2652,48.080769],[16.402222,48.214722],[16.395442,48.217178],[16.39347,48.21854],[16.364586,48.216445],[16.33716,48.23188],[16.291944,48.233333],[16.08333,48.18333]]},"properties":{"name":"15. Mai 1928"}},{"type":"Feature","geometry":{"type":"Point","coordinates":[16.402222,48.214722]},"properties":{"id":"pmb685","title":"Wurstelprater","lat":"48.214722","lon":"16.402222","timestamp":["1928-05-15"],"importance":1,"wikipedia":"https://de.wikipedia.org/wiki/Wurstelprater","wiengeschichtewiki":"https://www.geschichtewiki.wien.gv.at/Special:URIResolver/?curid=10997","wikidata":"http://www.wikidata.org/entity/Q3487269","abbr":"Vergnügungspark (K.VGN)","type":"Vergnügungspark"}},{"type":"Feature","geometry":{"type":"Point","coordinates":[16.395442,48.217178]},"properties":{"id":"pmb185318","title":"Restauration Prochaska","lat":"48.217178","lon":"16.395442","timestamp":["1928-05-15"],"importance":1,"abbr":"S.REST","type":"Restaurant"}},{"type":"Feature","geometry":{"type":"Point","coordinates":[16.39347,48.21854]},"properties":{"id":"pmb185914","title":"Zirkus Busch","lat":"48.21854","lon":"16.39347","timestamp":["1928-05-15"],"importance":1,"wiengeschichtewiki":"https://www.geschichtewiki.wien.gv.at/Zirkus_Busch_Kino","wikidata":"http://www.wikidata.org/entity/Q98109954","abbr":"Theater (K.THE)","type":"Theater"}},{"type":"Feature","geometry":{"type":"Point","coordinates":[16.291944,48.233333]},"properties":{"id":"pmb170","title":"Neuwaldegg","lat":"48.233333","lon":"16.291944","timestamp":["1928-05-15"],"importance":1,"geonames":"https://sws.geonames.org/2770640/","abbr":"P.PPLX","type":"Ehemaliger Ort"}},{"type":"Feature","geometry":{"type":"Point","coordinates":[16.364586,48.216445]},"properties":{"id":"pmb185644","title":"Peregringasse 4","lat":"48.216445","lon":"16.364586","timestamp":["1928-05-15"],"importance":1,"abbr":"Wohngebäude (K.WHS)","type":"Wohngebäude","wohnort":[{"p_name":"Clara Katharina Pollaczek","p_id":"#12435"},{"p_name":"Clara Katharina Pollaczek","p_id":"#12435"},{"p_name":"Clara Katharina Pollaczek","p_id":"#12435"},{"p_name":"Louis Loeb","p_id":"#20548"}]}},{"type":"Feature","geometry":{"type":"Point","coordinates":[16.33716,48.23188]},"properties":{"id":"pmb168815","title":"Sternwartestraße 71","lat":"48.23188","lon":"16.33716","timestamp":["1928-05-15"],"importance":1,"abbr":"Wohngebäude (K.WHS)","type":"Wohngebäude","wohnort":[{"p_name":"Alexander Römpler","p_id":"#12595"},{"p_name":"Hedwig Bleibtreu","p_id":"#10959"},{"p_name":"Arthur Schnitzler","p_id":""},{"p_name":"Heinrich Schnitzler","p_id":"#12692"},{"p_name":"Lili Cappellini","p_id":"#2238"},{"p_name":"Olga Schnitzler","p_id":"#2173"}],"arbeitsort":[{"p_name":"Josefine Schipper","p_id":"#24194"},{"p_name":"Anna Haselmayer","p_id":"#17901"},{"p_name":"Paula ","p_id":"#22399"},{"p_name":"Anna ","p_id":"#13428"},{"p_name":"Elisabeth Jacobus","p_id":"#18732"}]}},{"type":"Feature","geometry":{"type":"Point","coordinates":[16.130278,48.055278]},"properties":{"id":"pmb44789","title":"Stift Heiligenkreuz","lat":"48.055278","lon":"16.130278","timestamp":["1928-05-15"],"importance":1,"abbr":"Gebäude (K.GBD)","type":"Gebäude"}},{"type":"Feature","geometry":{"type":"Point","coordinates":[16.11437,48.13047]},"properties":{"id":"pmb90889","title":"Hochroterd","lat":"48.13047","lon":"16.11437","timestamp":["1928-05-15"],"importance":1,"geonames":"https://sws.geonames.org/2775967/","abbr":"P.PPL","type":"Besiedelter Ort"}},{"type":"Feature","geometry":{"type":"Point","coordinates":[16.24801,48.08509]},"properties":{"id":"pmb44413","title":"Brühl","lat":"48.08509","lon":"16.24801","timestamp":["1928-05-15"],"importance":1,"abbr":"Tal (N.TAL)","type":"Tal"}},{"type":"Feature","geometry":{"type":"Point","coordinates":[16.08333,48.18333]},"properties":{"id":"pmb44271","title":"Pressbaum","lat":"48.18333","lon":"16.08333","timestamp":["1928-05-15"],"importance":1,"geonames":"https://sws.geonames.org/2768348/","abbr":"P.PPLA3","type":"Hauptstadt"}},{"type":"Feature","geometry":{"type":"Point","coordinates":[16.2652,48.080769]},"properties":{"id":"pmb192771","title":"Hotel Hajek","lat":"48.080769","lon":"16.2652","timestamp":["1928-05-15"],"importance":1,"wikidata":"http://www.wikidata.org/entity/Q130472316","abbr":"Hotel (K.HTL)","type":"Hotel"}}],"hierarchy":[{"id":"pmb50","name":"Wien","children":[{"id":"pmb52","name":"II., Leopoldstadt","children":[{"id":"pmb8","name":"Prater","children":[{"id":"pmb685","name":"Wurstelprater","children":[]},{"id":"pmb185318","name":"Restauration Prochaska","children":[]},{"id":"pmb185914","name":"Zirkus Busch","children":[]}]}]},{"id":"pmb67","name":"XVII., Hernals","children":[{"id":"pmb170","name":"Neuwaldegg","children":[]}]},{"id":"pmb68","name":"XVIII., Währing","children":[{"id":"pmb185644","name":"Peregringasse 4","children":[]},{"id":"pmb168815","name":"Sternwartestraße 71","children":[]}]}]},{"id":"pmb939","name":"Heiligenkreuz","children":[{"id":"pmb44789","name":"Stift Heiligenkreuz","children":[]}]},{"id":"pmb90889","name":"Hochroterd","children":[]},{"id":"pmb44413","name":"Brühl","children":[]},{"id":"pmb44271","name":"Pressbaum","children":[]},{"id":"pmb968","name":"Mödling","children":[{"id":"pmb192771","name":"Hotel Hajek","children":[]},{"id":"pmb246962","name":"Königswiese","children":[]}]}]}