{"type":"FeatureCollection","features":[{"type":"Feature","geometry":{"type":"LineString","coordinates":[[13.331377,52.486833],[13.36821,52.50982],[13.374444,52.51],[13.39333,52.51483],[13.38832,52.51699],[13.41212,52.58777]]},"properties":{"name":"30. Dezember 1929"}},{"type":"Feature","geometry":{"type":"Point","coordinates":[13.374444,52.51]},"properties":{"id":"pmb245","title":"Hotel Esplanade [Berlin]","lat":"52.51","lon":"13.374444","timestamp":["1929-12-30"],"importance":1,"wikipedia":"https://de.wikipedia.org/wiki/Hotel_Esplanade_(Berlin)","wikidata":"http://www.wikidata.org/entity/Q321562","abbr":"Hotel (K.HTL)","type":"Hotel"}},{"type":"Feature","geometry":{"type":"Point","coordinates":[13.38832,52.51699]},"properties":{"id":"pmb216","title":"Unter den Linden","lat":"52.51699","lon":"13.38832","timestamp":["1929-12-30"],"importance":1,"wikipedia":"https://de.wikipedia.org/wiki/Unter_den_Linden","wikidata":"http://www.wikidata.org/entity/Q160899","geonames":"https://sws.geonames.org/6691054/","abbr":"P.PPLX","type":"Ehemaliger Ort"}},{"type":"Feature","geometry":{"type":"Point","coordinates":[13.39333,52.51483]},"properties":{"id":"pmb493","title":"Bank für Auswärtigen Handel","lat":"52.51483","lon":"13.39333","timestamp":["1929-12-30"],"importance":1,"abbr":"Bank (K.BNK)","type":"Bank","arbeitsort":[{"p_name":"Franz Karl Feilchenfeld","p_id":"#16125"}]}},{"type":"Feature","geometry":{"type":"Point","coordinates":[13.36821,52.50982]},"properties":{"id":"pmb233325","title":"Herbert-von-Karajan-Straße 15","lat":"52.50982","lon":"13.36821","timestamp":["1929-12-30"],"importance":1,"abbr":"Wohngebäude (K.WHS)","type":"Wohngebäude","wohnort":[{"p_name":"Olga Schnitzler","p_id":"#2173"}]}},{"type":"Feature","geometry":{"type":"Point","coordinates":[13.41212,52.58777]},"properties":{"id":"pmb144055","title":"Lanzsch & Co.","lat":"52.58777","lon":"13.41212","timestamp":["1929-12-30"],"importance":1,"abbr":"Gastgewerbegebäude (K.GGW)","type":"Gastgewerbegebäude"}},{"type":"Feature","geometry":{"type":"Point","coordinates":[13.331377,52.486833]},"properties":{"id":"pmb237749","title":"Atrium Beba-Palast","lat":"52.486833","lon":"13.331377","timestamp":["1929-12-30"],"importance":1,"abbr":"Kino (K.KNO)","type":"Kino"}}],"hierarchy":[{"id":"pmb168","name":"Berlin","children":[{"id":"pmb245","name":"Hotel Esplanade [Berlin]","children":[]},{"id":"pmb216","name":"Unter den Linden","children":[]},{"id":"pmb493","name":"Bank für Auswärtigen Handel","children":[]},{"id":"pmb233325","name":"Herbert-von-Karajan-Straße 15","children":[]},{"id":"pmb144055","name":"Lanzsch & Co.","children":[]},{"id":"pmb237749","name":"Atrium Beba-Palast","children":[]}]}]}