{"type":"FeatureCollection","features":[{"type":"Feature","geometry":{"type":"LineString","coordinates":[[6.1036,46.2574],[6.147915,46.204354],[6.92654,46.39869],[6.9237,46.4256],[6.5893333333333,46.401333333333]]},"properties":{"name":"4. September 1929"}},{"type":"Feature","geometry":{"type":"Point","coordinates":[6.9237,46.4256]},"properties":{"id":"pmb53208","title":"Hôtel des Alpes-Grand Hôtel","lat":"46.4256","lon":"6.9237","timestamp":["1929-09-04"],"importance":1,"abbr":"Hotel (K.HTL)","type":"Hotel"}},{"type":"Feature","geometry":{"type":"Point","coordinates":[6.147915,46.204354]},"properties":{"id":"pmb236932","title":"Restaurant Du Nord [Genf]","lat":"46.204354","lon":"6.147915","timestamp":["1929-09-04"],"importance":1,"abbr":"Gastgewerbegebäude (K.GGW)","type":"Gastgewerbegebäude"}},{"type":"Feature","geometry":{"type":"Point","coordinates":[6.1036,46.2574]},"properties":{"id":"pmb299057","title":"Château de Voltaire","lat":"46.2574","lon":"6.1036","timestamp":["1929-09-04"],"importance":1,"wikidata":"http://www.wikidata.org/entity/Q2969210","abbr":"Schloss (K.SLS)","type":"Schloss"}},{"type":"Feature","geometry":{"type":"Point","coordinates":[6.5893333333333,46.401333333333]},"properties":{"id":"pmb236935","title":"Casino d’Évian","lat":"46.401333333333","lon":"6.5893333333333","timestamp":["1929-09-04"],"importance":1,"wikidata":"http://www.wikidata.org/entity/Q28494919","abbr":"Casino","type":"Casino"}},{"type":"Feature","geometry":{"type":"Point","coordinates":[6.92654,46.39869]},"properties":{"id":"pmb92015","title":"Villeneuve","lat":"46.39869","lon":"6.92654","timestamp":["1929-09-04"],"importance":1,"geonames":"https://sws.geonames.org/2658123/","abbr":"P.PPL","type":"Besiedelter Ort"}}],"hierarchy":[{"id":"pmb52051","name":"Territet","children":[{"id":"pmb53208","name":"Hôtel des Alpes-Grand Hôtel","children":[]}]},{"id":"pmb562","name":"Genf","children":[{"id":"pmb236932","name":"Restaurant Du Nord [Genf]","children":[]}]},{"id":"pmb90623","name":"Ferney-Voltaire","children":[{"id":"pmb299057","name":"Château de Voltaire","children":[]}]},{"id":"pmb90607","name":"Évian-les-Bains","children":[{"id":"pmb236935","name":"Casino d’Évian","children":[]}]},{"id":"pmb92015","name":"Villeneuve","children":[]}]}