{"type":"FeatureCollection","features":[{"type":"Feature","geometry":{"type":"LineString","coordinates":[[13.28135,52.45014],[13.374444,52.51],[13.366666,52.516666],[13.33465,52.50422],[13.32321,52.50189]]},"properties":{"name":"22. März 1929"}},{"type":"Feature","geometry":{"type":"Point","coordinates":[13.374444,52.51]},"properties":{"id":"pmb245","title":"Hotel Esplanade [Berlin]","lat":"52.51","lon":"13.374444","timestamp":["1929-03-22"],"importance":1,"wikipedia":"https://de.wikipedia.org/wiki/Hotel_Esplanade_(Berlin)","wikidata":"http://www.wikidata.org/entity/Q321562","abbr":"Hotel (K.HTL)","type":"Hotel"}},{"type":"Feature","geometry":{"type":"Point","coordinates":[13.366666,52.516666]},"properties":{"id":"pmb36914","title":"Tiergarten","lat":"52.516666","lon":"13.366666","timestamp":["1929-03-22"],"importance":1,"wikipedia":"https://de.wikipedia.org/wiki/Berlin-Tiergarten","wikidata":"http://www.wikidata.org/entity/Q328672","geonames":"https://sws.geonames.org/2822224/","abbr":"P.PPLX","type":"Ehemaliger Ort"}},{"type":"Feature","geometry":{"type":"Point","coordinates":[13.28135,52.45014]},"properties":{"id":"pmb235968","title":"Faradayweg 16","lat":"52.45014","lon":"13.28135","timestamp":["1929-03-22"],"importance":1,"abbr":"Straße (K.STR)","type":"Straße","wohnort":[{"p_name":"Elisabeth Bergner","p_id":"#10886"}]}},{"type":"Feature","geometry":{"type":"Point","coordinates":[13.33465,52.50422]},"properties":{"id":"pmb235978","title":"Zum Austernmeyer","lat":"52.50422","lon":"13.33465","timestamp":["1929-03-22"],"importance":1,"abbr":"Gastgewerbegebäude (K.GGW)","type":"Gastgewerbegebäude"}},{"type":"Feature","geometry":{"type":"Point","coordinates":[13.32321,52.50189]},"properties":{"id":"pmb235972","title":"Die Komödie [Berlin]","lat":"52.50189","lon":"13.32321","timestamp":["1929-03-22"],"importance":1,"abbr":"Theater (K.THE)","type":"Theater"}}],"hierarchy":[{"id":"pmb168","name":"Berlin","children":[{"id":"pmb245","name":"Hotel Esplanade [Berlin]","children":[]},{"id":"pmb36914","name":"Tiergarten","children":[]},{"id":"pmb90508","name":"Dahlem","children":[{"id":"pmb92232","name":"Faradayweg","children":[{"id":"pmb235968","name":"Faradayweg 16","children":[]}]}]},{"id":"pmb235968","name":"Faradayweg 16","children":[]},{"id":"pmb235978","name":"Zum Austernmeyer","children":[]},{"id":"pmb235972","name":"Die Komödie [Berlin]","children":[]}]}]}