{"type":"FeatureCollection","features":[{"type":"Feature","geometry":{"type":"LineString","coordinates":[[13.318595,52.51421],[13.36821,52.50982],[13.374444,52.51],[13.3792,52.515],[13.41212,52.58777]]},"properties":{"name":"20. März 1929"}},{"type":"Feature","geometry":{"type":"Point","coordinates":[13.374444,52.51]},"properties":{"id":"pmb245","title":"Hotel Esplanade [Berlin]","lat":"52.51","lon":"13.374444","timestamp":["1929-03-20"],"importance":1,"wikipedia":"https://de.wikipedia.org/wiki/Hotel_Esplanade_(Berlin)","wikidata":"http://www.wikidata.org/entity/Q321562","abbr":"Hotel (K.HTL)","type":"Hotel"}},{"type":"Feature","geometry":{"type":"Point","coordinates":[13.36821,52.50982]},"properties":{"id":"pmb233325","title":"Herbert-von-Karajan-Straße 15","lat":"52.50982","lon":"13.36821","timestamp":["1929-03-20"],"importance":1,"abbr":"Wohngebäude (K.WHS)","type":"Wohngebäude","wohnort":[{"p_name":"Olga Schnitzler","p_id":"#2173"}]}},{"type":"Feature","geometry":{"type":"Point","coordinates":[13.41212,52.58777]},"properties":{"id":"pmb144055","title":"Lanzsch & Co.","lat":"52.58777","lon":"13.41212","timestamp":["1929-03-20"],"importance":1,"abbr":"Gastgewerbegebäude (K.GGW)","type":"Gastgewerbegebäude"}},{"type":"Feature","geometry":{"type":"Point","coordinates":[13.318595,52.51421]},"properties":{"id":"pmb1058","title":"Tribüne","lat":"52.51421","lon":"13.318595","timestamp":["1929-03-20"],"importance":1,"wikipedia":"https://de.wikipedia.org/wiki/Trib%C3%BCne_(Theater)","wikidata":"http://www.wikidata.org/entity/Q2452572","abbr":"Theater (K.THE)","type":"Theater"}},{"type":"Feature","geometry":{"type":"Point","coordinates":[13.3792,52.515]},"properties":{"id":"pmb235952","title":"Palais Arnim","lat":"52.515","lon":"13.3792","timestamp":["1929-03-20"],"importance":1,"wikipedia":"https://de.wikipedia.org/wiki/Palais_Arnim","wikidata":"http://www.wikidata.org/entity/Q1625999","abbr":"Gebäude (K.GBD)","type":"Gebäude"}}],"hierarchy":[{"id":"pmb168","name":"Berlin","children":[{"id":"pmb245","name":"Hotel Esplanade [Berlin]","children":[]},{"id":"pmb233325","name":"Herbert-von-Karajan-Straße 15","children":[]},{"id":"pmb144055","name":"Lanzsch & Co.","children":[]},{"id":"pmb1058","name":"Tribüne","children":[]},{"id":"pmb235952","name":"Palais Arnim","children":[]}]}]}