{"type":"FeatureCollection","features":[{"type":"Feature","geometry":{"type":"LineString","coordinates":[[12.60558333,50.00430556],[12.60558333,50.00430556],[12.702923,49.976424],[12.70919,49.97665],[12.73279,50.05007],[12.66793,50.02569]]},"properties":{"name":"30. August 1930"}},{"type":"Feature","geometry":{"type":"Point","coordinates":[12.70919,49.97665]},"properties":{"id":"pmb236965","title":"Grand Hotel Marienbad","lat":"49.97665","lon":"12.70919","timestamp":["1930-08-30"],"importance":1,"abbr":"Hotel (K.HTL)","type":"Hotel"}},{"type":"Feature","geometry":{"type":"Point","coordinates":[12.66793,50.02569]},"properties":{"id":"pmb244333","title":"Jagdschloss Kladská","lat":"50.02569","lon":"12.66793","timestamp":["1930-08-30"],"importance":1,"abbr":"Schloss (K.SLS)","type":"Schloss"}},{"type":"Feature","geometry":{"type":"Point","coordinates":[12.702923,49.976424]},"properties":{"id":"pmb200866","title":"Hotel Neptun","lat":"49.976424","lon":"12.702923","timestamp":["1930-08-30"],"importance":1,"abbr":"Hotel (K.HTL)","type":"Hotel"}},{"type":"Feature","geometry":{"type":"Point","coordinates":[12.73279,50.05007]},"properties":{"id":"pmb91655","title":"Prameny","lat":"50.05007","lon":"12.73279","timestamp":["1930-08-30"],"importance":1,"geonames":"https://sws.geonames.org/3067688/","abbr":"P.PPL","type":"Besiedelter Ort"}},{"type":"Feature","geometry":{"type":"Point","coordinates":[12.60558333,50.00430556]},"properties":{"id":"pmb244327","title":"Schlossmuseum Kynžvart","lat":"50.00430556","lon":"12.60558333","timestamp":["1930-08-30"],"importance":1,"abbr":"Museum (K.MUS)","type":"Museum"}},{"type":"Feature","geometry":{"type":"Point","coordinates":[12.60558333,50.00430556]},"properties":{"id":"pmb244330","title":"Schlosspark Kynžvart","lat":"50.00430556","lon":"12.60558333","timestamp":["1930-08-30"],"importance":1,"abbr":"Park (K.PRK)","type":"Park"}}],"hierarchy":[{"id":"pmb772","name":"Marienbad","children":[{"id":"pmb236965","name":"Grand Hotel Marienbad","children":[]},{"id":"pmb92257","name":"Kladská","children":[{"id":"pmb244333","name":"Jagdschloss Kladská","children":[]}]},{"id":"pmb200866","name":"Hotel Neptun","children":[]}]},{"id":"pmb91655","name":"Prameny","children":[]},{"id":"pmb59010","name":"Lázně Kynžvart","children":[{"id":"pmb244321","name":"Synagoge [Lázně Kynžvart]","children":[]},{"id":"pmb244324","name":"Schloss Kynžvart","children":[{"id":"pmb244327","name":"Schlossmuseum Kynžvart","children":[]}]},{"id":"pmb244330","name":"Schlosspark Kynžvart","children":[]}]}]}