{
  "type": "FeatureCollection",
  "features": [
    {
      "type": "Feature",
      "geometry": {
        "type": "Point",
        "coordinates": [16.375, 48.205139]
      },
      "properties": {
         "id": "pmb19",
         "title": "Ronacher",
         "lat": "48.205139",
         "lon": "16.375",
         "timestamp": ["1876-03-15", "1876-04-27", "1876-05-08", "1876-10-04", "1876-11-09", "1876-12-06"],
         "importance": "6"
      }
      }, 
    {
      "type": "Feature",
      "geometry": {
        "type": "Point",
        "coordinates": [16.373056, 48.208333]
      },
      "properties": {
         "id": "pmb50",
         "title": "Wien",
         "lat": "48.208333",
         "lon": "16.373056",
         "timestamp": ["1876-03-15", "1876-04-02", "1876-04-27", "1876-05-08", "1876-06-29", "1876-09-01", "1876-09-03", "1876-09-05", "1876-09-07", "1876-09-09", "1876-09-10", "1876-10-04", "1876-11-05", "1876-11-09", "1876-11-26", "1876-11-27", "1876-12-06"],
         "importance": "17"
      }
      }, 
    {
      "type": "Feature",
      "geometry": {
        "type": "Point",
        "coordinates": [16.363819, 48.20334]
      },
      "properties": {
         "id": "pmb168765",
         "title": "Wohnung und Ordination Johann Schnitzler Burgring 1",
         "lat": "48.20334",
         "lon": "16.363819",
         "timestamp": ["1876-03-15", "1876-04-02", "1876-04-27", "1876-05-08", "1876-06-29", "1876-09-01", "1876-09-03", "1876-09-05", "1876-09-07", "1876-09-09", "1876-09-10", "1876-10-04", "1876-11-05", "1876-11-09", "1876-11-26", "1876-11-27", "1876-12-06"],
         "importance": "17"
      }
      }, 
    {
      "type": "Feature",
      "geometry": {
        "type": "Point",
        "coordinates": [16.372564182283, 48.201265597319]
      },
      "properties": {
         "id": "pmb516",
         "title": "Musikverein",
         "lat": "48.201265597319",
         "lon": "16.372564182283",
         "timestamp": ["1876-04-02", "1876-11-05"],
         "importance": "2"
      }
      }, 
    {
      "type": "Feature",
      "geometry": {
        "type": "Point",
        "coordinates": [16.3691, 48.203]
      },
      "properties": {
         "id": "pmb15",
         "title": "Oper",
         "lat": "48.203",
         "lon": "16.3691",
         "timestamp": ["1876-06-29", "1876-09-10"],
         "importance": "2"
      }
      }, 
    {
      "type": "Feature",
      "geometry": {
        "type": "Point",
        "coordinates": [16.36645, 48.20778]
      },
      "properties": {
         "id": "pmb185621",
         "title": "Burgtheater [Altes Burgtheater]",
         "lat": "48.20778",
         "lon": "16.36645",
         "timestamp": ["1876-09-01", "1876-09-03", "1876-09-05", "1876-09-07", "1876-09-09"],
         "importance": "5"
      }
      }, 
    {
      "type": "Feature",
      "geometry": {
        "type": "Point",
        "coordinates": [16.351111, 48.209583]
      },
      "properties": {
         "id": "pmb40",
         "title": "Theater in der Josefstadt",
         "lat": "48.209583",
         "lon": "16.351111",
         "timestamp": ["1876-11-26"],
         "importance": "1"
      }
      }, 
    {
      "type": "Feature",
      "geometry": {
        "type": "Point",
        "coordinates": [16.3708, 48.2103]
      },
      "properties": {
         "id": "pmb185854",
         "title": "Strampfer-Theater",
         "lat": "48.2103",
         "lon": "16.3708",
         "timestamp": ["1876-11-27"],
         "importance": "1"
      }
      }
  ]
}