{
  "type": "FeatureCollection",
  "features": [
    {
      "type": "Feature",
      "geometry": {
        "type": "Point",
        "coordinates": [16.375, 48.205139]
      },
      "properties": {
         "id": "pmb19",
         "title": "Ronacher",
         "lat": "48.205139",
         "lon": "16.375",
         "timestamp": ["1880-02-27"],
         "importance": "1"
      }
      }, 
    {
      "type": "Feature",
      "geometry": {
        "type": "Point",
        "coordinates": [16.372564182283, 48.201265597319]
      },
      "properties": {
         "id": "pmb516",
         "title": "Musikverein",
         "lat": "48.201265597319",
         "lon": "16.372564182283",
         "timestamp": ["1880-02-02"],
         "importance": "1"
      }
      }, 
    {
      "type": "Feature",
      "geometry": {
        "type": "Point",
        "coordinates": [16.3691, 48.203]
      },
      "properties": {
         "id": "pmb15",
         "title": "Oper",
         "lat": "48.203",
         "lon": "16.3691",
         "timestamp": ["1880-02-25"],
         "importance": "1"
      }
      }, 
    {
      "type": "Feature",
      "geometry": {
        "type": "Point",
        "coordinates": [16.373056, 48.208333]
      },
      "properties": {
         "id": "pmb50",
         "title": "Wien",
         "lat": "48.208333",
         "lon": "16.373056",
         "timestamp": ["1880-02-01", "1880-02-02", "1880-02-03", "1880-02-04", "1880-02-05", "1880-02-06", "1880-02-07", "1880-02-08", "1880-02-09", "1880-02-10", "1880-02-11", "1880-02-12", "1880-02-13", "1880-02-14", "1880-02-15", "1880-02-16", "1880-02-17", "1880-02-18", "1880-02-19", "1880-02-20", "1880-02-21", "1880-02-22", "1880-02-23", "1880-02-24", "1880-02-25", "1880-02-26", "1880-02-27", "1880-02-28", "1880-02-29"],
         "importance": "29"
      }
      }, 
    {
      "type": "Feature",
      "geometry": {
        "type": "Point",
        "coordinates": [16.378601, 48.207326]
      },
      "properties": {
         "id": "pmb182554",
         "title": "Tanzschule Crombé",
         "lat": "48.207326",
         "lon": "16.378601",
         "timestamp": ["1880-02-02", "1880-02-15"],
         "importance": "2"
      }
      }, 
    {
      "type": "Feature",
      "geometry": {
        "type": "Point",
        "coordinates": [16.365278, 48.210278]
      },
      "properties": {
         "id": "pmb262",
         "title": "Café Central",
         "lat": "48.210278",
         "lon": "16.365278",
         "timestamp": ["1880-02-13", "1880-02-28"],
         "importance": "2"
      }
      }, 
    {
      "type": "Feature",
      "geometry": {
        "type": "Point",
        "coordinates": [16.373124, 48.216053]
      },
      "properties": {
         "id": "pmb92469",
         "title": "Quaipark",
         "lat": "48.216053",
         "lon": "16.373124",
         "timestamp": ["1880-02-03", "1880-02-04", "1880-02-07", "1880-02-10", "1880-02-11", "1880-02-12", "1880-02-13", "1880-02-14", "1880-02-23", "1880-02-24", "1880-02-25", "1880-02-26"],
         "importance": "12"
      }
      }, 
    {
      "type": "Feature",
      "geometry": {
        "type": "Point",
        "coordinates": [16.3713342, 48.2101882]
      },
      "properties": {
         "id": "pmb116",
         "title": "Zum rothen Igel",
         "lat": "48.2101882",
         "lon": "16.3713342",
         "timestamp": ["1880-02-01"],
         "importance": "1"
      }
      }, 
    {
      "type": "Feature",
      "geometry": {
        "type": "Point",
        "coordinates": [16.372398, 48.208898]
      },
      "properties": {
         "id": "pmb34310",
         "title": "Café de l’Europe",
         "lat": "48.208898",
         "lon": "16.372398",
         "timestamp": ["1880-02-03"],
         "importance": "1"
      }
      }, 
    {
      "type": "Feature",
      "geometry": {
        "type": "Point",
        "coordinates": [16.391263, 48.206662]
      },
      "properties": {
         "id": "pmb107",
         "title": "Sofiensäle",
         "lat": "48.206662",
         "lon": "16.391263",
         "timestamp": ["1880-02-06"],
         "importance": "1"
      }
      }, 
    {
      "type": "Feature",
      "geometry": {
        "type": "Point",
        "coordinates": [16.349126146095, 48.197773257011]
      },
      "properties": {
         "id": "pmb267",
         "title": "Hotel Englischer Hof",
         "lat": "48.197773257011",
         "lon": "16.349126146095",
         "timestamp": ["1880-02-08"],
         "importance": "1"
      }
      }, 
    {
      "type": "Feature",
      "geometry": {
        "type": "Point",
        "coordinates": [16.36631, 48.21659]
      },
      "properties": {
         "id": "pmb40992",
         "title": "Maria-Theresienstraße",
         "lat": "48.21659",
         "lon": "16.36631",
         "timestamp": ["1880-02-13"],
         "importance": "1"
      }
      }, 
    {
      "type": "Feature",
      "geometry": {
        "type": "Point",
        "coordinates": [16.36543, 48.21021]
      },
      "properties": {
         "id": "pmb90869",
         "title": "Herrengasse",
         "lat": "48.21021",
         "lon": "16.36543",
         "timestamp": ["1880-02-16"],
         "importance": "1"
      }
      }, 
    {
      "type": "Feature",
      "geometry": {
        "type": "Point",
        "coordinates": [16.36157, 48.20809]
      },
      "properties": {
         "id": "pmb103",
         "title": "Volksgarten",
         "lat": "48.20809",
         "lon": "16.36157",
         "timestamp": ["1880-02-16"],
         "importance": "1"
      }
      }, 
    {
      "type": "Feature",
      "geometry": {
        "type": "Point",
        "coordinates": [16.378011, 48.205565]
      },
      "properties": {
         "id": "pmb182754",
         "title": "Gartenbausäle",
         "lat": "48.205565",
         "lon": "16.378011",
         "timestamp": ["1880-02-17"],
         "importance": "1"
      }
      }
  ]
}