{
  "type": "FeatureCollection",
  "features": [
    {
      "type": "Feature",
      "geometry": {
        "type": "Point",
        "coordinates": [16.373056, 48.208333]
      },
      "properties": {
         "id": "pmb50",
         "title": "Wien",
         "lat": "48.208333",
         "lon": "16.373056",
         "timestamp": ["1880-01-01", "1880-01-02", "1880-01-03", "1880-01-04", "1880-01-05", "1880-01-06", "1880-01-07", "1880-01-08", "1880-01-09", "1880-01-10", "1880-01-11", "1880-01-12", "1880-01-13", "1880-01-14", "1880-01-15", "1880-01-16", "1880-01-17", "1880-01-18", "1880-01-19", "1880-01-20", "1880-01-21", "1880-01-22", "1880-01-23", "1880-01-24", "1880-01-25", "1880-01-26", "1880-01-27", "1880-01-28", "1880-01-29", "1880-01-30", "1880-01-31"],
         "importance": "31"
      }
      }, 
    {
      "type": "Feature",
      "geometry": {
        "type": "Point",
        "coordinates": [16.363819, 48.20334]
      },
      "properties": {
         "id": "pmb168765",
         "title": "Wohnung und Ordination Johann Schnitzler Burgring 1",
         "lat": "48.20334",
         "lon": "16.363819",
         "timestamp": ["1880-01-01", "1880-01-02", "1880-01-03", "1880-01-04", "1880-01-05", "1880-01-06", "1880-01-07", "1880-01-08", "1880-01-09", "1880-01-10", "1880-01-11", "1880-01-12", "1880-01-13", "1880-01-14", "1880-01-15", "1880-01-16", "1880-01-17", "1880-01-18", "1880-01-19", "1880-01-20", "1880-01-21", "1880-01-22", "1880-01-23", "1880-01-24", "1880-01-25", "1880-01-26", "1880-01-27", "1880-01-28", "1880-01-29", "1880-01-30", "1880-01-31"],
         "importance": "31"
      }
      }, 
    {
      "type": "Feature",
      "geometry": {
        "type": "Point",
        "coordinates": [16.3691, 48.203]
      },
      "properties": {
         "id": "pmb15",
         "title": "Oper",
         "lat": "48.203",
         "lon": "16.3691",
         "timestamp": ["1880-01-26"],
         "importance": "1"
      }
      }, 
    {
      "type": "Feature",
      "geometry": {
        "type": "Point",
        "coordinates": [16.36645, 48.20778]
      },
      "properties": {
         "id": "pmb185621",
         "title": "Burgtheater [Altes Burgtheater]",
         "lat": "48.20778",
         "lon": "16.36645",
         "timestamp": ["1880-01-01", "1880-01-02", "1880-01-03", "1880-01-04", "1880-01-05", "1880-01-06", "1880-01-07", "1880-01-15"],
         "importance": "8"
      }
      }, 
    {
      "type": "Feature",
      "geometry": {
        "type": "Point",
        "coordinates": [16.384444, 48.215]
      },
      "properties": {
         "id": "pmb118",
         "title": "Carl-Theater",
         "lat": "48.215",
         "lon": "16.384444",
         "timestamp": ["1880-01-16"],
         "importance": "1"
      }
      }, 
    {
      "type": "Feature",
      "geometry": {
        "type": "Point",
        "coordinates": [16.373664, 48.21475]
      },
      "properties": {
         "id": "pmb40998",
         "title": "Franz-Josefs-Kai",
         "lat": "48.21475",
         "lon": "16.373664",
         "timestamp": ["1880-01-02"],
         "importance": "1"
      }
      }, 
    {
      "type": "Feature",
      "geometry": {
        "type": "Point",
        "coordinates": [16.361139, 48.210333]
      },
      "properties": {
         "id": "pmb14",
         "title": "Burgtheater",
         "lat": "48.210333",
         "lon": "16.361139",
         "timestamp": ["1880-01-07"],
         "importance": "1"
      }
      }, 
    {
      "type": "Feature",
      "geometry": {
        "type": "Point",
        "coordinates": [16.372194, 48.202111]
      },
      "properties": {
         "id": "pmb255",
         "title": "Grand Hotel Wien",
         "lat": "48.202111",
         "lon": "16.372194",
         "timestamp": ["1880-01-17"],
         "importance": "1"
      }
      }, 
    {
      "type": "Feature",
      "geometry": {
        "type": "Point",
        "coordinates": [16.365278, 48.210278]
      },
      "properties": {
         "id": "pmb262",
         "title": "Café Central",
         "lat": "48.210278",
         "lon": "16.365278",
         "timestamp": ["1880-01-19"],
         "importance": "1"
      }
      }, 
    {
      "type": "Feature",
      "geometry": {
        "type": "Point",
        "coordinates": [16.373124, 48.216053]
      },
      "properties": {
         "id": "pmb92469",
         "title": "Quaipark",
         "lat": "48.216053",
         "lon": "16.373124",
         "timestamp": ["1880-01-19", "1880-01-21", "1880-01-22", "1880-01-28", "1880-01-29", "1880-01-30"],
         "importance": "6"
      }
      }, 
    {
      "type": "Feature",
      "geometry": {
        "type": "Point",
        "coordinates": [16.37547, 48.2644]
      },
      "properties": {
         "id": "pmb90538",
         "title": "Neue Donau",
         "lat": "48.2644",
         "lon": "16.37547",
         "timestamp": ["1880-01-19"],
         "importance": "1"
      }
      }, 
    {
      "type": "Feature",
      "geometry": {
        "type": "Point",
        "coordinates": [16.387144, 48.198774]
      },
      "properties": {
         "id": "pmb185962",
         "title": "Krischke’s Saal-Localitäten",
         "lat": "48.198774",
         "lon": "16.387144",
         "timestamp": ["1880-01-23"],
         "importance": "1"
      }
      }
  ]
}