{
  "type": "FeatureCollection",
  "features": [
    {
      "type": "Feature",
      "geometry": {
        "type": "Point",
        "coordinates": [16.375, 48.205139]
      },
      "properties": {
         "id": "pmb19",
         "title": "Ronacher",
         "lat": "48.205139",
         "lon": "16.375",
         "timestamp": ["1880-12-06", "1880-12-30"],
         "importance": "2"
      }
      }, 
    {
      "type": "Feature",
      "geometry": {
        "type": "Point",
        "coordinates": [16.373056, 48.208333]
      },
      "properties": {
         "id": "pmb50",
         "title": "Wien",
         "lat": "48.208333",
         "lon": "16.373056",
         "timestamp": ["1880-12-01", "1880-12-02", "1880-12-03", "1880-12-04", "1880-12-05", "1880-12-06", "1880-12-07", "1880-12-08", "1880-12-09", "1880-12-10", "1880-12-11", "1880-12-12", "1880-12-13", "1880-12-14", "1880-12-15", "1880-12-16", "1880-12-17", "1880-12-18", "1880-12-19", "1880-12-20", "1880-12-21", "1880-12-22", "1880-12-23", "1880-12-24", "1880-12-25", "1880-12-26", "1880-12-27", "1880-12-28", "1880-12-29", "1880-12-30", "1880-12-31"],
         "importance": "31"
      }
      }, 
    {
      "type": "Feature",
      "geometry": {
        "type": "Point",
        "coordinates": [16.363819, 48.20334]
      },
      "properties": {
         "id": "pmb168765",
         "title": "Wohnung und Ordination Johann Schnitzler Burgring 1",
         "lat": "48.20334",
         "lon": "16.363819",
         "timestamp": ["1880-12-01", "1880-12-02", "1880-12-03", "1880-12-04", "1880-12-05", "1880-12-06", "1880-12-07", "1880-12-08", "1880-12-09", "1880-12-10", "1880-12-11", "1880-12-12", "1880-12-13", "1880-12-14", "1880-12-15", "1880-12-16", "1880-12-17", "1880-12-18", "1880-12-19", "1880-12-20", "1880-12-21", "1880-12-22", "1880-12-23", "1880-12-24", "1880-12-25", "1880-12-26", "1880-12-27", "1880-12-28", "1880-12-29", "1880-12-30", "1880-12-31"],
         "importance": "31"
      }
      }, 
    {
      "type": "Feature",
      "geometry": {
        "type": "Point",
        "coordinates": [16.384444, 48.215]
      },
      "properties": {
         "id": "pmb118",
         "title": "Carl-Theater",
         "lat": "48.215",
         "lon": "16.384444",
         "timestamp": ["1880-12-15"],
         "importance": "1"
      }
      }, 
    {
      "type": "Feature",
      "geometry": {
        "type": "Point",
        "coordinates": [16.366111, 48.209167]
      },
      "properties": {
         "id": "pmb4",
         "title": "Bösendorfer-Saal",
         "lat": "48.209167",
         "lon": "16.366111",
         "timestamp": ["1880-12-04", "1880-12-09", "1880-12-14"],
         "importance": "3"
      }
      }, 
    {
      "type": "Feature",
      "geometry": {
        "type": "Point",
        "coordinates": [16.365278, 48.210278]
      },
      "properties": {
         "id": "pmb262",
         "title": "Café Central",
         "lat": "48.210278",
         "lon": "16.365278",
         "timestamp": ["1880-12-08"],
         "importance": "1"
      }
      }, 
    {
      "type": "Feature",
      "geometry": {
        "type": "Point",
        "coordinates": [16.378011, 48.205565]
      },
      "properties": {
         "id": "pmb182754",
         "title": "Gartenbausäle",
         "lat": "48.205565",
         "lon": "16.378011",
         "timestamp": ["1880-12-07", "1880-12-29"],
         "importance": "2"
      }
      }, 
    {
      "type": "Feature",
      "geometry": {
        "type": "Point",
        "coordinates": [16.3723242, 48.2081463]
      },
      "properties": {
         "id": "pmb42751",
         "title": "Stephanskeller",
         "lat": "48.2081463",
         "lon": "16.3723242",
         "timestamp": ["1880-12-06"],
         "importance": "1"
      }
      }, 
    {
      "type": "Feature",
      "geometry": {
        "type": "Point",
        "coordinates": [13.41053, 52.52437]
      },
      "properties": {
         "id": "pmb168",
         "title": "Berlin",
         "lat": "52.52437",
         "lon": "13.41053",
         "timestamp": ["1880-12-16"],
         "importance": "1"
      }
      }
  ]
}