{
  "type": "FeatureCollection",
  "features": [
    {
      "type": "Feature",
      "geometry": {
        "type": "Point",
        "coordinates": [16.3691, 48.203]
      },
      "properties": {
         "id": "pmb15",
         "title": "Oper",
         "lat": "48.203",
         "lon": "16.3691",
         "timestamp": ["1880-06-16"],
         "importance": "1"
      }
      }, 
    {
      "type": "Feature",
      "geometry": {
        "type": "Point",
        "coordinates": [16.36645, 48.20778]
      },
      "properties": {
         "id": "pmb185621",
         "title": "Burgtheater [Altes Burgtheater]",
         "lat": "48.20778",
         "lon": "16.36645",
         "timestamp": ["1880-06-05", "1880-06-06", "1880-06-10", "1880-06-14", "1880-06-18", "1880-06-22", "1880-06-30"],
         "importance": "7"
      }
      }, 
    {
      "type": "Feature",
      "geometry": {
        "type": "Point",
        "coordinates": [16.366111, 48.209167]
      },
      "properties": {
         "id": "pmb4",
         "title": "Bösendorfer-Saal",
         "lat": "48.209167",
         "lon": "16.366111",
         "timestamp": ["1880-06-24"],
         "importance": "1"
      }
      }, 
    {
      "type": "Feature",
      "geometry": {
        "type": "Point",
        "coordinates": [16.373056, 48.208333]
      },
      "properties": {
         "id": "pmb50",
         "title": "Wien",
         "lat": "48.208333",
         "lon": "16.373056",
         "timestamp": ["1880-06-01", "1880-06-02", "1880-06-03", "1880-06-04", "1880-06-05", "1880-06-06", "1880-06-07", "1880-06-08", "1880-06-09", "1880-06-10", "1880-06-12", "1880-06-13", "1880-06-14", "1880-06-15", "1880-06-16", "1880-06-17", "1880-06-18", "1880-06-19", "1880-06-21", "1880-06-22", "1880-06-23", "1880-06-24", "1880-06-25", "1880-06-26", "1880-06-27", "1880-06-28", "1880-06-29", "1880-06-30"],
         "importance": "28"
      }
      }, 
    {
      "type": "Feature",
      "geometry": {
        "type": "Point",
        "coordinates": [16.365278, 48.210278]
      },
      "properties": {
         "id": "pmb262",
         "title": "Café Central",
         "lat": "48.210278",
         "lon": "16.365278",
         "timestamp": ["1880-06-01", "1880-06-02", "1880-06-08", "1880-06-14", "1880-06-17"],
         "importance": "5"
      }
      }, 
    {
      "type": "Feature",
      "geometry": {
        "type": "Point",
        "coordinates": [16.36157, 48.20809]
      },
      "properties": {
         "id": "pmb103",
         "title": "Volksgarten",
         "lat": "48.20809",
         "lon": "16.36157",
         "timestamp": ["1880-06-02", "1880-06-04", "1880-06-09", "1880-06-12", "1880-06-21", "1880-06-23"],
         "importance": "6"
      }
      }, 
    {
      "type": "Feature",
      "geometry": {
        "type": "Point",
        "coordinates": [16.430054, 48.194558]
      },
      "properties": {
         "id": "pmb8",
         "title": "Prater",
         "lat": "48.194558",
         "lon": "16.430054",
         "timestamp": ["1880-06-10", "1880-06-14"],
         "importance": "2"
      }
      }, 
    {
      "type": "Feature",
      "geometry": {
        "type": "Point",
        "coordinates": [16.31667, 48.23333]
      },
      "properties": {
         "id": "pmb68",
         "title": "XVIII., Währing",
         "lat": "48.23333",
         "lon": "16.31667",
         "timestamp": ["1880-06-11", "1880-06-20"],
         "importance": "2"
      }
      }, 
    {
      "type": "Feature",
      "geometry": {
        "type": "Point",
        "coordinates": [16.299116267833, 48.230916826952]
      },
      "properties": {
         "id": "pmb499",
         "title": "Dornbach",
         "lat": "48.230916826952",
         "lon": "16.299116267833",
         "timestamp": ["1880-06-11", "1880-06-20"],
         "importance": "2"
      }
      }, 
    {
      "type": "Feature",
      "geometry": {
        "type": "Point",
        "coordinates": [16.420612, 48.233414]
      },
      "properties": {
         "id": "pmb182425",
         "title": "Zum Franz-Josefsland",
         "lat": "48.233414",
         "lon": "16.420612",
         "timestamp": ["1880-06-14"],
         "importance": "1"
      }
      }, 
    {
      "type": "Feature",
      "geometry": {
        "type": "Point",
        "coordinates": [16.37778, 48.22583]
      },
      "properties": {
         "id": "pmb124",
         "title": "Augarten",
         "lat": "48.22583",
         "lon": "16.37778",
         "timestamp": ["1880-06-15"],
         "importance": "1"
      }
      }, 
    {
      "type": "Feature",
      "geometry": {
        "type": "Point",
        "coordinates": [16.36756870745, 48.244596474277]
      },
      "properties": {
         "id": "pmb159",
         "title": "Heiligenstadt",
         "lat": "48.244596474277",
         "lon": "16.36756870745",
         "timestamp": ["1880-06-17"],
         "importance": "1"
      }
      }, 
    {
      "type": "Feature",
      "geometry": {
        "type": "Point",
        "coordinates": [16.29328, 48.27011]
      },
      "properties": {
         "id": "pmb90863",
         "title": "Hermannskogel",
         "lat": "48.27011",
         "lon": "16.29328",
         "timestamp": ["1880-06-20"],
         "importance": "1"
      }
      }, 
    {
      "type": "Feature",
      "geometry": {
        "type": "Point",
        "coordinates": [16.25, 48.26667]
      },
      "properties": {
         "id": "pmb473",
         "title": "Weidlingbach",
         "lat": "48.26667",
         "lon": "16.25",
         "timestamp": ["1880-06-20"],
         "importance": "1"
      }
      }, 
    {
      "type": "Feature",
      "geometry": {
        "type": "Point",
        "coordinates": [16.24801, 48.08509]
      },
      "properties": {
         "id": "pmb44413",
         "title": "Brühl",
         "lat": "48.08509",
         "lon": "16.24801",
         "timestamp": ["1880-06-27"],
         "importance": "1"
      }
      }
  ]
}