{
  "type": "FeatureCollection",
  "features": [
    {
      "type": "Feature",
      "geometry": {
        "type": "Point",
        "coordinates": [16.375, 48.205139]
      },
      "properties": {
         "id": "pmb19",
         "title": "Ronacher",
         "lat": "48.205139",
         "lon": "16.375",
         "timestamp": ["1880-05-21"],
         "importance": "1"
      }
      }, 
    {
      "type": "Feature",
      "geometry": {
        "type": "Point",
        "coordinates": [16.3691, 48.203]
      },
      "properties": {
         "id": "pmb15",
         "title": "Oper",
         "lat": "48.203",
         "lon": "16.3691",
         "timestamp": ["1880-05-14", "1880-05-24", "1880-05-26"],
         "importance": "3"
      }
      }, 
    {
      "type": "Feature",
      "geometry": {
        "type": "Point",
        "coordinates": [16.36645, 48.20778]
      },
      "properties": {
         "id": "pmb185621",
         "title": "Burgtheater [Altes Burgtheater]",
         "lat": "48.20778",
         "lon": "16.36645",
         "timestamp": ["1880-05-05", "1880-05-15"],
         "importance": "2"
      }
      }, 
    {
      "type": "Feature",
      "geometry": {
        "type": "Point",
        "coordinates": [16.373056, 48.208333]
      },
      "properties": {
         "id": "pmb50",
         "title": "Wien",
         "lat": "48.208333",
         "lon": "16.373056",
         "timestamp": ["1880-05-01", "1880-05-02", "1880-05-03", "1880-05-04", "1880-05-05", "1880-05-06", "1880-05-07", "1880-05-08", "1880-05-09", "1880-05-10", "1880-05-11", "1880-05-12", "1880-05-13", "1880-05-14", "1880-05-15", "1880-05-16", "1880-05-17", "1880-05-18", "1880-05-20", "1880-05-21", "1880-05-22", "1880-05-24", "1880-05-25", "1880-05-26", "1880-05-27", "1880-05-28", "1880-05-29", "1880-05-30", "1880-05-31"],
         "importance": "29"
      }
      }, 
    {
      "type": "Feature",
      "geometry": {
        "type": "Point",
        "coordinates": [16.3638627, 48.216039]
      },
      "properties": {
         "id": "pmb92502",
         "title": "Ruthmayr",
         "lat": "48.216039",
         "lon": "16.3638627",
         "timestamp": ["1880-05-14"],
         "importance": "1"
      }
      }, 
    {
      "type": "Feature",
      "geometry": {
        "type": "Point",
        "coordinates": [16.365278, 48.210278]
      },
      "properties": {
         "id": "pmb262",
         "title": "Café Central",
         "lat": "48.210278",
         "lon": "16.365278",
         "timestamp": ["1880-05-03", "1880-05-17", "1880-05-22", "1880-05-30", "1880-05-31"],
         "importance": "5"
      }
      }, 
    {
      "type": "Feature",
      "geometry": {
        "type": "Point",
        "coordinates": [16.373124, 48.216053]
      },
      "properties": {
         "id": "pmb92469",
         "title": "Quaipark",
         "lat": "48.216053",
         "lon": "16.373124",
         "timestamp": ["1880-05-18"],
         "importance": "1"
      }
      }, 
    {
      "type": "Feature",
      "geometry": {
        "type": "Point",
        "coordinates": [16.37547, 48.2644]
      },
      "properties": {
         "id": "pmb90538",
         "title": "Neue Donau",
         "lat": "48.2644",
         "lon": "16.37547",
         "timestamp": ["1880-05-19"],
         "importance": "1"
      }
      }, 
    {
      "type": "Feature",
      "geometry": {
        "type": "Point",
        "coordinates": [16.3713342, 48.2101882]
      },
      "properties": {
         "id": "pmb116",
         "title": "Zum rothen Igel",
         "lat": "48.2101882",
         "lon": "16.3713342",
         "timestamp": ["1880-05-22"],
         "importance": "1"
      }
      }, 
    {
      "type": "Feature",
      "geometry": {
        "type": "Point",
        "coordinates": [16.36157, 48.20809]
      },
      "properties": {
         "id": "pmb103",
         "title": "Volksgarten",
         "lat": "48.20809",
         "lon": "16.36157",
         "timestamp": ["1880-05-17", "1880-05-25"],
         "importance": "2"
      }
      }, 
    {
      "type": "Feature",
      "geometry": {
        "type": "Point",
        "coordinates": [16.3723242, 48.2081463]
      },
      "properties": {
         "id": "pmb42751",
         "title": "Stephanskeller",
         "lat": "48.2081463",
         "lon": "16.3723242",
         "timestamp": ["1880-05-03"],
         "importance": "1"
      }
      }, 
    {
      "type": "Feature",
      "geometry": {
        "type": "Point",
        "coordinates": [16.36774, 48.20875]
      },
      "properties": {
         "id": "pmb92366",
         "title": "Leihbibliothek Last & Co.",
         "lat": "48.20875",
         "lon": "16.36774",
         "timestamp": ["1880-05-14"],
         "importance": "1"
      }
      }, 
    {
      "type": "Feature",
      "geometry": {
        "type": "Point",
        "coordinates": [16.341, 48.2082]
      },
      "properties": {
         "id": "pmb92529",
         "title": "Zu den drei Sensen",
         "lat": "48.2082",
         "lon": "16.341",
         "timestamp": ["1880-05-23"],
         "importance": "1"
      }
      }, 
    {
      "type": "Feature",
      "geometry": {
        "type": "Point",
        "coordinates": [16.33306, 48.25]
      },
      "properties": {
         "id": "pmb69",
         "title": "XIX., Döbling",
         "lat": "48.25",
         "lon": "16.33306",
         "timestamp": ["1880-05-23"],
         "importance": "1"
      }
      }, 
    {
      "type": "Feature",
      "geometry": {
        "type": "Point",
        "coordinates": [16.377123, 48.208046]
      },
      "properties": {
         "id": "pmb182584",
         "title": "Grand Café de Vienne",
         "lat": "48.208046",
         "lon": "16.377123",
         "timestamp": ["1880-05-24"],
         "importance": "1"
      }
      }
  ]
}