{
  "type": "FeatureCollection",
  "features": [
    {
      "type": "Feature",
      "geometry": {
        "type": "Point",
        "coordinates": [16.375, 48.205139]
      },
      "properties": {
         "id": "pmb19",
         "title": "Ronacher",
         "lat": "48.205139",
         "lon": "16.375",
         "timestamp": ["1881-02-04", "1881-02-14"],
         "importance": "2"
      }
      }, 
    {
      "type": "Feature",
      "geometry": {
        "type": "Point",
        "coordinates": [16.373056, 48.208333]
      },
      "properties": {
         "id": "pmb50",
         "title": "Wien",
         "lat": "48.208333",
         "lon": "16.373056",
         "timestamp": ["1881-02-01", "1881-02-02", "1881-02-03", "1881-02-04", "1881-02-05", "1881-02-06", "1881-02-07", "1881-02-08", "1881-02-09", "1881-02-10", "1881-02-11", "1881-02-12", "1881-02-13", "1881-02-14", "1881-02-15", "1881-02-16", "1881-02-17", "1881-02-18", "1881-02-19", "1881-02-20", "1881-02-21", "1881-02-22", "1881-02-23", "1881-02-24", "1881-02-25", "1881-02-26", "1881-02-27", "1881-02-28"],
         "importance": "28"
      }
      }, 
    {
      "type": "Feature",
      "geometry": {
        "type": "Point",
        "coordinates": [16.363819, 48.20334]
      },
      "properties": {
         "id": "pmb168765",
         "title": "Wohnung und Ordination Johann Schnitzler Burgring 1",
         "lat": "48.20334",
         "lon": "16.363819",
         "timestamp": ["1881-02-01", "1881-02-02", "1881-02-03", "1881-02-04", "1881-02-05", "1881-02-06", "1881-02-07", "1881-02-08", "1881-02-09", "1881-02-10", "1881-02-11", "1881-02-12", "1881-02-13", "1881-02-14", "1881-02-15", "1881-02-16", "1881-02-17", "1881-02-18", "1881-02-19", "1881-02-20", "1881-02-21", "1881-02-22", "1881-02-23", "1881-02-24", "1881-02-25", "1881-02-26", "1881-02-27", "1881-02-28"],
         "importance": "28"
      }
      }, 
    {
      "type": "Feature",
      "geometry": {
        "type": "Point",
        "coordinates": [16.372564182283, 48.201265597319]
      },
      "properties": {
         "id": "pmb516",
         "title": "Musikverein",
         "lat": "48.201265597319",
         "lon": "16.372564182283",
         "timestamp": ["1881-02-05", "1881-02-12", "1881-02-20", "1881-02-25"],
         "importance": "4"
      }
      }, 
    {
      "type": "Feature",
      "geometry": {
        "type": "Point",
        "coordinates": [16.384444, 48.215]
      },
      "properties": {
         "id": "pmb118",
         "title": "Carl-Theater",
         "lat": "48.215",
         "lon": "16.384444",
         "timestamp": ["1881-02-01"],
         "importance": "1"
      }
      }, 
    {
      "type": "Feature",
      "geometry": {
        "type": "Point",
        "coordinates": [16.366111, 48.209167]
      },
      "properties": {
         "id": "pmb4",
         "title": "Bösendorfer-Saal",
         "lat": "48.209167",
         "lon": "16.366111",
         "timestamp": ["1881-02-25"],
         "importance": "1"
      }
      }, 
    {
      "type": "Feature",
      "geometry": {
        "type": "Point",
        "coordinates": [16.365278, 48.210278]
      },
      "properties": {
         "id": "pmb262",
         "title": "Café Central",
         "lat": "48.210278",
         "lon": "16.365278",
         "timestamp": ["1881-02-01"],
         "importance": "1"
      }
      }, 
    {
      "type": "Feature",
      "geometry": {
        "type": "Point",
        "coordinates": [16.391263, 48.206662]
      },
      "properties": {
         "id": "pmb107",
         "title": "Sofiensäle",
         "lat": "48.206662",
         "lon": "16.391263",
         "timestamp": ["1881-02-15"],
         "importance": "1"
      }
      }, 
    {
      "type": "Feature",
      "geometry": {
        "type": "Point",
        "coordinates": [16.349126146095, 48.197773257011]
      },
      "properties": {
         "id": "pmb267",
         "title": "Hotel Englischer Hof",
         "lat": "48.197773257011",
         "lon": "16.349126146095",
         "timestamp": ["1881-02-09"],
         "importance": "1"
      }
      }, 
    {
      "type": "Feature",
      "geometry": {
        "type": "Point",
        "coordinates": [16.378011, 48.205565]
      },
      "properties": {
         "id": "pmb182754",
         "title": "Gartenbausäle",
         "lat": "48.205565",
         "lon": "16.378011",
         "timestamp": ["1881-02-17"],
         "importance": "1"
      }
      }, 
    {
      "type": "Feature",
      "geometry": {
        "type": "Point",
        "coordinates": [16.3709701, 48.2017407]
      },
      "properties": {
         "id": "pmb46",
         "title": "Café Kremser",
         "lat": "48.2017407",
         "lon": "16.3709701",
         "timestamp": ["1881-02-22"],
         "importance": "1"
      }
      }, 
    {
      "type": "Feature",
      "geometry": {
        "type": "Point",
        "coordinates": [16.362757, 48.213278]
      },
      "properties": {
         "id": "pmb182611",
         "title": "Café Hobiger",
         "lat": "48.213278",
         "lon": "16.362757",
         "timestamp": ["1881-02-24"],
         "importance": "1"
      }
      }
  ]
}