{
  "type": "FeatureCollection",
  "features": [
    {
      "type": "Feature",
      "geometry": {
        "type": "Point",
        "coordinates": [16.375, 48.205139]
      },
      "properties": {
         "id": "pmb19",
         "title": "Ronacher",
         "lat": "48.205139",
         "lon": "16.375",
         "timestamp": ["1881-06-07", "1881-06-13", "1881-06-17"],
         "importance": "3"
      }
      }, 
    {
      "type": "Feature",
      "geometry": {
        "type": "Point",
        "coordinates": [16.373056, 48.208333]
      },
      "properties": {
         "id": "pmb50",
         "title": "Wien",
         "lat": "48.208333",
         "lon": "16.373056",
         "timestamp": ["1881-06-01", "1881-06-02", "1881-06-03", "1881-06-04", "1881-06-05", "1881-06-06", "1881-06-07", "1881-06-08", "1881-06-09", "1881-06-10", "1881-06-11", "1881-06-12", "1881-06-13", "1881-06-14", "1881-06-15", "1881-06-16", "1881-06-17", "1881-06-18", "1881-06-19", "1881-06-20", "1881-06-21", "1881-06-22", "1881-06-23", "1881-06-24", "1881-06-25", "1881-06-26", "1881-06-27", "1881-06-28", "1881-06-29", "1881-06-30"],
         "importance": "30"
      }
      }, 
    {
      "type": "Feature",
      "geometry": {
        "type": "Point",
        "coordinates": [16.363819, 48.20334]
      },
      "properties": {
         "id": "pmb168765",
         "title": "Wohnung und Ordination Johann Schnitzler Burgring 1",
         "lat": "48.20334",
         "lon": "16.363819",
         "timestamp": ["1881-06-01", "1881-06-02", "1881-06-03", "1881-06-04", "1881-06-05", "1881-06-06", "1881-06-07", "1881-06-08", "1881-06-09", "1881-06-10", "1881-06-11", "1881-06-12", "1881-06-13", "1881-06-14", "1881-06-15", "1881-06-16", "1881-06-17", "1881-06-18", "1881-06-19", "1881-06-20", "1881-06-21", "1881-06-22", "1881-06-23", "1881-06-24", "1881-06-25", "1881-06-26", "1881-06-27", "1881-06-28", "1881-06-29", "1881-06-30"],
         "importance": "30"
      }
      }, 
    {
      "type": "Feature",
      "geometry": {
        "type": "Point",
        "coordinates": [16.3691, 48.203]
      },
      "properties": {
         "id": "pmb15",
         "title": "Oper",
         "lat": "48.203",
         "lon": "16.3691",
         "timestamp": ["1881-06-18"],
         "importance": "1"
      }
      }, 
    {
      "type": "Feature",
      "geometry": {
        "type": "Point",
        "coordinates": [16.36645, 48.20778]
      },
      "properties": {
         "id": "pmb185621",
         "title": "Burgtheater [Altes Burgtheater]",
         "lat": "48.20778",
         "lon": "16.36645",
         "timestamp": ["1881-06-01", "1881-06-08", "1881-06-12", "1881-06-24"],
         "importance": "4"
      }
      }, 
    {
      "type": "Feature",
      "geometry": {
        "type": "Point",
        "coordinates": [16.36157, 48.20809]
      },
      "properties": {
         "id": "pmb103",
         "title": "Volksgarten",
         "lat": "48.20809",
         "lon": "16.36157",
         "timestamp": ["1881-06-23"],
         "importance": "1"
      }
      }, 
    {
      "type": "Feature",
      "geometry": {
        "type": "Point",
        "coordinates": [16.430054, 48.194558]
      },
      "properties": {
         "id": "pmb8",
         "title": "Prater",
         "lat": "48.194558",
         "lon": "16.430054",
         "timestamp": ["1881-06-06"],
         "importance": "1"
      }
      }, 
    {
      "type": "Feature",
      "geometry": {
        "type": "Point",
        "coordinates": [16.295642, 48.186033]
      },
      "properties": {
         "id": "pmb182313",
         "title": "Neue Welt",
         "lat": "48.186033",
         "lon": "16.295642",
         "timestamp": ["1881-06-20"],
         "importance": "1"
      }
      }, 
    {
      "type": "Feature",
      "geometry": {
        "type": "Point",
        "coordinates": [16.29101, 48.17547]
      },
      "properties": {
         "id": "pmb63",
         "title": "XIII., Hietzing",
         "lat": "48.17547",
         "lon": "16.29101",
         "timestamp": ["1881-06-21"],
         "importance": "1"
      }
      }
  ]
}