{
  "type": "FeatureCollection",
  "features": [
    {
      "type": "Feature",
      "geometry": {
        "type": "Point",
        "coordinates": [16.375, 48.205139]
      },
      "properties": {
         "id": "pmb19",
         "title": "Ronacher",
         "lat": "48.205139",
         "lon": "16.375",
         "timestamp": ["1882-03-04", "1882-03-11"],
         "importance": "2"
      }
      }, 
    {
      "type": "Feature",
      "geometry": {
        "type": "Point",
        "coordinates": [16.372564182283, 48.201265597319]
      },
      "properties": {
         "id": "pmb516",
         "title": "Musikverein",
         "lat": "48.201265597319",
         "lon": "16.372564182283",
         "timestamp": ["1882-03-05"],
         "importance": "1"
      }
      }, 
    {
      "type": "Feature",
      "geometry": {
        "type": "Point",
        "coordinates": [16.3691, 48.203]
      },
      "properties": {
         "id": "pmb15",
         "title": "Oper",
         "lat": "48.203",
         "lon": "16.3691",
         "timestamp": ["1882-03-07", "1882-03-10"],
         "importance": "2"
      }
      }, 
    {
      "type": "Feature",
      "geometry": {
        "type": "Point",
        "coordinates": [16.373056, 48.208333]
      },
      "properties": {
         "id": "pmb50",
         "title": "Wien",
         "lat": "48.208333",
         "lon": "16.373056",
         "timestamp": ["1882-03-02", "1882-03-03", "1882-03-04", "1882-03-05", "1882-03-06", "1882-03-07", "1882-03-08", "1882-03-09", "1882-03-10", "1882-03-11", "1882-03-12", "1882-03-13", "1882-03-14", "1882-03-15", "1882-03-16", "1882-03-17", "1882-03-18", "1882-03-19", "1882-03-20", "1882-03-21", "1882-03-22", "1882-03-23", "1882-03-24", "1882-03-25", "1882-03-26", "1882-03-27", "1882-03-28", "1882-03-29", "1882-03-30", "1882-03-31"],
         "importance": "30"
      }
      }, 
    {
      "type": "Feature",
      "geometry": {
        "type": "Point",
        "coordinates": [16.365278, 48.210278]
      },
      "properties": {
         "id": "pmb262",
         "title": "Café Central",
         "lat": "48.210278",
         "lon": "16.365278",
         "timestamp": ["1882-03-02", "1882-03-05", "1882-03-06", "1882-03-07"],
         "importance": "4"
      }
      }, 
    {
      "type": "Feature",
      "geometry": {
        "type": "Point",
        "coordinates": [16.391263, 48.206662]
      },
      "properties": {
         "id": "pmb107",
         "title": "Sofiensäle",
         "lat": "48.206662",
         "lon": "16.391263",
         "timestamp": ["1882-03-08"],
         "importance": "1"
      }
      }, 
    {
      "type": "Feature",
      "geometry": {
        "type": "Point",
        "coordinates": [16.36631, 48.21659]
      },
      "properties": {
         "id": "pmb40992",
         "title": "Maria-Theresienstraße",
         "lat": "48.21659",
         "lon": "16.36631",
         "timestamp": ["1882-03-15"],
         "importance": "1"
      }
      }, 
    {
      "type": "Feature",
      "geometry": {
        "type": "Point",
        "coordinates": [16.36157, 48.20809]
      },
      "properties": {
         "id": "pmb103",
         "title": "Volksgarten",
         "lat": "48.20809",
         "lon": "16.36157",
         "timestamp": ["1882-03-14"],
         "importance": "1"
      }
      }, 
    {
      "type": "Feature",
      "geometry": {
        "type": "Point",
        "coordinates": [16.36678, 48.20608]
      },
      "properties": {
         "id": "pmb828",
         "title": "Nationalbibliothek",
         "lat": "48.20608",
         "lon": "16.36678",
         "timestamp": ["1882-03-07"],
         "importance": "1"
      }
      }, 
    {
      "type": "Feature",
      "geometry": {
        "type": "Point",
        "coordinates": [16.362757, 48.213278]
      },
      "properties": {
         "id": "pmb182611",
         "title": "Café Hobiger",
         "lat": "48.213278",
         "lon": "16.362757",
         "timestamp": ["1882-03-01", "1882-03-05", "1882-03-27"],
         "importance": "3"
      }
      }, 
    {
      "type": "Feature",
      "geometry": {
        "type": "Point",
        "coordinates": [16.369685, 48.210161]
      },
      "properties": {
         "id": "pmb182607",
         "title": "Café Tuchlauben",
         "lat": "48.210161",
         "lon": "16.369685",
         "timestamp": ["1882-03-01"],
         "importance": "1"
      }
      }, 
    {
      "type": "Feature",
      "geometry": {
        "type": "Point",
        "coordinates": [16.371614, 48.201589]
      },
      "properties": {
         "id": "pmb182664",
         "title": "Café zum Künstlerhaus",
         "lat": "48.201589",
         "lon": "16.371614",
         "timestamp": ["1882-03-05"],
         "importance": "1"
      }
      }, 
    {
      "type": "Feature",
      "geometry": {
        "type": "Point",
        "coordinates": [16.374618, 48.204074]
      },
      "properties": {
         "id": "pmb187186",
         "title": "Kaffehaus Ferdinand Gause",
         "lat": "48.204074",
         "lon": "16.374618",
         "timestamp": ["1882-03-05"],
         "importance": "1"
      }
      }
  ]
}