{
  "type": "FeatureCollection",
  "features": [
    {
      "type": "Feature",
      "geometry": {
        "type": "Point",
        "coordinates": [16.375, 48.205139]
      },
      "properties": {
         "id": "pmb19",
         "title": "Ronacher",
         "lat": "48.205139",
         "lon": "16.375",
         "timestamp": ["1882-12-14", "1882-12-18", "1882-12-22"],
         "importance": "3"
      }
      }, 
    {
      "type": "Feature",
      "geometry": {
        "type": "Point",
        "coordinates": [16.373056, 48.208333]
      },
      "properties": {
         "id": "pmb50",
         "title": "Wien",
         "lat": "48.208333",
         "lon": "16.373056",
         "timestamp": ["1882-12-01", "1882-12-02", "1882-12-03", "1882-12-04", "1882-12-05", "1882-12-06", "1882-12-07", "1882-12-08", "1882-12-09", "1882-12-10", "1882-12-11", "1882-12-12", "1882-12-13", "1882-12-14", "1882-12-15", "1882-12-16", "1882-12-17", "1882-12-18", "1882-12-19", "1882-12-20", "1882-12-21", "1882-12-22", "1882-12-23", "1882-12-24", "1882-12-25", "1882-12-26", "1882-12-27", "1882-12-28", "1882-12-29", "1882-12-30", "1882-12-31"],
         "importance": "31"
      }
      }, 
    {
      "type": "Feature",
      "geometry": {
        "type": "Point",
        "coordinates": [16.363819, 48.20334]
      },
      "properties": {
         "id": "pmb168765",
         "title": "Wohnung und Ordination Johann Schnitzler Burgring 1",
         "lat": "48.20334",
         "lon": "16.363819",
         "timestamp": ["1882-12-01", "1882-12-02", "1882-12-03", "1882-12-04", "1882-12-05", "1882-12-06", "1882-12-07", "1882-12-08", "1882-12-09", "1882-12-10", "1882-12-11", "1882-12-12", "1882-12-13", "1882-12-14", "1882-12-15", "1882-12-16", "1882-12-17", "1882-12-18", "1882-12-19", "1882-12-20", "1882-12-21", "1882-12-22", "1882-12-23", "1882-12-24", "1882-12-25", "1882-12-26", "1882-12-27", "1882-12-28", "1882-12-29", "1882-12-30", "1882-12-31"],
         "importance": "31"
      }
      }, 
    {
      "type": "Feature",
      "geometry": {
        "type": "Point",
        "coordinates": [16.366111, 48.209167]
      },
      "properties": {
         "id": "pmb4",
         "title": "Bösendorfer-Saal",
         "lat": "48.209167",
         "lon": "16.366111",
         "timestamp": ["1882-12-29"],
         "importance": "1"
      }
      }, 
    {
      "type": "Feature",
      "geometry": {
        "type": "Point",
        "coordinates": [16.3642, 48.19941]
      },
      "properties": {
         "id": "pmb37",
         "title": "Theater an der Wien",
         "lat": "48.19941",
         "lon": "16.3642",
         "timestamp": ["1882-12-23"],
         "importance": "1"
      }
      }, 
    {
      "type": "Feature",
      "geometry": {
        "type": "Point",
        "coordinates": [16.365278, 48.210278]
      },
      "properties": {
         "id": "pmb262",
         "title": "Café Central",
         "lat": "48.210278",
         "lon": "16.365278",
         "timestamp": ["1882-12-27"],
         "importance": "1"
      }
      }, 
    {
      "type": "Feature",
      "geometry": {
        "type": "Point",
        "coordinates": [16.364351, 48.199478]
      },
      "properties": {
         "id": "pmb92603",
         "title": "Wiednertheater",
         "lat": "48.199478",
         "lon": "16.364351",
         "timestamp": ["1882-12-23"],
         "importance": "1"
      }
      }, 
    {
      "type": "Feature",
      "geometry": {
        "type": "Point",
        "coordinates": [16.362757, 48.213278]
      },
      "properties": {
         "id": "pmb182611",
         "title": "Café Hobiger",
         "lat": "48.213278",
         "lon": "16.362757",
         "timestamp": ["1882-12-23"],
         "importance": "1"
      }
      }, 
    {
      "type": "Feature",
      "geometry": {
        "type": "Point",
        "coordinates": [16.355561, 48.218616]
      },
      "properties": {
         "id": "pmb182725",
         "title": "Garnisonsspital",
         "lat": "48.218616",
         "lon": "16.355561",
         "timestamp": ["1882-12-01"],
         "importance": "1"
      }
      }, 
    {
      "type": "Feature",
      "geometry": {
        "type": "Point",
        "coordinates": [16.36946, 48.20138]
      },
      "properties": {
         "id": "pmb42",
         "title": "Leidingers Restauration",
         "lat": "48.20138",
         "lon": "16.36946",
         "timestamp": ["1882-12-23"],
         "importance": "1"
      }
      }, 
    {
      "type": "Feature",
      "geometry": {
        "type": "Point",
        "coordinates": [16.38735, 48.19422]
      },
      "properties": {
         "id": "pmb182655",
         "title": "Café Aspang",
         "lat": "48.19422",
         "lon": "16.38735",
         "timestamp": ["1882-12-23"],
         "importance": "1"
      }
      }
  ]
}