{
  "type": "FeatureCollection",
  "features": [
    {
      "type": "Feature", 
      "geometry": {
        "type": "LineString", 
        "coordinates": [
            [16.363819, 48.20334], 
            [16.371614, 48.201589], 
            [16.372564182283, 48.201265597319], 
            [16.374618, 48.204074], 
            [16.365278, 48.210278], 
            [16.362757, 48.213278]
          ]
      },
      "properties": {
        "name": "5. März 1882"
      }
    },
    {
      "type": "Feature",
      "geometry": {
        "type": "Point",
        "coordinates": [
          16.365278, 48.210278
        ]
      },
      "properties": {
        "title": "Café Central",
        "timestamp": ["1882-03-05"],
        "pmb": "https://pmb.acdh.oeaw.ac.at/entity//", 
        "wikipedia": "https://de.wikipedia.org/wiki/Caf%C3%A9_Central"
      }
      },
    {
      "type": "Feature",
      "geometry": {
        "type": "Point",
        "coordinates": [
          16.362757, 48.213278
        ]
      },
      "properties": {
        "title": "Café Hobiger",
        "timestamp": ["1882-03-05"],
        "pmb": "https://pmb.acdh.oeaw.ac.at/entity//"
      }
      },
    {
      "type": "Feature",
      "geometry": {
        "type": "Point",
        "coordinates": [
          16.371614, 48.201589
        ]
      },
      "properties": {
        "title": "Café zum Künstlerhaus",
        "timestamp": ["1882-03-05"],
        "pmb": "https://pmb.acdh.oeaw.ac.at/entity//"
      }
      },
    {
      "type": "Feature",
      "geometry": {
        "type": "Point",
        "coordinates": [
          16.374618, 48.204074
        ]
      },
      "properties": {
        "title": "Kaffehaus Ferdinand Gause",
        "timestamp": ["1882-03-05"],
        "pmb": "https://pmb.acdh.oeaw.ac.at/entity//"
      }
      },
    {
      "type": "Feature",
      "geometry": {
        "type": "Point",
        "coordinates": [
          16.372564182283, 48.201265597319
        ]
      },
      "properties": {
        "title": "Musikverein",
        "timestamp": ["1882-03-05"],
        "pmb": "https://pmb.acdh.oeaw.ac.at/entity//"
      }
      },
    {
      "type": "Feature",
      "geometry": {
        "type": "Point",
        "coordinates": [
          16.363819, 48.20334
        ]
      },
      "properties": {
        "title": "Wohnung und Ordination Johann Schnitzler Burgring 1",
        "timestamp": ["1882-03-05"],
        "pmb": "https://pmb.acdh.oeaw.ac.at/entity//"
      }
      }
  ]
}