{
  "type": "FeatureCollection",
  "features": [
    {
      "type": "Feature",
      "geometry": {
        "type": "Point",
        "coordinates": [16.375, 48.205139]
      },
      "properties": {
         "id": "pmb19",
         "title": "Ronacher",
         "lat": "48.205139",
         "lon": "16.375",
         "timestamp": ["1884-01-29"],
         "importance": "1"
      }
      }, 
    {
      "type": "Feature",
      "geometry": {
        "type": "Point",
        "coordinates": [16.372564182283, 48.201265597319]
      },
      "properties": {
         "id": "pmb516",
         "title": "Musikverein",
         "lat": "48.201265597319",
         "lon": "16.372564182283",
         "timestamp": ["1884-01-14"],
         "importance": "1"
      }
      }, 
    {
      "type": "Feature",
      "geometry": {
        "type": "Point",
        "coordinates": [16.36645, 48.20778]
      },
      "properties": {
         "id": "pmb185621",
         "title": "Burgtheater [Altes Burgtheater]",
         "lat": "48.20778",
         "lon": "16.36645",
         "timestamp": ["1884-01-25"],
         "importance": "1"
      }
      }, 
    {
      "type": "Feature",
      "geometry": {
        "type": "Point",
        "coordinates": [16.373056, 48.208333]
      },
      "properties": {
         "id": "pmb50",
         "title": "Wien",
         "lat": "48.208333",
         "lon": "16.373056",
         "timestamp": ["1884-01-01", "1884-01-02", "1884-01-03", "1884-01-04", "1884-01-05", "1884-01-06", "1884-01-07", "1884-01-08", "1884-01-09", "1884-01-10", "1884-01-11", "1884-01-12", "1884-01-13", "1884-01-14", "1884-01-15", "1884-01-16", "1884-01-17", "1884-01-18", "1884-01-19", "1884-01-20", "1884-01-21", "1884-01-22", "1884-01-23", "1884-01-24", "1884-01-25", "1884-01-26", "1884-01-27", "1884-01-28", "1884-01-29", "1884-01-30", "1884-01-31"],
         "importance": "31"
      }
      }, 
    {
      "type": "Feature",
      "geometry": {
        "type": "Point",
        "coordinates": [16.391263, 48.206662]
      },
      "properties": {
         "id": "pmb107",
         "title": "Sofiensäle",
         "lat": "48.206662",
         "lon": "16.391263",
         "timestamp": ["1884-01-26", "1884-01-29"],
         "importance": "2"
      }
      }, 
    {
      "type": "Feature",
      "geometry": {
        "type": "Point",
        "coordinates": [16.36631, 48.21659]
      },
      "properties": {
         "id": "pmb40992",
         "title": "Maria-Theresienstraße",
         "lat": "48.21659",
         "lon": "16.36631",
         "timestamp": ["1884-01-28"],
         "importance": "1"
      }
      }
  ]
}