{
  "type": "FeatureCollection",
  "features": [
    {
      "type": "Feature", 
      "geometry": {
        "type": "LineString", 
        "coordinates": [
            [8.6249, 46.9028], 
            [8.620556, 46.953889], 
            [8.61554, 46.98666], 
            [8.60538, 46.9936], 
            [8.48447, 47.0555], 
            [8.4842, 47.01014], 
            [8.30635, 47.05048]
          ]
      },
      "properties": {
        "name": "18. August 1885"
      }
    },
    {
      "type": "Feature",
      "geometry": {
        "type": "Point",
        "coordinates": [
          8.48447, 47.0555
        ]
      },
      "properties": {
        "title": "Rigi Kulm",
        "timestamp": ["1885-08-18"],
        "pmb": "https://pmb.acdh.oeaw.ac.at/entity//"
      }
      },
    {
      "type": "Feature",
      "geometry": {
        "type": "Point",
        "coordinates": [
          8.4842, 47.01014
        ]
      },
      "properties": {
        "title": "Vitznau",
        "timestamp": ["1885-08-18"],
        "pmb": "https://pmb.acdh.oeaw.ac.at/entity//"
      }
      },
    {
      "type": "Feature",
      "geometry": {
        "type": "Point",
        "coordinates": [
          8.60538, 46.9936
        ]
      },
      "properties": {
        "title": "Brunnen",
        "timestamp": ["1885-08-18"],
        "pmb": "https://pmb.acdh.oeaw.ac.at/entity//", 
        "wikipedia": "https://de.wikipedia.org/wiki/Brunnen_SZ"
      }
      },
    {
      "type": "Feature",
      "geometry": {
        "type": "Point",
        "coordinates": [
          8.61554, 46.98666
        ]
      },
      "properties": {
        "title": "Axenstein",
        "timestamp": ["1885-08-18"],
        "pmb": "https://pmb.acdh.oeaw.ac.at/entity//"
      }
      },
    {
      "type": "Feature",
      "geometry": {
        "type": "Point",
        "coordinates": [
          8.30635, 47.05048
        ]
      },
      "properties": {
        "title": "Luzern",
        "timestamp": ["1885-08-18"],
        "pmb": "https://pmb.acdh.oeaw.ac.at/entity//", 
        "wikipedia": "https://de.wikipedia.org/wiki/Luzern"
      }
      },
    {
      "type": "Feature",
      "geometry": {
        "type": "Point",
        "coordinates": [
          8.6249, 46.9028
        ]
      },
      "properties": {
        "title": "Flüelen",
        "timestamp": ["1885-08-18"],
        "pmb": "https://pmb.acdh.oeaw.ac.at/entity//"
      }
      },
    {
      "type": "Feature",
      "geometry": {
        "type": "Point",
        "coordinates": [
          8.620556, 46.953889
        ]
      },
      "properties": {
        "title": "Axenstraße",
        "timestamp": ["1885-08-18"],
        "pmb": "https://pmb.acdh.oeaw.ac.at/entity//", 
        "wikipedia": "https://de.wikipedia.org/wiki/Axenstrasse"
      }
      }
  ]
}