{
  "type": "FeatureCollection",
  "features": [
    {
      "type": "Feature",
      "geometry": {
        "type": "Point",
        "coordinates": [16.3691, 48.203]
      },
      "properties": {
         "id": "pmb15",
         "title": "Oper",
         "lat": "48.203",
         "lon": "16.3691",
         "timestamp": ["1886-01-14", "1886-01-22"],
         "importance": "2"
      }
      }, 
    {
      "type": "Feature",
      "geometry": {
        "type": "Point",
        "coordinates": [16.36645, 48.20778]
      },
      "properties": {
         "id": "pmb185621",
         "title": "Burgtheater [Altes Burgtheater]",
         "lat": "48.20778",
         "lon": "16.36645",
         "timestamp": ["1886-01-01"],
         "importance": "1"
      }
      }, 
    {
      "type": "Feature",
      "geometry": {
        "type": "Point",
        "coordinates": [16.3642, 48.19941]
      },
      "properties": {
         "id": "pmb37",
         "title": "Theater an der Wien",
         "lat": "48.19941",
         "lon": "16.3642",
         "timestamp": ["1886-01-09", "1886-01-20", "1886-01-21"],
         "importance": "3"
      }
      }, 
    {
      "type": "Feature",
      "geometry": {
        "type": "Point",
        "coordinates": [16.373056, 48.208333]
      },
      "properties": {
         "id": "pmb50",
         "title": "Wien",
         "lat": "48.208333",
         "lon": "16.373056",
         "timestamp": ["1886-01-01", "1886-01-02", "1886-01-03", "1886-01-04", "1886-01-05", "1886-01-06", "1886-01-07", "1886-01-08", "1886-01-09", "1886-01-10", "1886-01-11", "1886-01-12", "1886-01-13", "1886-01-14", "1886-01-15", "1886-01-16", "1886-01-17", "1886-01-18", "1886-01-19", "1886-01-20", "1886-01-21", "1886-01-22", "1886-01-23", "1886-01-24", "1886-01-25", "1886-01-26", "1886-01-27", "1886-01-28", "1886-01-29", "1886-01-30", "1886-01-31"],
         "importance": "31"
      }
      }, 
    {
      "type": "Feature",
      "geometry": {
        "type": "Point",
        "coordinates": [16.362269, 48.210795]
      },
      "properties": {
         "id": "pmb194841",
         "title": "Löwelstraße 16",
         "lat": "48.210795",
         "lon": "16.362269",
         "timestamp": ["1886-01-23"],
         "importance": "1"
      }
      }, 
    {
      "type": "Feature",
      "geometry": {
        "type": "Point",
        "coordinates": [16.37548, 48.2099]
      },
      "properties": {
         "id": "pmb419",
         "title": "Restaurant Obenaus",
         "lat": "48.2099",
         "lon": "16.37548",
         "timestamp": ["1886-01-10"],
         "importance": "1"
      }
      }, 
    {
      "type": "Feature",
      "geometry": {
        "type": "Point",
        "coordinates": [16.369444, 48.203889]
      },
      "properties": {
         "id": "pmb29",
         "title": "Hotel Sacher",
         "lat": "48.203889",
         "lon": "16.369444",
         "timestamp": ["1886-01-17"],
         "importance": "1"
      }
      }
  ]
}