{
  "type": "FeatureCollection",
  "features": [
    {
      "type": "Feature",
      "geometry": {
        "type": "Point",
        "coordinates": [16.36645, 48.20778]
      },
      "properties": {
         "id": "pmb185621",
         "title": "Burgtheater [Altes Burgtheater]",
         "lat": "48.20778",
         "lon": "16.36645",
         "timestamp": ["1887-11-07", "1887-11-21"],
         "importance": "2"
      }
      }, 
    {
      "type": "Feature",
      "geometry": {
        "type": "Point",
        "coordinates": [16.351111, 48.209583]
      },
      "properties": {
         "id": "pmb40",
         "title": "Theater in der Josefstadt",
         "lat": "48.209583",
         "lon": "16.351111",
         "timestamp": ["1887-11-28"],
         "importance": "1"
      }
      }, 
    {
      "type": "Feature",
      "geometry": {
        "type": "Point",
        "coordinates": [16.384444, 48.215]
      },
      "properties": {
         "id": "pmb118",
         "title": "Carl-Theater",
         "lat": "48.215",
         "lon": "16.384444",
         "timestamp": ["1887-11-04", "1887-11-14"],
         "importance": "2"
      }
      }, 
    {
      "type": "Feature",
      "geometry": {
        "type": "Point",
        "coordinates": [16.3642, 48.19941]
      },
      "properties": {
         "id": "pmb37",
         "title": "Theater an der Wien",
         "lat": "48.19941",
         "lon": "16.3642",
         "timestamp": ["1887-11-01"],
         "importance": "1"
      }
      }, 
    {
      "type": "Feature",
      "geometry": {
        "type": "Point",
        "coordinates": [16.373056, 48.208333]
      },
      "properties": {
         "id": "pmb50",
         "title": "Wien",
         "lat": "48.208333",
         "lon": "16.373056",
         "timestamp": ["1887-11-01", "1887-11-02", "1887-11-03", "1887-11-04", "1887-11-05", "1887-11-06", "1887-11-07", "1887-11-08", "1887-11-09", "1887-11-10", "1887-11-11", "1887-11-12", "1887-11-13", "1887-11-14", "1887-11-15", "1887-11-16", "1887-11-17", "1887-11-18", "1887-11-19", "1887-11-20", "1887-11-21", "1887-11-22", "1887-11-23", "1887-11-24", "1887-11-25", "1887-11-26", "1887-11-27", "1887-11-28", "1887-11-29", "1887-11-30"],
         "importance": "30"
      }
      }, 
    {
      "type": "Feature",
      "geometry": {
        "type": "Point",
        "coordinates": [16.3538456, 48.2134031]
      },
      "properties": {
         "id": "pmb44",
         "title": "Riedhof",
         "lat": "48.2134031",
         "lon": "16.3538456",
         "timestamp": ["1887-11-07", "1887-11-12", "1887-11-19", "1887-11-21", "1887-11-22", "1887-11-24", "1887-11-27", "1887-11-29"],
         "importance": "8"
      }
      }, 
    {
      "type": "Feature",
      "geometry": {
        "type": "Point",
        "coordinates": [16.3589845, 48.2195962]
      },
      "properties": {
         "id": "pmb182762",
         "title": "Danzer’s Orpheum",
         "lat": "48.2195962",
         "lon": "16.3589845",
         "timestamp": ["1887-11-09"],
         "importance": "1"
      }
      }, 
    {
      "type": "Feature",
      "geometry": {
        "type": "Point",
        "coordinates": [16.362269, 48.210795]
      },
      "properties": {
         "id": "pmb194841",
         "title": "Löwelstraße 16",
         "lat": "48.210795",
         "lon": "16.362269",
         "timestamp": ["1887-11-20", "1887-11-23"],
         "importance": "2"
      }
      }, 
    {
      "type": "Feature",
      "geometry": {
        "type": "Point",
        "coordinates": [16.348633, 48.206634]
      },
      "properties": {
         "id": "pmb184995",
         "title": "Restauration Rain",
         "lat": "48.206634",
         "lon": "16.348633",
         "timestamp": ["1887-11-05"],
         "importance": "1"
      }
      }, 
    {
      "type": "Feature",
      "geometry": {
        "type": "Point",
        "coordinates": [16.367027, 48.20785]
      },
      "properties": {
         "id": "pmb184999",
         "title": "Michaelerbierhaus",
         "lat": "48.20785",
         "lon": "16.367027",
         "timestamp": ["1887-11-14"],
         "importance": "1"
      }
      }, 
    {
      "type": "Feature",
      "geometry": {
        "type": "Point",
        "coordinates": [16.368419109635, 48.213598341107]
      },
      "properties": {
         "id": "pmb120",
         "title": "Wipplingerstraße",
         "lat": "48.213598341107",
         "lon": "16.368419109635",
         "timestamp": ["1887-11-17"],
         "importance": "1"
      }
      }, 
    {
      "type": "Feature",
      "geometry": {
        "type": "Point",
        "coordinates": [16.37601664270439, 48.198498814707754]
      },
      "properties": {
         "id": "pmb53143",
         "title": "Schwarzenbergplatz",
         "lat": "48.198498814707754",
         "lon": "16.37601664270439",
         "timestamp": ["1887-11-17"],
         "importance": "1"
      }
      }
  ]
}