{
  "type": "FeatureCollection",
  "features": [
    {
      "type": "Feature",
      "geometry": {
        "type": "Point",
        "coordinates": [16.373056, 48.208333]
      },
      "properties": {
         "id": "pmb50",
         "title": "Wien",
         "lat": "48.208333",
         "lon": "16.373056",
         "timestamp": ["1888-03-01", "1888-03-02", "1888-03-03", "1888-03-04", "1888-03-05", "1888-03-06", "1888-03-07", "1888-03-08", "1888-03-09", "1888-03-10", "1888-03-11", "1888-03-12", "1888-03-13", "1888-03-14", "1888-03-15", "1888-03-16", "1888-03-17", "1888-03-18", "1888-03-19", "1888-03-20", "1888-03-21", "1888-03-22", "1888-03-23", "1888-03-24", "1888-03-25", "1888-03-26", "1888-03-27", "1888-03-28", "1888-03-29", "1888-03-30", "1888-03-31"],
         "importance": "31"
      }
      }, 
    {
      "type": "Feature",
      "geometry": {
        "type": "Point",
        "coordinates": [16.363819, 48.20334]
      },
      "properties": {
         "id": "pmb168765",
         "title": "Wohnung und Ordination Johann Schnitzler Burgring 1",
         "lat": "48.20334",
         "lon": "16.363819",
         "timestamp": ["1888-03-01", "1888-03-02", "1888-03-03", "1888-03-04", "1888-03-05", "1888-03-06", "1888-03-07", "1888-03-08", "1888-03-09", "1888-03-10", "1888-03-11", "1888-03-12", "1888-03-13", "1888-03-14", "1888-03-15", "1888-03-16", "1888-03-17", "1888-03-18", "1888-03-19", "1888-03-20", "1888-03-21", "1888-03-22", "1888-03-23", "1888-03-24", "1888-03-25", "1888-03-26", "1888-03-27", "1888-03-28", "1888-03-29", "1888-03-30", "1888-03-31"],
         "importance": "31"
      }
      }, 
    {
      "type": "Feature",
      "geometry": {
        "type": "Point",
        "coordinates": [16.372564182283, 48.201265597319]
      },
      "properties": {
         "id": "pmb516",
         "title": "Musikverein",
         "lat": "48.201265597319",
         "lon": "16.372564182283",
         "timestamp": ["1888-03-06"],
         "importance": "1"
      }
      }, 
    {
      "type": "Feature",
      "geometry": {
        "type": "Point",
        "coordinates": [16.36645, 48.20778]
      },
      "properties": {
         "id": "pmb185621",
         "title": "Burgtheater [Altes Burgtheater]",
         "lat": "48.20778",
         "lon": "16.36645",
         "timestamp": ["1888-03-12", "1888-03-19"],
         "importance": "2"
      }
      }, 
    {
      "type": "Feature",
      "geometry": {
        "type": "Point",
        "coordinates": [16.384444, 48.215]
      },
      "properties": {
         "id": "pmb118",
         "title": "Carl-Theater",
         "lat": "48.215",
         "lon": "16.384444",
         "timestamp": ["1888-03-03"],
         "importance": "1"
      }
      }, 
    {
      "type": "Feature",
      "geometry": {
        "type": "Point",
        "coordinates": [16.3642, 48.19941]
      },
      "properties": {
         "id": "pmb37",
         "title": "Theater an der Wien",
         "lat": "48.19941",
         "lon": "16.3642",
         "timestamp": ["1888-03-08"],
         "importance": "1"
      }
      }, 
    {
      "type": "Feature",
      "geometry": {
        "type": "Point",
        "coordinates": [16.3538456, 48.2134031]
      },
      "properties": {
         "id": "pmb44",
         "title": "Riedhof",
         "lat": "48.2134031",
         "lon": "16.3538456",
         "timestamp": ["1888-03-12", "1888-03-22"],
         "importance": "2"
      }
      }, 
    {
      "type": "Feature",
      "geometry": {
        "type": "Point",
        "coordinates": [16.362269, 48.210795]
      },
      "properties": {
         "id": "pmb194841",
         "title": "Löwelstraße 16",
         "lat": "48.210795",
         "lon": "16.362269",
         "timestamp": ["1888-03-02"],
         "importance": "1"
      }
      }, 
    {
      "type": "Feature",
      "geometry": {
        "type": "Point",
        "coordinates": [16.377185, 48.207905]
      },
      "properties": {
         "id": "pmb234905",
         "title": "Riemergasse 2",
         "lat": "48.207905",
         "lon": "16.377185",
         "timestamp": ["1888-03-08"],
         "importance": "1"
      }
      }, 
    {
      "type": "Feature",
      "geometry": {
        "type": "Point",
        "coordinates": [16.3747466, 48.2104057]
      },
      "properties": {
         "id": "pmb705",
         "title": "Zur Linde",
         "lat": "48.2104057",
         "lon": "16.3747466",
         "timestamp": ["1888-03-04"],
         "importance": "1"
      }
      }, 
    {
      "type": "Feature",
      "geometry": {
        "type": "Point",
        "coordinates": [16.362454, 48.210474]
      },
      "properties": {
         "id": "pmb185561",
         "title": "Leopold Markus Restauration »zum neuen Burgtheater«",
         "lat": "48.210474",
         "lon": "16.362454",
         "timestamp": ["1888-03-23", "1888-03-31"],
         "importance": "2"
      }
      }, 
    {
      "type": "Feature",
      "geometry": {
        "type": "Point",
        "coordinates": [16.35807, 48.20546]
      },
      "properties": {
         "id": "pmb460",
         "title": "Restaurant zur Bellaria (Inh. Johann Seidel)",
         "lat": "48.20546",
         "lon": "16.35807",
         "timestamp": ["1888-03-27"],
         "importance": "1"
      }
      }
  ]
}