{
  "type": "FeatureCollection",
  "features": [
    {
      "type": "Feature",
      "geometry": {
        "type": "Point",
        "coordinates": [-0.0516, 51.4506]
      },
      "properties": {
         "id": "pmb402",
         "title": "Honor Oak",
         "lat": "51.4506",
         "lon": "-0.0516",
         "timestamp": ["1888-06-06", "1888-06-08", "1888-06-10", "1888-06-11", "1888-06-12", "1888-06-13", "1888-06-17", "1888-06-20", "1888-06-25", "1888-06-28"],
         "importance": "10"
      }
      }, 
    {
      "type": "Feature",
      "geometry": {
        "type": "Point",
        "coordinates": [-0.174938, 51.495309]
      },
      "properties": {
         "id": "pmb92194",
         "title": "Cromwell Place",
         "lat": "51.495309",
         "lon": "-0.174938",
         "timestamp": ["1888-06-01", "1888-06-02", "1888-06-03", "1888-06-04", "1888-06-05", "1888-06-06", "1888-06-07", "1888-06-08", "1888-06-09", "1888-06-10", "1888-06-11", "1888-06-12", "1888-06-13", "1888-06-14", "1888-06-15", "1888-06-16", "1888-06-17", "1888-06-18", "1888-06-19", "1888-06-20", "1888-06-21", "1888-06-22", "1888-06-23", "1888-06-24", "1888-06-25", "1888-06-26", "1888-06-27", "1888-06-28", "1888-06-29", "1888-06-30"],
         "importance": "30"
      }
      }, 
    {
      "type": "Feature",
      "geometry": {
        "type": "Point",
        "coordinates": [-0.1293, 51.51049]
      },
      "properties": {
         "id": "pmb185189",
         "title": "Alhambra Theatre",
         "lat": "51.51049",
         "lon": "-0.1293",
         "timestamp": ["1888-06-09"],
         "importance": "1"
      }
      }, 
    {
      "type": "Feature",
      "geometry": {
        "type": "Point",
        "coordinates": [-0.305627, 51.462453]
      },
      "properties": {
         "id": "pmb185194",
         "title": "Hospital for Nervous Diseases",
         "lat": "51.462453",
         "lon": "-0.305627",
         "timestamp": ["1888-06-01"],
         "importance": "1"
      }
      }, 
    {
      "type": "Feature",
      "geometry": {
        "type": "Point",
        "coordinates": [-0.12091666666667, 51.510138888889]
      },
      "properties": {
         "id": "pmb185197",
         "title": "Savoy Theatre",
         "lat": "51.510138888889",
         "lon": "-0.12091666666667",
         "timestamp": ["1888-06-01", "1888-06-19"],
         "importance": "2"
      }
      }, 
    {
      "type": "Feature",
      "geometry": {
        "type": "Point",
        "coordinates": [-0.11583333, 51.51527778]
      },
      "properties": {
         "id": "pmb185232",
         "title": "Hunterian Museum",
         "lat": "51.51527778",
         "lon": "-0.11583333",
         "timestamp": ["1888-06-02"],
         "importance": "1"
      }
      }, 
    {
      "type": "Feature",
      "geometry": {
        "type": "Point",
        "coordinates": [-0.13, 51.5]
      },
      "properties": {
         "id": "pmb185235",
         "title": "Royal Aquarium",
         "lat": "51.5",
         "lon": "-0.13",
         "timestamp": ["1888-06-02"],
         "importance": "1"
      }
      }, 
    {
      "type": "Feature",
      "geometry": {
        "type": "Point",
        "coordinates": [-0.196735, 51.48958]
      },
      "properties": {
         "id": "pmb185260",
         "title": "Italian Exhibition 1888",
         "lat": "51.48958",
         "lon": "-0.196735",
         "timestamp": ["1888-06-02", "1888-06-21"],
         "importance": "2"
      }
      }, 
    {
      "type": "Feature",
      "geometry": {
        "type": "Point",
        "coordinates": [-0.123611, 51.5069]
      },
      "properties": {
         "id": "pmb185238",
         "title": "Avenue Theatre",
         "lat": "51.5069",
         "lon": "-0.123611",
         "timestamp": ["1888-06-04"],
         "importance": "1"
      }
      }, 
    {
      "type": "Feature",
      "geometry": {
        "type": "Point",
        "coordinates": [-0.132778, 51.5069]
      },
      "properties": {
         "id": "pmb185241",
         "title": "Athenaeum Club",
         "lat": "51.5069",
         "lon": "-0.132778",
         "timestamp": ["1888-06-05"],
         "importance": "1"
      }
      }, 
    {
      "type": "Feature",
      "geometry": {
        "type": "Point",
        "coordinates": [-0.132112, 51.498349]
      },
      "properties": {
         "id": "pmb185243",
         "title": "Army & Navy Stores",
         "lat": "51.498349",
         "lon": "-0.132112",
         "timestamp": ["1888-06-05"],
         "importance": "1"
      }
      }, 
    {
      "type": "Feature",
      "geometry": {
        "type": "Point",
        "coordinates": [-0.100519, 51.5177]
      },
      "properties": {
         "id": "pmb185246",
         "title": "St Bartholomew’s Hospital",
         "lat": "51.5177",
         "lon": "-0.100519",
         "timestamp": ["1888-06-07"],
         "importance": "1"
      }
      }, 
    {
      "type": "Feature",
      "geometry": {
        "type": "Point",
        "coordinates": [-0.075788888888889, 51.422294444444]
      },
      "properties": {
         "id": "pmb185249",
         "title": "The Crystal Palace",
         "lat": "51.422294444444",
         "lon": "-0.075788888888889",
         "timestamp": ["1888-06-07", "1888-06-16", "1888-06-26", "1888-06-27"],
         "importance": "4"
      }
      }, 
    {
      "type": "Feature",
      "geometry": {
        "type": "Point",
        "coordinates": [-0.1134, 51.4991]
      },
      "properties": {
         "id": "pmb185252",
         "title": "Canterbury Music Hall",
         "lat": "51.4991",
         "lon": "-0.1134",
         "timestamp": ["1888-06-15"],
         "importance": "1"
      }
      }, 
    {
      "type": "Feature",
      "geometry": {
        "type": "Point",
        "coordinates": [0.05, 51.45]
      },
      "properties": {
         "id": "pmb90761",
         "title": "Greenwich",
         "lat": "51.45",
         "lon": "0.05",
         "timestamp": ["1888-06-17"],
         "importance": "1"
      }
      }, 
    {
      "type": "Feature",
      "geometry": {
        "type": "Point",
        "coordinates": [-0.133889, 51.5103]
      },
      "properties": {
         "id": "pmb185256",
         "title": "London Pavilion",
         "lat": "51.5103",
         "lon": "-0.133889",
         "timestamp": ["1888-06-18"],
         "importance": "1"
      }
      }, 
    {
      "type": "Feature",
      "geometry": {
        "type": "Point",
        "coordinates": [-0.120111, 51.5174]
      },
      "properties": {
         "id": "pmb185268",
         "title": "Weston’s Music Hall",
         "lat": "51.5174",
         "lon": "-0.120111",
         "timestamp": ["1888-06-26"],
         "importance": "1"
      }
      }, 
    {
      "type": "Feature",
      "geometry": {
        "type": "Point",
        "coordinates": [-0.1178, 51.5179]
      },
      "properties": {
         "id": "pmb185878",
         "title": "Holborn Theatre Royal",
         "lat": "51.5179",
         "lon": "-0.1178",
         "timestamp": ["1888-06-26"],
         "importance": "1"
      }
      }, 
    {
      "type": "Feature",
      "geometry": {
        "type": "Point",
        "coordinates": [-0.053295, 51.528574]
      },
      "properties": {
         "id": "pmb185272",
         "title": "Oxford Hall",
         "lat": "51.528574",
         "lon": "-0.053295",
         "timestamp": ["1888-06-29"],
         "importance": "1"
      }
      }, 
    {
      "type": "Feature",
      "geometry": {
        "type": "Point",
        "coordinates": [-0.13115, 51.51649]
      },
      "properties": {
         "id": "pmb185880",
         "title": "Oxford Music Hall",
         "lat": "51.51649",
         "lon": "-0.13115",
         "timestamp": ["1888-06-29"],
         "importance": "1"
      }
      }, 
    {
      "type": "Feature",
      "geometry": {
        "type": "Point",
        "coordinates": [-0.130278, 51.5108]
      },
      "properties": {
         "id": "pmb185278",
         "title": "Empire Theatre",
         "lat": "51.5108",
         "lon": "-0.130278",
         "timestamp": ["1888-06-30"],
         "importance": "1"
      }
      }
  ]
}