{
  "type": "FeatureCollection",
  "features": [
    {
      "type": "Feature",
      "geometry": {
        "type": "Point",
        "coordinates": [16.373056, 48.208333]
      },
      "properties": {
         "id": "pmb50",
         "title": "Wien",
         "lat": "48.208333",
         "lon": "16.373056",
         "timestamp": ["1888-01-01", "1888-01-02", "1888-01-03", "1888-01-04", "1888-01-05", "1888-01-06", "1888-01-07", "1888-01-08", "1888-01-09", "1888-01-10", "1888-01-11", "1888-01-12", "1888-01-13", "1888-01-14", "1888-01-15", "1888-01-16", "1888-01-17", "1888-01-18", "1888-01-19", "1888-01-20", "1888-01-21", "1888-01-22", "1888-01-23", "1888-01-24", "1888-01-25", "1888-01-26", "1888-01-27", "1888-01-28", "1888-01-29", "1888-01-30", "1888-01-31"],
         "importance": "31"
      }
      }, 
    {
      "type": "Feature",
      "geometry": {
        "type": "Point",
        "coordinates": [16.363819, 48.20334]
      },
      "properties": {
         "id": "pmb168765",
         "title": "Wohnung und Ordination Johann Schnitzler Burgring 1",
         "lat": "48.20334",
         "lon": "16.363819",
         "timestamp": ["1888-01-01", "1888-01-02", "1888-01-03", "1888-01-04", "1888-01-05", "1888-01-06", "1888-01-07", "1888-01-08", "1888-01-09", "1888-01-10", "1888-01-11", "1888-01-12", "1888-01-13", "1888-01-14", "1888-01-15", "1888-01-16", "1888-01-17", "1888-01-18", "1888-01-19", "1888-01-20", "1888-01-21", "1888-01-22", "1888-01-23", "1888-01-24", "1888-01-25", "1888-01-26", "1888-01-27", "1888-01-28", "1888-01-29", "1888-01-30", "1888-01-31"],
         "importance": "31"
      }
      }, 
    {
      "type": "Feature",
      "geometry": {
        "type": "Point",
        "coordinates": [16.36645, 48.20778]
      },
      "properties": {
         "id": "pmb185621",
         "title": "Burgtheater [Altes Burgtheater]",
         "lat": "48.20778",
         "lon": "16.36645",
         "timestamp": ["1888-01-24"],
         "importance": "1"
      }
      }, 
    {
      "type": "Feature",
      "geometry": {
        "type": "Point",
        "coordinates": [16.351111, 48.209583]
      },
      "properties": {
         "id": "pmb40",
         "title": "Theater in der Josefstadt",
         "lat": "48.209583",
         "lon": "16.351111",
         "timestamp": ["1888-01-14"],
         "importance": "1"
      }
      }, 
    {
      "type": "Feature",
      "geometry": {
        "type": "Point",
        "coordinates": [16.384444, 48.215]
      },
      "properties": {
         "id": "pmb118",
         "title": "Carl-Theater",
         "lat": "48.215",
         "lon": "16.384444",
         "timestamp": ["1888-01-30"],
         "importance": "1"
      }
      }, 
    {
      "type": "Feature",
      "geometry": {
        "type": "Point",
        "coordinates": [16.3642, 48.19941]
      },
      "properties": {
         "id": "pmb37",
         "title": "Theater an der Wien",
         "lat": "48.19941",
         "lon": "16.3642",
         "timestamp": ["1888-01-18", "1888-01-28"],
         "importance": "2"
      }
      }, 
    {
      "type": "Feature",
      "geometry": {
        "type": "Point",
        "coordinates": [16.3538456, 48.2134031]
      },
      "properties": {
         "id": "pmb44",
         "title": "Riedhof",
         "lat": "48.2134031",
         "lon": "16.3538456",
         "timestamp": ["1888-01-14", "1888-01-20"],
         "importance": "2"
      }
      }, 
    {
      "type": "Feature",
      "geometry": {
        "type": "Point",
        "coordinates": [16.23264, 48.00543]
      },
      "properties": {
         "id": "pmb662",
         "title": "Baden bei Wien",
         "lat": "48.00543",
         "lon": "16.23264",
         "timestamp": ["1888-01-05"],
         "importance": "1"
      }
      }, 
    {
      "type": "Feature",
      "geometry": {
        "type": "Point",
        "coordinates": [16.2353, 48.0096]
      },
      "properties": {
         "id": "pmb190818",
         "title": "Stadttheater Baden",
         "lat": "48.0096",
         "lon": "16.2353",
         "timestamp": ["1888-01-05"],
         "importance": "1"
      }
      }, 
    {
      "type": "Feature",
      "geometry": {
        "type": "Point",
        "coordinates": [16.379829498031, 48.187455471378]
      },
      "properties": {
         "id": "pmb132",
         "title": "Südbahnhof",
         "lat": "48.187455471378",
         "lon": "16.379829498031",
         "timestamp": ["1888-01-05"],
         "importance": "1"
      }
      }, 
    {
      "type": "Feature",
      "geometry": {
        "type": "Point",
        "coordinates": [16.36468, 48.21099]
      },
      "properties": {
         "id": "pmb377",
         "title": "Hotel Klomser",
         "lat": "48.21099",
         "lon": "16.36468",
         "timestamp": ["1888-01-04"],
         "importance": "1"
      }
      }, 
    {
      "type": "Feature",
      "geometry": {
        "type": "Point",
        "coordinates": [16.362245, 48.21079]
      },
      "properties": {
         "id": "pmb199958",
         "title": "Löwelstraße 14",
         "lat": "48.21079",
         "lon": "16.362245",
         "timestamp": ["1888-01-12"],
         "importance": "1"
      }
      }, 
    {
      "type": "Feature",
      "geometry": {
        "type": "Point",
        "coordinates": [16.36714, 48.19198]
      },
      "properties": {
         "id": "pmb54",
         "title": "IV., Wieden",
         "lat": "48.19198",
         "lon": "16.36714",
         "timestamp": ["1888-01-28"],
         "importance": "1"
      }
      }
  ]
}