{
  "type": "FeatureCollection",
  "features": [
    {
      "type": "Feature", 
      "geometry": {
        "type": "LineString", 
        "coordinates": [
            [-1.52616, 50.68365], 
            [-1.5761111111111, 50.666388888889], 
            [-1.31725, 50.6917], 
            [-1.31389, 50.6875], 
            [-1.29124, 50.70146], 
            [-1.20672, 50.59449], 
            [-0.174938, 51.495309]
          ]
      },
      "properties": {
        "name": "24. Juli 1888"
      }
    },
    {
      "type": "Feature",
      "geometry": {
        "type": "Point",
        "coordinates": [
          -0.174938, 51.495309
        ]
      },
      "properties": {
        "title": "Cromwell Place",
        "timestamp": ["1888-07-24"],
        "pmb": "https://pmb.acdh.oeaw.ac.at/entity//"
      }
      },
    {
      "type": "Feature",
      "geometry": {
        "type": "Point",
        "coordinates": [
          -1.20672, 50.59449
        ]
      },
      "properties": {
        "title": "Ventnor",
        "timestamp": ["1888-07-24"],
        "pmb": "https://pmb.acdh.oeaw.ac.at/entity//"
      }
      },
    {
      "type": "Feature",
      "geometry": {
        "type": "Point",
        "coordinates": [
          -1.29124, 50.70146
        ]
      },
      "properties": {
        "title": "Newport",
        "timestamp": ["1888-07-24"],
        "pmb": "https://pmb.acdh.oeaw.ac.at/entity//"
      }
      },
    {
      "type": "Feature",
      "geometry": {
        "type": "Point",
        "coordinates": [
          -1.5761111111111, 50.666388888889
        ]
      },
      "properties": {
        "title": "Alum Bay",
        "timestamp": ["1888-07-24"],
        "pmb": "https://pmb.acdh.oeaw.ac.at/entity//", 
        "wikipedia": "https://de.wikipedia.org/wiki/Alum_Bay"
      }
      },
    {
      "type": "Feature",
      "geometry": {
        "type": "Point",
        "coordinates": [
          -1.31389, 50.6875
        ]
      },
      "properties": {
        "title": "Carisbrooke Castle",
        "timestamp": ["1888-07-24"],
        "pmb": "https://pmb.acdh.oeaw.ac.at/entity//", 
        "wikipedia": "https://de.wikipedia.org/wiki/Carisbrooke_Castle"
      }
      },
    {
      "type": "Feature",
      "geometry": {
        "type": "Point",
        "coordinates": [
          -1.31725, 50.6917
        ]
      },
      "properties": {
        "title": "Carisbrooke",
        "timestamp": ["1888-07-24"],
        "pmb": "https://pmb.acdh.oeaw.ac.at/entity//"
      }
      },
    {
      "type": "Feature",
      "geometry": {
        "type": "Point",
        "coordinates": [
          -1.52616, 50.68365
        ]
      },
      "properties": {
        "title": "Freshwater",
        "timestamp": ["1888-07-24"],
        "pmb": "https://pmb.acdh.oeaw.ac.at/entity//"
      }
      }
  ]
}