{
  "type": "FeatureCollection",
  "features": [
    {
      "type": "Feature",
      "geometry": {
        "type": "Point",
        "coordinates": [16.373056, 48.208333]
      },
      "properties": {
         "id": "pmb50",
         "title": "Wien",
         "lat": "48.208333",
         "lon": "16.373056",
         "timestamp": ["1889-12-01", "1889-12-02", "1889-12-03", "1889-12-04", "1889-12-05", "1889-12-06", "1889-12-07", "1889-12-08", "1889-12-09", "1889-12-10", "1889-12-11", "1889-12-12", "1889-12-13", "1889-12-14", "1889-12-15", "1889-12-16", "1889-12-17", "1889-12-18", "1889-12-19", "1889-12-20", "1889-12-21", "1889-12-22", "1889-12-23", "1889-12-24", "1889-12-25", "1889-12-26", "1889-12-27", "1889-12-28", "1889-12-29", "1889-12-30", "1889-12-31"],
         "importance": "31"
      }
      }, 
    {
      "type": "Feature",
      "geometry": {
        "type": "Point",
        "coordinates": [16.351111, 48.209583]
      },
      "properties": {
         "id": "pmb40",
         "title": "Theater in der Josefstadt",
         "lat": "48.209583",
         "lon": "16.351111",
         "timestamp": ["1889-12-10"],
         "importance": "1"
      }
      }, 
    {
      "type": "Feature",
      "geometry": {
        "type": "Point",
        "coordinates": [16.365278, 48.210278]
      },
      "properties": {
         "id": "pmb262",
         "title": "Café Central",
         "lat": "48.210278",
         "lon": "16.365278",
         "timestamp": ["1889-12-04", "1889-12-14"],
         "importance": "2"
      }
      }, 
    {
      "type": "Feature",
      "geometry": {
        "type": "Point",
        "coordinates": [16.37084, 48.210333]
      },
      "properties": {
         "id": "pmb2",
         "title": "Konservatorium der Gesellschaft der Musikfreunde",
         "lat": "48.210333",
         "lon": "16.37084",
         "timestamp": ["1889-12-05", "1889-12-11"],
         "importance": "2"
      }
      }, 
    {
      "type": "Feature",
      "geometry": {
        "type": "Point",
        "coordinates": [16.3589845, 48.2195962]
      },
      "properties": {
         "id": "pmb182762",
         "title": "Danzer’s Orpheum",
         "lat": "48.2195962",
         "lon": "16.3589845",
         "timestamp": ["1889-12-03"],
         "importance": "1"
      }
      }, 
    {
      "type": "Feature",
      "geometry": {
        "type": "Point",
        "coordinates": [16.357685, 48.216547]
      },
      "properties": {
         "id": "pmb41",
         "title": "Allgemeine Poliklinik",
         "lat": "48.216547",
         "lon": "16.357685",
         "timestamp": ["1889-12-16", "1889-12-18"],
         "importance": "2"
      }
      }, 
    {
      "type": "Feature",
      "geometry": {
        "type": "Point",
        "coordinates": [16.362269, 48.210795]
      },
      "properties": {
         "id": "pmb194841",
         "title": "Löwelstraße 16",
         "lat": "48.210795",
         "lon": "16.362269",
         "timestamp": ["1889-12-22"],
         "importance": "1"
      }
      }, 
    {
      "type": "Feature",
      "geometry": {
        "type": "Point",
        "coordinates": [16.37548, 48.2099]
      },
      "properties": {
         "id": "pmb419",
         "title": "Restaurant Obenaus",
         "lat": "48.2099",
         "lon": "16.37548",
         "timestamp": ["1889-12-05"],
         "importance": "1"
      }
      }, 
    {
      "type": "Feature",
      "geometry": {
        "type": "Point",
        "coordinates": [16.362803, 48.215589]
      },
      "properties": {
         "id": "pmb207250",
         "title": "Wasagasse 4",
         "lat": "48.215589",
         "lon": "16.362803",
         "timestamp": ["1889-12-20"],
         "importance": "1"
      }
      }, 
    {
      "type": "Feature",
      "geometry": {
        "type": "Point",
        "coordinates": [16.36362, 48.20329]
      },
      "properties": {
         "id": "pmb168768",
         "title": "Wohnung und Ordination Arthur Schnitzler Burgring 1",
         "lat": "48.20329",
         "lon": "16.36362",
         "timestamp": ["1889-12-01", "1889-12-02"],
         "importance": "2"
      }
      }, 
    {
      "type": "Feature",
      "geometry": {
        "type": "Point",
        "coordinates": [16.36715738471531, 48.2128689619094]
      },
      "properties": {
         "id": "pmb55832",
         "title": "Renngasse",
         "lat": "48.2128689619094",
         "lon": "16.36715738471531",
         "timestamp": ["1889-12-17"],
         "importance": "1"
      }
      }, 
    {
      "type": "Feature",
      "geometry": {
        "type": "Point",
        "coordinates": [16.37196, 48.20143]
      },
      "properties": {
         "id": "pmb167805",
         "title": "Kärntnerring 12/Bösendorferstraße 11",
         "lat": "48.20143",
         "lon": "16.37196",
         "timestamp": ["1889-12-03", "1889-12-04", "1889-12-05", "1889-12-06", "1889-12-07", "1889-12-08", "1889-12-09", "1889-12-10", "1889-12-11", "1889-12-12", "1889-12-13", "1889-12-14", "1889-12-15", "1889-12-16", "1889-12-17", "1889-12-18", "1889-12-19", "1889-12-20", "1889-12-21", "1889-12-22", "1889-12-23", "1889-12-24", "1889-12-25", "1889-12-26", "1889-12-27", "1889-12-28", "1889-12-29", "1889-12-30", "1889-12-31"],
         "importance": "29"
      }
      }, 
    {
      "type": "Feature",
      "geometry": {
        "type": "Point",
        "coordinates": [16.32475, 48.19031]
      },
      "properties": {
         "id": "pmb39",
         "title": "Volkstheater in Rudolfsheim",
         "lat": "48.19031",
         "lon": "16.32475",
         "timestamp": ["1889-12-14"],
         "importance": "1"
      }
      }, 
    {
      "type": "Feature",
      "geometry": {
        "type": "Point",
        "coordinates": [16.37049, 48.20368]
      },
      "properties": {
         "id": "pmb119",
         "title": "Café Scheidl",
         "lat": "48.20368",
         "lon": "16.37049",
         "timestamp": ["1889-12-16"],
         "importance": "1"
      }
      }
  ]
}