{
  "type": "FeatureCollection",
  "features": [
    {
      "type": "Feature",
      "geometry": {
        "type": "Point",
        "coordinates": [16.373056, 48.208333]
      },
      "properties": {
         "id": "pmb50",
         "title": "Wien",
         "lat": "48.208333",
         "lon": "16.373056",
         "timestamp": ["1889-04-01", "1889-04-02", "1889-04-03", "1889-04-04", "1889-04-05", "1889-04-06", "1889-04-07", "1889-04-08", "1889-04-09", "1889-04-10", "1889-04-11", "1889-04-12", "1889-04-13", "1889-04-14", "1889-04-15", "1889-04-16", "1889-04-17", "1889-04-18", "1889-04-19", "1889-04-20", "1889-04-21", "1889-04-22", "1889-04-23", "1889-04-24", "1889-04-25", "1889-04-26", "1889-04-27", "1889-04-28", "1889-04-29", "1889-04-30"],
         "importance": "30"
      }
      }, 
    {
      "type": "Feature",
      "geometry": {
        "type": "Point",
        "coordinates": [16.3691, 48.203]
      },
      "properties": {
         "id": "pmb15",
         "title": "Oper",
         "lat": "48.203",
         "lon": "16.3691",
         "timestamp": ["1889-04-09"],
         "importance": "1"
      }
      }, 
    {
      "type": "Feature",
      "geometry": {
        "type": "Point",
        "coordinates": [16.430054, 48.194558]
      },
      "properties": {
         "id": "pmb8",
         "title": "Prater",
         "lat": "48.194558",
         "lon": "16.430054",
         "timestamp": ["1889-04-10", "1889-04-13"],
         "importance": "2"
      }
      }, 
    {
      "type": "Feature",
      "geometry": {
        "type": "Point",
        "coordinates": [16.357685, 48.216547]
      },
      "properties": {
         "id": "pmb41",
         "title": "Allgemeine Poliklinik",
         "lat": "48.216547",
         "lon": "16.357685",
         "timestamp": ["1889-04-13"],
         "importance": "1"
      }
      }, 
    {
      "type": "Feature",
      "geometry": {
        "type": "Point",
        "coordinates": [16.36946, 48.20138]
      },
      "properties": {
         "id": "pmb42",
         "title": "Leidingers Restauration",
         "lat": "48.20138",
         "lon": "16.36946",
         "timestamp": ["1889-04-19"],
         "importance": "1"
      }
      }, 
    {
      "type": "Feature",
      "geometry": {
        "type": "Point",
        "coordinates": [16.362269, 48.210795]
      },
      "properties": {
         "id": "pmb194841",
         "title": "Löwelstraße 16",
         "lat": "48.210795",
         "lon": "16.362269",
         "timestamp": ["1889-04-21"],
         "importance": "1"
      }
      }, 
    {
      "type": "Feature",
      "geometry": {
        "type": "Point",
        "coordinates": [16.36362, 48.20329]
      },
      "properties": {
         "id": "pmb168768",
         "title": "Wohnung und Ordination Arthur Schnitzler Burgring 1",
         "lat": "48.20329",
         "lon": "16.36362",
         "timestamp": ["1889-04-01", "1889-04-02", "1889-04-03", "1889-04-04", "1889-04-05", "1889-04-06", "1889-04-07", "1889-04-08", "1889-04-09", "1889-04-10", "1889-04-11", "1889-04-12", "1889-04-13", "1889-04-14", "1889-04-15", "1889-04-16", "1889-04-17", "1889-04-18", "1889-04-19", "1889-04-20", "1889-04-21", "1889-04-22", "1889-04-23", "1889-04-24", "1889-04-25", "1889-04-26", "1889-04-27", "1889-04-28", "1889-04-29", "1889-04-30"],
         "importance": "30"
      }
      }, 
    {
      "type": "Feature",
      "geometry": {
        "type": "Point",
        "coordinates": [16.384993, 48.206457]
      },
      "properties": {
         "id": "pmb186486",
         "title": "Eislaufverein [1. Platz]",
         "lat": "48.206457",
         "lon": "16.384993",
         "timestamp": ["1889-04-15"],
         "importance": "1"
      }
      }
  ]
}