{
  "type": "FeatureCollection",
  "features": [
    {
      "type": "Feature",
      "geometry": {
        "type": "Point",
        "coordinates": [15.84704, 47.70466]
      },
      "properties": {
         "id": "pmb796",
         "title": "Thalhof",
         "lat": "47.70466",
         "lon": "15.84704",
         "timestamp": ["1889-08-17", "1889-08-18", "1889-08-19", "1889-08-20", "1889-09-07", "1889-09-08", "1889-09-09"],
         "importance": "7"
      }
      }, 
    {
      "type": "Feature",
      "geometry": {
        "type": "Point",
        "coordinates": [16.375, 48.205139]
      },
      "properties": {
         "id": "pmb19",
         "title": "Ronacher",
         "lat": "48.205139",
         "lon": "16.375",
         "timestamp": ["1889-01-13", "1889-03-20", "1889-03-21", "1889-08-30", "1889-08-31", "1889-11-09", "1889-11-26"],
         "importance": "7"
      }
      }, 
    {
      "type": "Feature",
      "geometry": {
        "type": "Point",
        "coordinates": [16.372564182283, 48.201265597319]
      },
      "properties": {
         "id": "pmb516",
         "title": "Musikverein",
         "lat": "48.201265597319",
         "lon": "16.372564182283",
         "timestamp": ["1889-01-13"],
         "importance": "1"
      }
      }, 
    {
      "type": "Feature",
      "geometry": {
        "type": "Point",
        "coordinates": [16.3691, 48.203]
      },
      "properties": {
         "id": "pmb15",
         "title": "Oper",
         "lat": "48.203",
         "lon": "16.3691",
         "timestamp": ["1889-01-18", "1889-02-18", "1889-02-26", "1889-03-15", "1889-03-16", "1889-04-09", "1889-05-09", "1889-05-18", "1889-08-21", "1889-09-04", "1889-09-20", "1889-09-24", "1889-10-04"],
         "importance": "13"
      }
      }, 
    {
      "type": "Feature",
      "geometry": {
        "type": "Point",
        "coordinates": [16.351111, 48.209583]
      },
      "properties": {
         "id": "pmb40",
         "title": "Theater in der Josefstadt",
         "lat": "48.209583",
         "lon": "16.351111",
         "timestamp": ["1889-09-16", "1889-10-26", "1889-12-10"],
         "importance": "3"
      }
      }, 
    {
      "type": "Feature",
      "geometry": {
        "type": "Point",
        "coordinates": [16.384444, 48.215]
      },
      "properties": {
         "id": "pmb118",
         "title": "Carl-Theater",
         "lat": "48.215",
         "lon": "16.384444",
         "timestamp": ["1889-01-14", "1889-01-24", "1889-02-25", "1889-05-01"],
         "importance": "4"
      }
      }, 
    {
      "type": "Feature",
      "geometry": {
        "type": "Point",
        "coordinates": [16.386103, 48.217755]
      },
      "properties": {
         "id": "pmb182751",
         "title": "Zirkus Renz",
         "lat": "48.217755",
         "lon": "16.386103",
         "timestamp": ["1889-01-06"],
         "importance": "1"
      }
      }, 
    {
      "type": "Feature",
      "geometry": {
        "type": "Point",
        "coordinates": [16.3642, 48.19941]
      },
      "properties": {
         "id": "pmb37",
         "title": "Theater an der Wien",
         "lat": "48.19941",
         "lon": "16.3642",
         "timestamp": ["1889-02-16", "1889-05-02", "1889-09-13", "1889-09-15", "1889-10-05"],
         "importance": "5"
      }
      }, 
    {
      "type": "Feature",
      "geometry": {
        "type": "Point",
        "coordinates": [16.373056, 48.208333]
      },
      "properties": {
         "id": "pmb50",
         "title": "Wien",
         "lat": "48.208333",
         "lon": "16.373056",
         "timestamp": ["1889-01-01", "1889-01-02", "1889-01-03", "1889-01-04", "1889-01-05", "1889-01-06", "1889-01-07", "1889-01-08", "1889-01-09", "1889-01-10", "1889-01-11", "1889-01-12", "1889-01-13", "1889-01-14", "1889-01-15", "1889-01-16", "1889-01-17", "1889-01-18", "1889-01-19", "1889-01-20", "1889-01-21", "1889-01-22", "1889-01-23", "1889-01-24", "1889-01-25", "1889-01-26", "1889-01-27", "1889-01-28", "1889-01-29", "1889-01-30", "1889-01-31", "1889-02-01", "1889-02-02", "1889-02-03", "1889-02-04", "1889-02-05", "1889-02-06", "1889-02-07", "1889-02-08", "1889-02-09", "1889-02-10", "1889-02-11", "1889-02-12", "1889-02-13", "1889-02-14", "1889-02-15", "1889-02-17", "1889-02-18", "1889-02-19", "1889-02-20", "1889-02-21", "1889-02-22", "1889-02-23", "1889-02-24", "1889-02-25", "1889-02-26", "1889-02-27", "1889-02-28", "1889-03-01", "1889-03-02", "1889-03-03", "1889-03-04", "1889-03-05", "1889-03-06", "1889-03-07", "1889-03-08", "1889-03-09", "1889-03-10", "1889-03-11", "1889-03-12", "1889-03-13", "1889-03-14", "1889-03-15", "1889-03-16", "1889-03-17", "1889-03-18", "1889-03-19", "1889-03-20", "1889-03-21", "1889-03-22", "1889-03-23", "1889-03-24", "1889-03-25", "1889-03-26", "1889-03-27", "1889-03-28", "1889-03-29", "1889-03-31", "1889-04-01", "1889-04-02", "1889-04-03", "1889-04-04", "1889-04-05", "1889-04-06", "1889-04-07", "1889-04-08", "1889-04-09", "1889-04-10", "1889-04-11", "1889-04-12", "1889-04-13", "1889-04-14", "1889-04-15", "1889-04-16", "1889-04-17", "1889-04-18", "1889-04-19", "1889-04-20", "1889-04-21", "1889-04-22", "1889-04-23", "1889-04-24", "1889-04-25", "1889-04-26", "1889-04-27", "1889-04-28", "1889-04-29", "1889-04-30", "1889-05-01", "1889-05-02", "1889-05-03", "1889-05-04", "1889-05-05", "1889-05-06", "1889-05-07", "1889-05-08", "1889-05-09", "1889-05-10", "1889-05-11", "1889-05-12", "1889-05-13", "1889-05-14", "1889-05-15", "1889-05-16", "1889-05-17", "1889-05-18", "1889-05-19", "1889-05-20", "1889-05-21", "1889-05-22", "1889-05-23", "1889-05-24", "1889-05-25", "1889-05-26", "1889-05-27", "1889-05-28", "1889-05-29", "1889-05-30", "1889-06-01", "1889-06-02", "1889-06-03", "1889-06-04", "1889-06-05", "1889-06-06", "1889-06-07", "1889-06-08", "1889-06-09", "1889-06-10", "1889-06-11", "1889-06-12", "1889-06-13", "1889-06-14", "1889-06-15", "1889-06-16", "1889-06-17", "1889-06-18", "1889-06-19", "1889-06-20", "1889-06-21", "1889-06-22", "1889-06-23", "1889-06-24", "1889-06-25", "1889-06-26", "1889-06-27", "1889-06-28", "1889-06-29", "1889-06-30", "1889-07-01", "1889-07-02", "1889-07-03", "1889-07-04", "1889-07-05", "1889-07-06", "1889-07-07", "1889-07-08", "1889-07-09", "1889-07-10", "1889-07-11", "1889-07-12", "1889-07-13", "1889-07-14", "1889-07-15", "1889-07-16", "1889-07-17", "1889-07-18", "1889-07-19", "1889-07-20", "1889-07-21", "1889-07-22", "1889-07-23", "1889-07-24", "1889-07-25", "1889-07-26", "1889-07-30", "1889-07-31", "1889-08-01", "1889-08-02", "1889-08-03", "1889-08-20", "1889-08-21", "1889-08-22", "1889-08-23", "1889-08-24", "1889-08-25", "1889-08-26", "1889-08-27", "1889-08-28", "1889-08-29", "1889-08-30", "1889-08-31", "1889-09-01", "1889-09-03", "1889-09-04", "1889-09-05", "1889-09-06", "1889-09-07", "1889-09-09", "1889-09-11", "1889-09-12", "1889-09-14", "1889-09-16", "1889-09-17", "1889-09-18", "1889-09-19", "1889-09-20", "1889-09-21", "1889-09-22", "1889-09-23", "1889-09-24", "1889-09-25", "1889-09-26", "1889-09-27", "1889-09-28", "1889-09-29", "1889-09-30", "1889-10-01", "1889-10-02", "1889-10-03", "1889-10-04", "1889-10-06", "1889-10-07", "1889-10-08", "1889-10-09", "1889-10-10", "1889-10-11", "1889-10-12", "1889-10-13", "1889-10-14", "1889-10-15", "1889-10-16", "1889-10-17", "1889-10-18", "1889-10-19", "1889-10-20", "1889-10-21", "1889-10-22", "1889-10-23", "1889-10-24", "1889-10-25", "1889-10-26", "1889-10-27", "1889-10-28", "1889-10-29", "1889-10-30", "1889-10-31", "1889-11-01", "1889-11-02", "1889-11-03", "1889-11-04", "1889-11-05", "1889-11-06", "1889-11-07", "1889-11-08", "1889-11-09", "1889-11-10", "1889-11-11", "1889-11-12", "1889-11-13", "1889-11-14", "1889-11-15", "1889-11-16", "1889-11-17", "1889-11-18", "1889-11-19", "1889-11-20", "1889-11-21", "1889-11-22", "1889-11-23", "1889-11-24", "1889-11-25", "1889-11-26", "1889-11-27", "1889-11-28", "1889-11-29", "1889-11-30", "1889-12-01", "1889-12-02", "1889-12-03", "1889-12-04", "1889-12-05", "1889-12-06", "1889-12-07", "1889-12-08", "1889-12-09", "1889-12-10", "1889-12-11", "1889-12-12", "1889-12-13", "1889-12-14", "1889-12-15", "1889-12-16", "1889-12-17", "1889-12-18", "1889-12-19", "1889-12-20", "1889-12-21", "1889-12-22", "1889-12-23", "1889-12-24", "1889-12-25", "1889-12-26", "1889-12-27", "1889-12-28", "1889-12-29", "1889-12-30", "1889-12-31"],
         "importance": "337"
      }
      }, 
    {
      "type": "Feature",
      "geometry": {
        "type": "Point",
        "coordinates": [16.361139, 48.210333]
      },
      "properties": {
         "id": "pmb14",
         "title": "Burgtheater",
         "lat": "48.210333",
         "lon": "16.361139",
         "timestamp": ["1889-01-25", "1889-05-04", "1889-06-04", "1889-09-15", "1889-11-23"],
         "importance": "5"
      }
      }, 
    {
      "type": "Feature",
      "geometry": {
        "type": "Point",
        "coordinates": [16.365278, 48.210278]
      },
      "properties": {
         "id": "pmb262",
         "title": "Café Central",
         "lat": "48.210278",
         "lon": "16.365278",
         "timestamp": ["1889-12-04", "1889-12-14"],
         "importance": "2"
      }
      }, 
    {
      "type": "Feature",
      "geometry": {
        "type": "Point",
        "coordinates": [16.430054, 48.194558]
      },
      "properties": {
         "id": "pmb8",
         "title": "Prater",
         "lat": "48.194558",
         "lon": "16.430054",
         "timestamp": ["1889-03-17", "1889-04-10", "1889-04-13", "1889-07-06"],
         "importance": "4"
      }
      }, 
    {
      "type": "Feature",
      "geometry": {
        "type": "Point",
        "coordinates": [16.3734013, 48.2098832]
      },
      "properties": {
         "id": "pmb42749",
         "title": "Stefanskeller",
         "lat": "48.2098832",
         "lon": "16.3734013",
         "timestamp": ["1889-03-29", "1889-09-12", "1889-09-18"],
         "importance": "3"
      }
      }, 
    {
      "type": "Feature",
      "geometry": {
        "type": "Point",
        "coordinates": [16.3723242, 48.2081463]
      },
      "properties": {
         "id": "pmb42751",
         "title": "Stephanskeller",
         "lat": "48.2081463",
         "lon": "16.3723242",
         "timestamp": ["1889-10-10"],
         "importance": "1"
      }
      }, 
    {
      "type": "Feature",
      "geometry": {
        "type": "Point",
        "coordinates": [16.37084, 48.210333]
      },
      "properties": {
         "id": "pmb2",
         "title": "Konservatorium der Gesellschaft der Musikfreunde",
         "lat": "48.210333",
         "lon": "16.37084",
         "timestamp": ["1889-10-08", "1889-10-15", "1889-11-02", "1889-11-04", "1889-11-12", "1889-12-05", "1889-12-11"],
         "importance": "7"
      }
      }, 
    {
      "type": "Feature",
      "geometry": {
        "type": "Point",
        "coordinates": [16.3538456, 48.2134031]
      },
      "properties": {
         "id": "pmb44",
         "title": "Riedhof",
         "lat": "48.2134031",
         "lon": "16.3538456",
         "timestamp": ["1889-01-18", "1889-05-30", "1889-08-23", "1889-08-26", "1889-08-29", "1889-09-23", "1889-10-07", "1889-10-20", "1889-10-24", "1889-10-26", "1889-10-29", "1889-11-07", "1889-11-08", "1889-11-09", "1889-11-12", "1889-11-15"],
         "importance": "16"
      }
      }, 
    {
      "type": "Feature",
      "geometry": {
        "type": "Point",
        "coordinates": [13.78243, 47.60998]
      },
      "properties": {
         "id": "pmb415",
         "title": "Bad Aussee",
         "lat": "47.60998",
         "lon": "13.78243",
         "timestamp": ["1889-08-11"],
         "importance": "1"
      }
      }, 
    {
      "type": "Feature",
      "geometry": {
        "type": "Point",
        "coordinates": [13.61893, 47.71109]
      },
      "properties": {
         "id": "pmb213",
         "title": "Bad Ischl",
         "lat": "47.71109",
         "lon": "13.61893",
         "timestamp": ["1889-07-27", "1889-07-28", "1889-07-29", "1889-07-30", "1889-07-31", "1889-08-01"],
         "importance": "6"
      }
      }, 
    {
      "type": "Feature",
      "geometry": {
        "type": "Point",
        "coordinates": [16.3589845, 48.2195962]
      },
      "properties": {
         "id": "pmb182762",
         "title": "Danzer’s Orpheum",
         "lat": "48.2195962",
         "lon": "16.3589845",
         "timestamp": ["1889-12-03"],
         "importance": "1"
      }
      }, 
    {
      "type": "Feature",
      "geometry": {
        "type": "Point",
        "coordinates": [16.4496, 48.1864]
      },
      "properties": {
         "id": "pmb186493",
         "title": "Galopprennbahn Freudenau",
         "lat": "48.1864",
         "lon": "16.4496",
         "timestamp": ["1889-05-30"],
         "importance": "1"
      }
      }, 
    {
      "type": "Feature",
      "geometry": {
        "type": "Point",
        "coordinates": [16.23264, 48.00543]
      },
      "properties": {
         "id": "pmb662",
         "title": "Baden bei Wien",
         "lat": "48.00543",
         "lon": "16.23264",
         "timestamp": ["1889-05-12", "1889-06-04", "1889-08-01", "1889-09-17"],
         "importance": "4"
      }
      }, 
    {
      "type": "Feature",
      "geometry": {
        "type": "Point",
        "coordinates": [16.29101, 48.17547]
      },
      "properties": {
         "id": "pmb63",
         "title": "XIII., Hietzing",
         "lat": "48.17547",
         "lon": "16.29101",
         "timestamp": ["1889-09-10"],
         "importance": "1"
      }
      }, 
    {
      "type": "Feature",
      "geometry": {
        "type": "Point",
        "coordinates": [13.81667, 47.61667]
      },
      "properties": {
         "id": "pmb282",
         "title": "Grundlsee (Gemeinde)",
         "lat": "47.61667",
         "lon": "13.81667",
         "timestamp": ["1889-08-11", "1889-08-12", "1889-08-13", "1889-08-14"],
         "importance": "4"
      }
      }, 
    {
      "type": "Feature",
      "geometry": {
        "type": "Point",
        "coordinates": [16.35032, 48.19522]
      },
      "properties": {
         "id": "pmb56",
         "title": "VI., Mariahilf",
         "lat": "48.19522",
         "lon": "16.35032",
         "timestamp": ["1889-05-31"],
         "importance": "1"
      }
      }, 
    {
      "type": "Feature",
      "geometry": {
        "type": "Point",
        "coordinates": [16.357685, 48.216547]
      },
      "properties": {
         "id": "pmb41",
         "title": "Allgemeine Poliklinik",
         "lat": "48.216547",
         "lon": "16.357685",
         "timestamp": ["1889-04-13", "1889-12-16", "1889-12-18"],
         "importance": "3"
      }
      }, 
    {
      "type": "Feature",
      "geometry": {
        "type": "Point",
        "coordinates": [16.36946, 48.20138]
      },
      "properties": {
         "id": "pmb42",
         "title": "Leidingers Restauration",
         "lat": "48.20138",
         "lon": "16.36946",
         "timestamp": ["1889-04-19", "1889-09-01", "1889-09-27", "1889-11-03"],
         "importance": "4"
      }
      }, 
    {
      "type": "Feature",
      "geometry": {
        "type": "Point",
        "coordinates": [16.3589854, 48.2139714]
      },
      "properties": {
         "id": "pmb104",
         "title": "Café Arkaden",
         "lat": "48.2139714",
         "lon": "16.3589854",
         "timestamp": ["1889-03-07", "1889-08-26", "1889-09-20", "1889-10-07"],
         "importance": "4"
      }
      }, 
    {
      "type": "Feature",
      "geometry": {
        "type": "Point",
        "coordinates": [13.48728, 47.80494]
      },
      "properties": {
         "id": "pmb877",
         "title": "Unterach am Attersee",
         "lat": "47.80494",
         "lon": "13.48728",
         "timestamp": ["1889-08-07", "1889-08-08"],
         "importance": "2"
      }
      }, 
    {
      "type": "Feature",
      "geometry": {
        "type": "Point",
        "coordinates": [13.5358, 47.8004]
      },
      "properties": {
         "id": "pmb34344",
         "title": "Weißenbach am Attersee",
         "lat": "47.8004",
         "lon": "13.5358",
         "timestamp": ["1889-08-07"],
         "importance": "1"
      }
      }, 
    {
      "type": "Feature",
      "geometry": {
        "type": "Point",
        "coordinates": [16.362269, 48.210795]
      },
      "properties": {
         "id": "pmb194841",
         "title": "Löwelstraße 16",
         "lat": "48.210795",
         "lon": "16.362269",
         "timestamp": ["1889-01-01", "1889-02-26", "1889-03-26", "1889-04-21", "1889-10-25", "1889-11-01", "1889-11-23", "1889-12-22"],
         "importance": "8"
      }
      }, 
    {
      "type": "Feature",
      "geometry": {
        "type": "Point",
        "coordinates": [16.37548, 48.2099]
      },
      "properties": {
         "id": "pmb419",
         "title": "Restaurant Obenaus",
         "lat": "48.2099",
         "lon": "16.37548",
         "timestamp": ["1889-11-18", "1889-12-05"],
         "importance": "2"
      }
      }, 
    {
      "type": "Feature",
      "geometry": {
        "type": "Point",
        "coordinates": [13.78939, 47.84462]
      },
      "properties": {
         "id": "pmb88391",
         "title": "Traunkirchen",
         "lat": "47.84462",
         "lon": "13.78939",
         "timestamp": ["1889-08-09", "1889-08-10"],
         "importance": "2"
      }
      }, 
    {
      "type": "Feature",
      "geometry": {
        "type": "Point",
        "coordinates": [16.379829498031, 48.187455471378]
      },
      "properties": {
         "id": "pmb132",
         "title": "Südbahnhof",
         "lat": "48.187455471378",
         "lon": "16.379829498031",
         "timestamp": ["1889-11-12"],
         "importance": "1"
      }
      }, 
    {
      "type": "Feature",
      "geometry": {
        "type": "Point",
        "coordinates": [16.36714, 48.19198]
      },
      "properties": {
         "id": "pmb54",
         "title": "IV., Wieden",
         "lat": "48.19198",
         "lon": "16.36714",
         "timestamp": ["1889-02-16", "1889-09-13", "1889-09-15", "1889-10-05"],
         "importance": "4"
      }
      }, 
    {
      "type": "Feature",
      "geometry": {
        "type": "Point",
        "coordinates": [16.362803, 48.215589]
      },
      "properties": {
         "id": "pmb207250",
         "title": "Wasagasse 4",
         "lat": "48.215589",
         "lon": "16.362803",
         "timestamp": ["1889-12-20"],
         "importance": "1"
      }
      }, 
    {
      "type": "Feature",
      "geometry": {
        "type": "Point",
        "coordinates": [13.3891, 52.5167]
      },
      "properties": {
         "id": "pmb185035",
         "title": "Café Bauer",
         "lat": "52.5167",
         "lon": "13.3891",
         "timestamp": ["1889-11-21"],
         "importance": "1"
      }
      }, 
    {
      "type": "Feature",
      "geometry": {
        "type": "Point",
        "coordinates": [16.36362, 48.20329]
      },
      "properties": {
         "id": "pmb168768",
         "title": "Wohnung und Ordination Dr. Arthur Schnitzler Burgring 1",
         "lat": "48.20329",
         "lon": "16.36362",
         "timestamp": ["1889-09-14", "1889-11-28"],
         "importance": "2"
      }
      }, 
    {
      "type": "Feature",
      "geometry": {
        "type": "Point",
        "coordinates": [16.37049, 48.20769]
      },
      "properties": {
         "id": "pmb51",
         "title": "I., Innere Stadt",
         "lat": "48.20769",
         "lon": "16.37049",
         "timestamp": ["1889-03-30"],
         "importance": "1"
      }
      }, 
    {
      "type": "Feature",
      "geometry": {
        "type": "Point",
        "coordinates": [16.384993, 48.206457]
      },
      "properties": {
         "id": "pmb186486",
         "title": "Eislaufverein [1. Platz]",
         "lat": "48.206457",
         "lon": "16.384993",
         "timestamp": ["1889-04-15"],
         "importance": "1"
      }
      }, 
    {
      "type": "Feature",
      "geometry": {
        "type": "Point",
        "coordinates": [16.37255, 48.203207]
      },
      "properties": {
         "id": "pmb186613",
         "title": "Café Parsifal (Johann Bocksruker)",
         "lat": "48.203207",
         "lon": "16.37255",
         "timestamp": ["1889-05-01", "1889-05-02", "1889-05-03", "1889-05-04", "1889-05-05", "1889-05-06", "1889-05-07", "1889-05-08", "1889-05-09", "1889-05-10", "1889-05-11", "1889-05-12", "1889-05-13", "1889-05-14", "1889-05-15", "1889-05-16", "1889-05-17", "1889-05-18", "1889-05-19", "1889-05-20", "1889-05-21", "1889-05-22", "1889-05-23", "1889-05-24", "1889-05-25", "1889-05-26", "1889-05-27", "1889-05-28", "1889-05-29", "1889-05-30", "1889-05-31", "1889-08-23", "1889-09-10", "1889-09-15"],
         "importance": "34"
      }
      }, 
    {
      "type": "Feature",
      "geometry": {
        "type": "Point",
        "coordinates": [16.16265, 48.19512]
      },
      "properties": {
         "id": "pmb91552",
         "title": "Purkersdorf",
         "lat": "48.19512",
         "lon": "16.16265",
         "timestamp": ["1889-06-03"],
         "importance": "1"
      }
      }, 
    {
      "type": "Feature",
      "geometry": {
        "type": "Point",
        "coordinates": [16.37033, 48.21878]
      },
      "properties": {
         "id": "pmb90280",
         "title": "Augartenbrücke",
         "lat": "48.21878",
         "lon": "16.37033",
         "timestamp": ["1889-07-01"],
         "importance": "1"
      }
      }, 
    {
      "type": "Feature",
      "geometry": {
        "type": "Point",
        "coordinates": [16.337778, 48.196667]
      },
      "properties": {
         "id": "pmb184918",
         "title": "Westbahnhof",
         "lat": "48.196667",
         "lon": "16.337778",
         "timestamp": ["1889-07-02", "1889-09-09", "1889-09-13"],
         "importance": "3"
      }
      }, 
    {
      "type": "Feature",
      "geometry": {
        "type": "Point",
        "coordinates": [15.90219, 48.19745]
      },
      "properties": {
         "id": "pmb5805",
         "title": "Neulengbach",
         "lat": "48.19745",
         "lon": "15.90219",
         "timestamp": ["1889-07-17", "1889-08-02", "1889-08-20", "1889-08-28", "1889-09-04", "1889-09-06", "1889-09-11"],
         "importance": "7"
      }
      }, 
    {
      "type": "Feature",
      "geometry": {
        "type": "Point",
        "coordinates": [16.02433, 48.17936]
      },
      "properties": {
         "id": "pmb11543",
         "title": "Rekawinkel",
         "lat": "48.17936",
         "lon": "16.02433",
         "timestamp": ["1889-07-19"],
         "importance": "1"
      }
      }, 
    {
      "type": "Feature",
      "geometry": {
        "type": "Point",
        "coordinates": [15.8861, 48.1761]
      },
      "properties": {
         "id": "pmb186578",
         "title": "St. Christophen",
         "lat": "48.1761",
         "lon": "15.8861",
         "timestamp": ["1889-07-26"],
         "importance": "1"
      }
      }, 
    {
      "type": "Feature",
      "geometry": {
        "type": "Point",
        "coordinates": [13.60495, 47.696704]
      },
      "properties": {
         "id": "pmb186509",
         "title": "Burg Wildenstein",
         "lat": "47.696704",
         "lon": "13.60495",
         "timestamp": ["1889-08-03"],
         "importance": "1"
      }
      }, 
    {
      "type": "Feature",
      "geometry": {
        "type": "Point",
        "coordinates": [13.61409473634059, 47.720681363652275]
      },
      "properties": {
         "id": "pmb186520",
         "title": "Sophiens Doppelblick",
         "lat": "47.720681363652275",
         "lon": "13.61409473634059",
         "timestamp": ["1889-08-03"],
         "importance": "1"
      }
      }, 
    {
      "type": "Feature",
      "geometry": {
        "type": "Point",
        "coordinates": [13.615957763007366, 47.72607979382023]
      },
      "properties": {
         "id": "pmb186526",
         "title": "Hohenzollern Wasserfall",
         "lat": "47.72607979382023",
         "lon": "13.615957763007366",
         "timestamp": ["1889-08-03"],
         "importance": "1"
      }
      }, 
    {
      "type": "Feature",
      "geometry": {
        "type": "Point",
        "coordinates": [13.62173, 47.7105]
      },
      "properties": {
         "id": "pmb715",
         "title": "Hotel Kaiserin Elisabeth",
         "lat": "47.7105",
         "lon": "13.62173",
         "timestamp": ["1889-08-03", "1889-08-04", "1889-08-05", "1889-08-06", "1889-08-07", "1889-08-08", "1889-08-09"],
         "importance": "7"
      }
      }, 
    {
      "type": "Feature",
      "geometry": {
        "type": "Point",
        "coordinates": [13.639166666666666, 47.65972222222222]
      },
      "properties": {
         "id": "pmb186539",
         "title": "Predigtstuhl",
         "lat": "47.65972222222222",
         "lon": "13.639166666666666",
         "timestamp": ["1889-08-04"],
         "importance": "1"
      }
      }, 
    {
      "type": "Feature",
      "geometry": {
        "type": "Point",
        "coordinates": [13.68333, 47.66667]
      },
      "properties": {
         "id": "pmb90915",
         "title": "Hütteneckalm",
         "lat": "47.66667",
         "lon": "13.68333",
         "timestamp": ["1889-08-04"],
         "importance": "1"
      }
      }, 
    {
      "type": "Feature",
      "geometry": {
        "type": "Point",
        "coordinates": [13.65, 47.58333]
      },
      "properties": {
         "id": "pmb90743",
         "title": "Gosaumühle",
         "lat": "47.58333",
         "lon": "13.65",
         "timestamp": ["1889-08-06"],
         "importance": "1"
      }
      }, 
    {
      "type": "Feature",
      "geometry": {
        "type": "Point",
        "coordinates": [13.48333, 47.71667]
      },
      "properties": {
         "id": "pmb895",
         "title": "Strobl",
         "lat": "47.71667",
         "lon": "13.48333",
         "timestamp": ["1889-08-08"],
         "importance": "1"
      }
      }, 
    {
      "type": "Feature",
      "geometry": {
        "type": "Point",
        "coordinates": [13.8, 47.85]
      },
      "properties": {
         "id": "pmb91928",
         "title": "Traunsee",
         "lat": "47.85",
         "lon": "13.8",
         "timestamp": ["1889-08-10"],
         "importance": "1"
      }
      }, 
    {
      "type": "Feature",
      "geometry": {
        "type": "Point",
        "coordinates": [13.95573, 47.85493]
      },
      "properties": {
         "id": "pmb24076",
         "title": "Grünau im Almtal",
         "lat": "47.85493",
         "lon": "13.95573",
         "timestamp": ["1889-08-10"],
         "importance": "1"
      }
      }, 
    {
      "type": "Feature",
      "geometry": {
        "type": "Point",
        "coordinates": [13.95658, 47.7526]
      },
      "properties": {
         "id": "pmb87802",
         "title": "Almsee",
         "lat": "47.7526",
         "lon": "13.95658",
         "timestamp": ["1889-08-10", "1889-08-11"],
         "importance": "2"
      }
      }, 
    {
      "type": "Feature",
      "geometry": {
        "type": "Point",
        "coordinates": [13.814361, 47.861897]
      },
      "properties": {
         "id": "pmb186584",
         "title": "Miesweg",
         "lat": "47.861897",
         "lon": "13.814361",
         "timestamp": ["1889-08-10"],
         "importance": "1"
      }
      }, 
    {
      "type": "Feature",
      "geometry": {
        "type": "Point",
        "coordinates": [13.83333, 47.75]
      },
      "properties": {
         "id": "pmb91395",
         "title": "Offensee",
         "lat": "47.75",
         "lon": "13.83333",
         "timestamp": ["1889-08-11"],
         "importance": "1"
      }
      }, 
    {
      "type": "Feature",
      "geometry": {
        "type": "Point",
        "coordinates": [13.779, 47.80716]
      },
      "properties": {
         "id": "pmb912",
         "title": "Ebensee am Traunsee",
         "lat": "47.80716",
         "lon": "13.779",
         "timestamp": ["1889-08-11"],
         "importance": "1"
      }
      }, 
    {
      "type": "Feature",
      "geometry": {
        "type": "Point",
        "coordinates": [13.90264, 47.63399]
      },
      "properties": {
         "id": "pmb90749",
         "title": "Gössl",
         "lat": "47.63399",
         "lon": "13.90264",
         "timestamp": ["1889-08-12"],
         "importance": "1"
      }
      }, 
    {
      "type": "Feature",
      "geometry": {
        "type": "Point",
        "coordinates": [13.94306, 47.64972]
      },
      "properties": {
         "id": "pmb90072",
         "title": "Kammer See",
         "lat": "47.64972",
         "lon": "13.94306",
         "timestamp": ["1889-08-12"],
         "importance": "1"
      }
      }, 
    {
      "type": "Feature",
      "geometry": {
        "type": "Point",
        "coordinates": [13.92778, 47.64167]
      },
      "properties": {
         "id": "pmb91912",
         "title": "Toplitzsee",
         "lat": "47.64167",
         "lon": "13.92778",
         "timestamp": ["1889-08-12"],
         "importance": "1"
      }
      }, 
    {
      "type": "Feature",
      "geometry": {
        "type": "Point",
        "coordinates": [13.91667, 47.66667]
      },
      "properties": {
         "id": "pmb91097",
         "title": "Vorderer Lahngangsee",
         "lat": "47.66667",
         "lon": "13.91667",
         "timestamp": ["1889-08-12"],
         "importance": "1"
      }
      }, 
    {
      "type": "Feature",
      "geometry": {
        "type": "Point",
        "coordinates": [14.88837, 47.54607]
      },
      "properties": {
         "id": "pmb908",
         "title": "Eisenerz",
         "lat": "47.54607",
         "lon": "14.88837",
         "timestamp": ["1889-08-14", "1889-08-15"],
         "importance": "2"
      }
      }, 
    {
      "type": "Feature",
      "geometry": {
        "type": "Point",
        "coordinates": [14.91667, 47.6]
      },
      "properties": {
         "id": "pmb90573",
         "title": "Eisenerzer Höhe",
         "lat": "47.6",
         "lon": "14.91667",
         "timestamp": ["1889-08-15"],
         "importance": "1"
      }
      }, 
    {
      "type": "Feature",
      "geometry": {
        "type": "Point",
        "coordinates": [14.98333, 47.65]
      },
      "properties": {
         "id": "pmb34627",
         "title": "Wildalpen",
         "lat": "47.65",
         "lon": "14.98333",
         "timestamp": ["1889-08-15"],
         "importance": "1"
      }
      }, 
    {
      "type": "Feature",
      "geometry": {
        "type": "Point",
        "coordinates": [15.16667, 47.66667]
      },
      "properties": {
         "id": "pmb92057",
         "title": "Weichselboden",
         "lat": "47.66667",
         "lon": "15.16667",
         "timestamp": ["1889-08-15", "1889-08-16"],
         "importance": "2"
      }
      }, 
    {
      "type": "Feature",
      "geometry": {
        "type": "Point",
        "coordinates": [15.31639, 47.77306]
      },
      "properties": {
         "id": "pmb431",
         "title": "Mariazell",
         "lat": "47.77306",
         "lon": "15.31639",
         "timestamp": ["1889-08-16", "1889-08-17"],
         "importance": "2"
      }
      }, 
    {
      "type": "Feature",
      "geometry": {
        "type": "Point",
        "coordinates": [15.57226, 47.66423]
      },
      "properties": {
         "id": "pmb36515",
         "title": "Neuberg an der Mürz",
         "lat": "47.66423",
         "lon": "15.57226",
         "timestamp": ["1889-08-17"],
         "importance": "1"
      }
      }, 
    {
      "type": "Feature",
      "geometry": {
        "type": "Point",
        "coordinates": [16.379576773014, 48.230065709671]
      },
      "properties": {
         "id": "pmb202",
         "title": "Nordwestbahnhof",
         "lat": "48.230065709671",
         "lon": "16.379576773014",
         "timestamp": ["1889-08-25"],
         "importance": "1"
      }
      }, 
    {
      "type": "Feature",
      "geometry": {
        "type": "Point",
        "coordinates": [16.3672713, 48.1950553]
      },
      "properties": {
         "id": "pmb110",
         "title": "Kührer’s Restauration Zum rothen Rössel",
         "lat": "48.1950553",
         "lon": "16.3672713",
         "timestamp": ["1889-08-27"],
         "importance": "1"
      }
      }, 
    {
      "type": "Feature",
      "geometry": {
        "type": "Point",
        "coordinates": [16.361411, 48.202208]
      },
      "properties": {
         "id": "pmb186649",
         "title": "Café Casa Piccola",
         "lat": "48.202208",
         "lon": "16.361411",
         "timestamp": ["1889-08-28"],
         "importance": "1"
      }
      }, 
    {
      "type": "Feature",
      "geometry": {
        "type": "Point",
        "coordinates": [16.369953, 48.194906]
      },
      "properties": {
         "id": "pmb184870",
         "title": "Hotel Victoria [Wien]",
         "lat": "48.194906",
         "lon": "16.369953",
         "timestamp": ["1889-09-01", "1889-09-02", "1889-09-03", "1889-09-04"],
         "importance": "4"
      }
      }, 
    {
      "type": "Feature",
      "geometry": {
        "type": "Point",
        "coordinates": [16.336407, 48.197892]
      },
      "properties": {
         "id": "pmb184912",
         "title": "Westbahn-Kaffeehaus",
         "lat": "48.197892",
         "lon": "16.336407",
         "timestamp": ["1889-09-02"],
         "importance": "1"
      }
      }, 
    {
      "type": "Feature",
      "geometry": {
        "type": "Point",
        "coordinates": [16.341944, 48.233056]
      },
      "properties": {
         "id": "pmb533",
         "title": "Währinger Cottage",
         "lat": "48.233056",
         "lon": "16.341944",
         "timestamp": ["1889-09-03"],
         "importance": "1"
      }
      }, 
    {
      "type": "Feature",
      "geometry": {
        "type": "Point",
        "coordinates": [16.362612, 48.20297]
      },
      "properties": {
         "id": "pmb186655",
         "title": "Höllrigl’s Bierhalle",
         "lat": "48.20297",
         "lon": "16.362612",
         "timestamp": ["1889-09-05"],
         "importance": "1"
      }
      }, 
    {
      "type": "Feature",
      "geometry": {
        "type": "Point",
        "coordinates": [16.40289, 48.21206]
      },
      "properties": {
         "id": "pmb185523",
         "title": "Zum braunen Hirschen",
         "lat": "48.21206",
         "lon": "16.40289",
         "timestamp": ["1889-09-09"],
         "importance": "1"
      }
      }, 
    {
      "type": "Feature",
      "geometry": {
        "type": "Point",
        "coordinates": [16.365211, 48.189213]
      },
      "properties": {
         "id": "pmb185540",
         "title": "Gasthof zum Hirschen, Leopold Wallner",
         "lat": "48.189213",
         "lon": "16.365211",
         "timestamp": ["1889-09-10"],
         "importance": "1"
      }
      }, 
    {
      "type": "Feature",
      "geometry": {
        "type": "Point",
        "coordinates": [16.3566, 48.205142]
      },
      "properties": {
         "id": "pmb20",
         "title": "Volkstheater",
         "lat": "48.205142",
         "lon": "16.3566",
         "timestamp": ["1889-09-12"],
         "importance": "1"
      }
      }, 
    {
      "type": "Feature",
      "geometry": {
        "type": "Point",
        "coordinates": [16.37502, 48.20727]
      },
      "properties": {
         "id": "pmb36",
         "title": "Zum grünen Anker",
         "lat": "48.20727",
         "lon": "16.37502",
         "timestamp": ["1889-09-14", "1889-09-18", "1889-09-19"],
         "importance": "3"
      }
      }, 
    {
      "type": "Feature",
      "geometry": {
        "type": "Point",
        "coordinates": [16.3, 48.21667]
      },
      "properties": {
         "id": "pmb66",
         "title": "XVI., Ottakring",
         "lat": "48.21667",
         "lon": "16.3",
         "timestamp": ["1889-09-15"],
         "importance": "1"
      }
      }, 
    {
      "type": "Feature",
      "geometry": {
        "type": "Point",
        "coordinates": [16.266389, 48.188056]
      },
      "properties": {
         "id": "pmb165",
         "title": "Ober Sankt Veit",
         "lat": "48.188056",
         "lon": "16.266389",
         "timestamp": ["1889-09-29"],
         "importance": "1"
      }
      }, 
    {
      "type": "Feature",
      "geometry": {
        "type": "Point",
        "coordinates": [16.36743, 48.208786]
      },
      "properties": {
         "id": "pmb819",
         "title": "Café Pucher",
         "lat": "48.208786",
         "lon": "16.36743",
         "timestamp": ["1889-10-02", "1889-11-15"],
         "importance": "2"
      }
      }, 
    {
      "type": "Feature",
      "geometry": {
        "type": "Point",
        "coordinates": [16.36822905564414, 48.209495110694924]
      },
      "properties": {
         "id": "pmb51242",
         "title": "Hotel Müller",
         "lat": "48.209495110694924",
         "lon": "16.36822905564414",
         "timestamp": ["1889-10-02", "1889-11-15"],
         "importance": "2"
      }
      }, 
    {
      "type": "Feature",
      "geometry": {
        "type": "Point",
        "coordinates": [16.363744, 48.213728]
      },
      "properties": {
         "id": "pmb187209",
         "title": "Harmoniesäle",
         "lat": "48.213728",
         "lon": "16.363744",
         "timestamp": ["1889-10-08", "1889-11-29"],
         "importance": "2"
      }
      }, 
    {
      "type": "Feature",
      "geometry": {
        "type": "Point",
        "coordinates": [16.371434, 48.205129]
      },
      "properties": {
         "id": "pmb186696",
         "title": "Johanneshof",
         "lat": "48.205129",
         "lon": "16.371434",
         "timestamp": ["1889-10-11", "1889-10-19"],
         "importance": "2"
      }
      }, 
    {
      "type": "Feature",
      "geometry": {
        "type": "Point",
        "coordinates": [16.367561, 48.209272]
      },
      "properties": {
         "id": "pmb186703",
         "title": "Concordia-Club",
         "lat": "48.209272",
         "lon": "16.367561",
         "timestamp": ["1889-10-13", "1889-10-22"],
         "importance": "2"
      }
      }, 
    {
      "type": "Feature",
      "geometry": {
        "type": "Point",
        "coordinates": [16.3611, 48.2261]
      },
      "properties": {
         "id": "pmb186715",
         "title": "Franz-Josefs-Bahnhof",
         "lat": "48.2261",
         "lon": "16.3611",
         "timestamp": ["1889-10-21"],
         "importance": "1"
      }
      }, 
    {
      "type": "Feature",
      "geometry": {
        "type": "Point",
        "coordinates": [16.36715738471531, 48.2128689619094]
      },
      "properties": {
         "id": "pmb55832",
         "title": "Renngasse",
         "lat": "48.2128689619094",
         "lon": "16.36715738471531",
         "timestamp": ["1889-10-23", "1889-12-17"],
         "importance": "2"
      }
      }, 
    {
      "type": "Feature",
      "geometry": {
        "type": "Point",
        "coordinates": [16.364037, 48.213055]
      },
      "properties": {
         "id": "pmb186725",
         "title": "Lehninger Delikatessenhandlung",
         "lat": "48.213055",
         "lon": "16.364037",
         "timestamp": ["1889-11-02", "1889-11-21"],
         "importance": "2"
      }
      }, 
    {
      "type": "Feature",
      "geometry": {
        "type": "Point",
        "coordinates": [16.37031, 48.21013]
      },
      "properties": {
         "id": "pmb190484",
         "title": "Österreichischer Kunstverein",
         "lat": "48.21013",
         "lon": "16.37031",
         "timestamp": ["1889-11-12"],
         "importance": "1"
      }
      }, 
    {
      "type": "Feature",
      "geometry": {
        "type": "Point",
        "coordinates": [16.32475, 48.19031]
      },
      "properties": {
         "id": "pmb39",
         "title": "Volkstheater in Rudolfsheim",
         "lat": "48.19031",
         "lon": "16.32475",
         "timestamp": ["1889-12-14"],
         "importance": "1"
      }
      }, 
    {
      "type": "Feature",
      "geometry": {
        "type": "Point",
        "coordinates": [16.37049, 48.20368]
      },
      "properties": {
         "id": "pmb119",
         "title": "Café Scheidl",
         "lat": "48.20368",
         "lon": "16.37049",
         "timestamp": ["1889-12-16"],
         "importance": "1"
      }
      }
  ]
}