{
  "type": "FeatureCollection",
  "features": [
    {
      "type": "Feature",
      "geometry": {
        "type": "Point",
        "coordinates": [15.84704, 47.70466]
      },
      "properties": {
         "id": "pmb796",
         "title": "Thalhof",
         "lat": "47.70466",
         "lon": "15.84704",
         "timestamp": ["1889-08-17", "1889-08-18", "1889-08-19", "1889-08-20"],
         "importance": "4"
      }
      }, 
    {
      "type": "Feature",
      "geometry": {
        "type": "Point",
        "coordinates": [16.375, 48.205139]
      },
      "properties": {
         "id": "pmb19",
         "title": "Ronacher",
         "lat": "48.205139",
         "lon": "16.375",
         "timestamp": ["1889-08-30", "1889-08-31"],
         "importance": "2"
      }
      }, 
    {
      "type": "Feature",
      "geometry": {
        "type": "Point",
        "coordinates": [16.3691, 48.203]
      },
      "properties": {
         "id": "pmb15",
         "title": "Oper",
         "lat": "48.203",
         "lon": "16.3691",
         "timestamp": ["1889-08-21"],
         "importance": "1"
      }
      }, 
    {
      "type": "Feature",
      "geometry": {
        "type": "Point",
        "coordinates": [16.373056, 48.208333]
      },
      "properties": {
         "id": "pmb50",
         "title": "Wien",
         "lat": "48.208333",
         "lon": "16.373056",
         "timestamp": ["1889-08-01", "1889-08-02", "1889-08-03", "1889-08-20", "1889-08-21", "1889-08-22", "1889-08-23", "1889-08-24", "1889-08-25", "1889-08-26", "1889-08-27", "1889-08-28", "1889-08-29", "1889-08-30", "1889-08-31"],
         "importance": "15"
      }
      }, 
    {
      "type": "Feature",
      "geometry": {
        "type": "Point",
        "coordinates": [16.3538456, 48.2134031]
      },
      "properties": {
         "id": "pmb44",
         "title": "Riedhof",
         "lat": "48.2134031",
         "lon": "16.3538456",
         "timestamp": ["1889-08-23", "1889-08-26", "1889-08-29"],
         "importance": "3"
      }
      }, 
    {
      "type": "Feature",
      "geometry": {
        "type": "Point",
        "coordinates": [13.78243, 47.60998]
      },
      "properties": {
         "id": "pmb415",
         "title": "Bad Aussee",
         "lat": "47.60998",
         "lon": "13.78243",
         "timestamp": ["1889-08-11"],
         "importance": "1"
      }
      }, 
    {
      "type": "Feature",
      "geometry": {
        "type": "Point",
        "coordinates": [13.61893, 47.71109]
      },
      "properties": {
         "id": "pmb213",
         "title": "Bad Ischl",
         "lat": "47.71109",
         "lon": "13.61893",
         "timestamp": ["1889-08-01"],
         "importance": "1"
      }
      }, 
    {
      "type": "Feature",
      "geometry": {
        "type": "Point",
        "coordinates": [16.23264, 48.00543]
      },
      "properties": {
         "id": "pmb662",
         "title": "Baden bei Wien",
         "lat": "48.00543",
         "lon": "16.23264",
         "timestamp": ["1889-08-01"],
         "importance": "1"
      }
      }, 
    {
      "type": "Feature",
      "geometry": {
        "type": "Point",
        "coordinates": [13.81667, 47.61667]
      },
      "properties": {
         "id": "pmb282",
         "title": "Grundlsee (Gemeinde)",
         "lat": "47.61667",
         "lon": "13.81667",
         "timestamp": ["1889-08-11", "1889-08-12", "1889-08-13", "1889-08-14"],
         "importance": "4"
      }
      }, 
    {
      "type": "Feature",
      "geometry": {
        "type": "Point",
        "coordinates": [16.3589854, 48.2139714]
      },
      "properties": {
         "id": "pmb104",
         "title": "Café Arkaden",
         "lat": "48.2139714",
         "lon": "16.3589854",
         "timestamp": ["1889-08-26"],
         "importance": "1"
      }
      }, 
    {
      "type": "Feature",
      "geometry": {
        "type": "Point",
        "coordinates": [13.48728, 47.80494]
      },
      "properties": {
         "id": "pmb877",
         "title": "Unterach am Attersee",
         "lat": "47.80494",
         "lon": "13.48728",
         "timestamp": ["1889-08-07", "1889-08-08"],
         "importance": "2"
      }
      }, 
    {
      "type": "Feature",
      "geometry": {
        "type": "Point",
        "coordinates": [13.5358, 47.8004]
      },
      "properties": {
         "id": "pmb34344",
         "title": "Weißenbach am Attersee",
         "lat": "47.8004",
         "lon": "13.5358",
         "timestamp": ["1889-08-07"],
         "importance": "1"
      }
      }, 
    {
      "type": "Feature",
      "geometry": {
        "type": "Point",
        "coordinates": [13.78939, 47.84462]
      },
      "properties": {
         "id": "pmb88391",
         "title": "Traunkirchen",
         "lat": "47.84462",
         "lon": "13.78939",
         "timestamp": ["1889-08-09", "1889-08-10"],
         "importance": "2"
      }
      }, 
    {
      "type": "Feature",
      "geometry": {
        "type": "Point",
        "coordinates": [16.37255, 48.203207]
      },
      "properties": {
         "id": "pmb186613",
         "title": "Café Parsifal (Johann Bocksruker)",
         "lat": "48.203207",
         "lon": "16.37255",
         "timestamp": ["1889-08-23"],
         "importance": "1"
      }
      }, 
    {
      "type": "Feature",
      "geometry": {
        "type": "Point",
        "coordinates": [15.90219, 48.19745]
      },
      "properties": {
         "id": "pmb5805",
         "title": "Neulengbach",
         "lat": "48.19745",
         "lon": "15.90219",
         "timestamp": ["1889-08-02", "1889-08-20", "1889-08-28"],
         "importance": "3"
      }
      }, 
    {
      "type": "Feature",
      "geometry": {
        "type": "Point",
        "coordinates": [13.60495, 47.696704]
      },
      "properties": {
         "id": "pmb186509",
         "title": "Burg Wildenstein",
         "lat": "47.696704",
         "lon": "13.60495",
         "timestamp": ["1889-08-03"],
         "importance": "1"
      }
      }, 
    {
      "type": "Feature",
      "geometry": {
        "type": "Point",
        "coordinates": [13.61409473634059, 47.720681363652275]
      },
      "properties": {
         "id": "pmb186520",
         "title": "Sophiens Doppelblick",
         "lat": "47.720681363652275",
         "lon": "13.61409473634059",
         "timestamp": ["1889-08-03"],
         "importance": "1"
      }
      }, 
    {
      "type": "Feature",
      "geometry": {
        "type": "Point",
        "coordinates": [13.615957763007366, 47.72607979382023]
      },
      "properties": {
         "id": "pmb186526",
         "title": "Hohenzollern Wasserfall",
         "lat": "47.72607979382023",
         "lon": "13.615957763007366",
         "timestamp": ["1889-08-03"],
         "importance": "1"
      }
      }, 
    {
      "type": "Feature",
      "geometry": {
        "type": "Point",
        "coordinates": [13.62173, 47.7105]
      },
      "properties": {
         "id": "pmb715",
         "title": "Hotel Kaiserin Elisabeth",
         "lat": "47.7105",
         "lon": "13.62173",
         "timestamp": ["1889-08-03", "1889-08-04", "1889-08-05", "1889-08-06", "1889-08-07", "1889-08-08", "1889-08-09"],
         "importance": "7"
      }
      }, 
    {
      "type": "Feature",
      "geometry": {
        "type": "Point",
        "coordinates": [13.639166666666666, 47.65972222222222]
      },
      "properties": {
         "id": "pmb186539",
         "title": "Predigtstuhl",
         "lat": "47.65972222222222",
         "lon": "13.639166666666666",
         "timestamp": ["1889-08-04"],
         "importance": "1"
      }
      }, 
    {
      "type": "Feature",
      "geometry": {
        "type": "Point",
        "coordinates": [13.68333, 47.66667]
      },
      "properties": {
         "id": "pmb90915",
         "title": "Hütteneckalm",
         "lat": "47.66667",
         "lon": "13.68333",
         "timestamp": ["1889-08-04"],
         "importance": "1"
      }
      }, 
    {
      "type": "Feature",
      "geometry": {
        "type": "Point",
        "coordinates": [13.65, 47.58333]
      },
      "properties": {
         "id": "pmb90743",
         "title": "Gosaumühle",
         "lat": "47.58333",
         "lon": "13.65",
         "timestamp": ["1889-08-06"],
         "importance": "1"
      }
      }, 
    {
      "type": "Feature",
      "geometry": {
        "type": "Point",
        "coordinates": [13.48333, 47.71667]
      },
      "properties": {
         "id": "pmb895",
         "title": "Strobl",
         "lat": "47.71667",
         "lon": "13.48333",
         "timestamp": ["1889-08-08"],
         "importance": "1"
      }
      }, 
    {
      "type": "Feature",
      "geometry": {
        "type": "Point",
        "coordinates": [13.8, 47.85]
      },
      "properties": {
         "id": "pmb91928",
         "title": "Traunsee",
         "lat": "47.85",
         "lon": "13.8",
         "timestamp": ["1889-08-10"],
         "importance": "1"
      }
      }, 
    {
      "type": "Feature",
      "geometry": {
        "type": "Point",
        "coordinates": [13.95573, 47.85493]
      },
      "properties": {
         "id": "pmb24076",
         "title": "Grünau im Almtal",
         "lat": "47.85493",
         "lon": "13.95573",
         "timestamp": ["1889-08-10"],
         "importance": "1"
      }
      }, 
    {
      "type": "Feature",
      "geometry": {
        "type": "Point",
        "coordinates": [13.95658, 47.7526]
      },
      "properties": {
         "id": "pmb87802",
         "title": "Almsee",
         "lat": "47.7526",
         "lon": "13.95658",
         "timestamp": ["1889-08-10", "1889-08-11"],
         "importance": "2"
      }
      }, 
    {
      "type": "Feature",
      "geometry": {
        "type": "Point",
        "coordinates": [13.814361, 47.861897]
      },
      "properties": {
         "id": "pmb186584",
         "title": "Miesweg",
         "lat": "47.861897",
         "lon": "13.814361",
         "timestamp": ["1889-08-10"],
         "importance": "1"
      }
      }, 
    {
      "type": "Feature",
      "geometry": {
        "type": "Point",
        "coordinates": [13.83333, 47.75]
      },
      "properties": {
         "id": "pmb91395",
         "title": "Offensee",
         "lat": "47.75",
         "lon": "13.83333",
         "timestamp": ["1889-08-11"],
         "importance": "1"
      }
      }, 
    {
      "type": "Feature",
      "geometry": {
        "type": "Point",
        "coordinates": [13.779, 47.80716]
      },
      "properties": {
         "id": "pmb912",
         "title": "Ebensee am Traunsee",
         "lat": "47.80716",
         "lon": "13.779",
         "timestamp": ["1889-08-11"],
         "importance": "1"
      }
      }, 
    {
      "type": "Feature",
      "geometry": {
        "type": "Point",
        "coordinates": [13.90264, 47.63399]
      },
      "properties": {
         "id": "pmb90749",
         "title": "Gössl",
         "lat": "47.63399",
         "lon": "13.90264",
         "timestamp": ["1889-08-12"],
         "importance": "1"
      }
      }, 
    {
      "type": "Feature",
      "geometry": {
        "type": "Point",
        "coordinates": [13.94306, 47.64972]
      },
      "properties": {
         "id": "pmb90072",
         "title": "Kammer See",
         "lat": "47.64972",
         "lon": "13.94306",
         "timestamp": ["1889-08-12"],
         "importance": "1"
      }
      }, 
    {
      "type": "Feature",
      "geometry": {
        "type": "Point",
        "coordinates": [13.92778, 47.64167]
      },
      "properties": {
         "id": "pmb91912",
         "title": "Toplitzsee",
         "lat": "47.64167",
         "lon": "13.92778",
         "timestamp": ["1889-08-12"],
         "importance": "1"
      }
      }, 
    {
      "type": "Feature",
      "geometry": {
        "type": "Point",
        "coordinates": [13.91667, 47.66667]
      },
      "properties": {
         "id": "pmb91097",
         "title": "Vorderer Lahngangsee",
         "lat": "47.66667",
         "lon": "13.91667",
         "timestamp": ["1889-08-12"],
         "importance": "1"
      }
      }, 
    {
      "type": "Feature",
      "geometry": {
        "type": "Point",
        "coordinates": [14.88837, 47.54607]
      },
      "properties": {
         "id": "pmb908",
         "title": "Eisenerz",
         "lat": "47.54607",
         "lon": "14.88837",
         "timestamp": ["1889-08-14", "1889-08-15"],
         "importance": "2"
      }
      }, 
    {
      "type": "Feature",
      "geometry": {
        "type": "Point",
        "coordinates": [14.91667, 47.6]
      },
      "properties": {
         "id": "pmb90573",
         "title": "Eisenerzer Höhe",
         "lat": "47.6",
         "lon": "14.91667",
         "timestamp": ["1889-08-15"],
         "importance": "1"
      }
      }, 
    {
      "type": "Feature",
      "geometry": {
        "type": "Point",
        "coordinates": [14.98333, 47.65]
      },
      "properties": {
         "id": "pmb34627",
         "title": "Wildalpen",
         "lat": "47.65",
         "lon": "14.98333",
         "timestamp": ["1889-08-15"],
         "importance": "1"
      }
      }, 
    {
      "type": "Feature",
      "geometry": {
        "type": "Point",
        "coordinates": [15.16667, 47.66667]
      },
      "properties": {
         "id": "pmb92057",
         "title": "Weichselboden",
         "lat": "47.66667",
         "lon": "15.16667",
         "timestamp": ["1889-08-15", "1889-08-16"],
         "importance": "2"
      }
      }, 
    {
      "type": "Feature",
      "geometry": {
        "type": "Point",
        "coordinates": [15.31639, 47.77306]
      },
      "properties": {
         "id": "pmb431",
         "title": "Mariazell",
         "lat": "47.77306",
         "lon": "15.31639",
         "timestamp": ["1889-08-16", "1889-08-17"],
         "importance": "2"
      }
      }, 
    {
      "type": "Feature",
      "geometry": {
        "type": "Point",
        "coordinates": [15.57226, 47.66423]
      },
      "properties": {
         "id": "pmb36515",
         "title": "Neuberg an der Mürz",
         "lat": "47.66423",
         "lon": "15.57226",
         "timestamp": ["1889-08-17"],
         "importance": "1"
      }
      }, 
    {
      "type": "Feature",
      "geometry": {
        "type": "Point",
        "coordinates": [16.379576773014, 48.230065709671]
      },
      "properties": {
         "id": "pmb202",
         "title": "Nordwestbahnhof",
         "lat": "48.230065709671",
         "lon": "16.379576773014",
         "timestamp": ["1889-08-25"],
         "importance": "1"
      }
      }, 
    {
      "type": "Feature",
      "geometry": {
        "type": "Point",
        "coordinates": [16.3672713, 48.1950553]
      },
      "properties": {
         "id": "pmb110",
         "title": "Kührer’s Restauration Zum rothen Rössel",
         "lat": "48.1950553",
         "lon": "16.3672713",
         "timestamp": ["1889-08-27"],
         "importance": "1"
      }
      }, 
    {
      "type": "Feature",
      "geometry": {
        "type": "Point",
        "coordinates": [16.361411, 48.202208]
      },
      "properties": {
         "id": "pmb186649",
         "title": "Café Casa Piccola",
         "lat": "48.202208",
         "lon": "16.361411",
         "timestamp": ["1889-08-28"],
         "importance": "1"
      }
      }
  ]
}