{
  "type": "FeatureCollection",
  "features": [
    {
      "type": "Feature",
      "geometry": {
        "type": "Point",
        "coordinates": [16.375, 48.205139]
      },
      "properties": {
         "id": "pmb19",
         "title": "Ronacher",
         "lat": "48.205139",
         "lon": "16.375",
         "timestamp": ["1889-11-09", "1889-11-26"],
         "importance": "2"
      }
      }, 
    {
      "type": "Feature",
      "geometry": {
        "type": "Point",
        "coordinates": [16.373056, 48.208333]
      },
      "properties": {
         "id": "pmb50",
         "title": "Wien",
         "lat": "48.208333",
         "lon": "16.373056",
         "timestamp": ["1889-11-01", "1889-11-02", "1889-11-03", "1889-11-04", "1889-11-05", "1889-11-06", "1889-11-07", "1889-11-08", "1889-11-09", "1889-11-10", "1889-11-11", "1889-11-12", "1889-11-13", "1889-11-14", "1889-11-15", "1889-11-16", "1889-11-17", "1889-11-18", "1889-11-19", "1889-11-20", "1889-11-21", "1889-11-22", "1889-11-23", "1889-11-24", "1889-11-25", "1889-11-26", "1889-11-27", "1889-11-28", "1889-11-29", "1889-11-30"],
         "importance": "30"
      }
      }, 
    {
      "type": "Feature",
      "geometry": {
        "type": "Point",
        "coordinates": [16.361139, 48.210333]
      },
      "properties": {
         "id": "pmb14",
         "title": "Burgtheater",
         "lat": "48.210333",
         "lon": "16.361139",
         "timestamp": ["1889-11-23"],
         "importance": "1"
      }
      }, 
    {
      "type": "Feature",
      "geometry": {
        "type": "Point",
        "coordinates": [16.37084, 48.210333]
      },
      "properties": {
         "id": "pmb2",
         "title": "Konservatorium der Gesellschaft der Musikfreunde",
         "lat": "48.210333",
         "lon": "16.37084",
         "timestamp": ["1889-11-02", "1889-11-04", "1889-11-12"],
         "importance": "3"
      }
      }, 
    {
      "type": "Feature",
      "geometry": {
        "type": "Point",
        "coordinates": [16.3538456, 48.2134031]
      },
      "properties": {
         "id": "pmb44",
         "title": "Riedhof",
         "lat": "48.2134031",
         "lon": "16.3538456",
         "timestamp": ["1889-11-07", "1889-11-08", "1889-11-09", "1889-11-12", "1889-11-15"],
         "importance": "5"
      }
      }, 
    {
      "type": "Feature",
      "geometry": {
        "type": "Point",
        "coordinates": [16.36946, 48.20138]
      },
      "properties": {
         "id": "pmb42",
         "title": "Leidingers Restauration",
         "lat": "48.20138",
         "lon": "16.36946",
         "timestamp": ["1889-11-03"],
         "importance": "1"
      }
      }, 
    {
      "type": "Feature",
      "geometry": {
        "type": "Point",
        "coordinates": [16.362269, 48.210795]
      },
      "properties": {
         "id": "pmb194841",
         "title": "Löwelstraße 16",
         "lat": "48.210795",
         "lon": "16.362269",
         "timestamp": ["1889-11-01", "1889-11-23"],
         "importance": "2"
      }
      }, 
    {
      "type": "Feature",
      "geometry": {
        "type": "Point",
        "coordinates": [16.37548, 48.2099]
      },
      "properties": {
         "id": "pmb419",
         "title": "Restaurant Obenaus",
         "lat": "48.2099",
         "lon": "16.37548",
         "timestamp": ["1889-11-18"],
         "importance": "1"
      }
      }, 
    {
      "type": "Feature",
      "geometry": {
        "type": "Point",
        "coordinates": [16.379829498031, 48.187455471378]
      },
      "properties": {
         "id": "pmb132",
         "title": "Südbahnhof",
         "lat": "48.187455471378",
         "lon": "16.379829498031",
         "timestamp": ["1889-11-12"],
         "importance": "1"
      }
      }, 
    {
      "type": "Feature",
      "geometry": {
        "type": "Point",
        "coordinates": [13.3891, 52.5167]
      },
      "properties": {
         "id": "pmb185035",
         "title": "Café Bauer",
         "lat": "52.5167",
         "lon": "13.3891",
         "timestamp": ["1889-11-21"],
         "importance": "1"
      }
      }, 
    {
      "type": "Feature",
      "geometry": {
        "type": "Point",
        "coordinates": [16.36362, 48.20329]
      },
      "properties": {
         "id": "pmb168768",
         "title": "Wohnung und Ordination Dr. Arthur Schnitzler Burgring 1",
         "lat": "48.20329",
         "lon": "16.36362",
         "timestamp": ["1889-11-28"],
         "importance": "1"
      }
      }, 
    {
      "type": "Feature",
      "geometry": {
        "type": "Point",
        "coordinates": [16.36743, 48.208786]
      },
      "properties": {
         "id": "pmb819",
         "title": "Café Pucher",
         "lat": "48.208786",
         "lon": "16.36743",
         "timestamp": ["1889-11-15"],
         "importance": "1"
      }
      }, 
    {
      "type": "Feature",
      "geometry": {
        "type": "Point",
        "coordinates": [16.36822905564414, 48.209495110694924]
      },
      "properties": {
         "id": "pmb51242",
         "title": "Hotel Müller",
         "lat": "48.209495110694924",
         "lon": "16.36822905564414",
         "timestamp": ["1889-11-15"],
         "importance": "1"
      }
      }, 
    {
      "type": "Feature",
      "geometry": {
        "type": "Point",
        "coordinates": [16.363744, 48.213728]
      },
      "properties": {
         "id": "pmb187209",
         "title": "Harmoniesäle",
         "lat": "48.213728",
         "lon": "16.363744",
         "timestamp": ["1889-11-29"],
         "importance": "1"
      }
      }, 
    {
      "type": "Feature",
      "geometry": {
        "type": "Point",
        "coordinates": [16.364037, 48.213055]
      },
      "properties": {
         "id": "pmb186725",
         "title": "Lehninger Delikatessenhandlung",
         "lat": "48.213055",
         "lon": "16.364037",
         "timestamp": ["1889-11-02", "1889-11-21"],
         "importance": "2"
      }
      }, 
    {
      "type": "Feature",
      "geometry": {
        "type": "Point",
        "coordinates": [16.37031, 48.21013]
      },
      "properties": {
         "id": "pmb190484",
         "title": "Österreichischer Kunstverein",
         "lat": "48.21013",
         "lon": "16.37031",
         "timestamp": ["1889-11-12"],
         "importance": "1"
      }
      }
  ]
}