{
  "type": "FeatureCollection",
  "features": [
    {
      "type": "Feature",
      "geometry": {
        "type": "Point",
        "coordinates": [16.384444, 48.215]
      },
      "properties": {
         "id": "pmb118",
         "title": "Carl-Theater",
         "lat": "48.215",
         "lon": "16.384444",
         "timestamp": ["1890-08-14"],
         "importance": "1"
      }
      }, 
    {
      "type": "Feature",
      "geometry": {
        "type": "Point",
        "coordinates": [16.373056, 48.208333]
      },
      "properties": {
         "id": "pmb50",
         "title": "Wien",
         "lat": "48.208333",
         "lon": "16.373056",
         "timestamp": ["1890-08-01", "1890-08-02", "1890-08-03", "1890-08-04", "1890-08-05", "1890-08-06", "1890-08-07", "1890-08-08", "1890-08-09", "1890-08-10", "1890-08-11", "1890-08-12", "1890-08-13", "1890-08-14", "1890-08-15", "1890-08-17", "1890-08-18", "1890-08-19", "1890-08-20", "1890-08-21", "1890-08-22", "1890-08-23", "1890-08-24", "1890-08-25", "1890-08-26", "1890-08-27", "1890-08-28", "1890-08-29", "1890-08-30", "1890-08-31"],
         "importance": "30"
      }
      }, 
    {
      "type": "Feature",
      "geometry": {
        "type": "Point",
        "coordinates": [16.349126146095, 48.197773257011]
      },
      "properties": {
         "id": "pmb267",
         "title": "Hotel Englischer Hof",
         "lat": "48.197773257011",
         "lon": "16.349126146095",
         "timestamp": ["1890-08-21"],
         "importance": "1"
      }
      }, 
    {
      "type": "Feature",
      "geometry": {
        "type": "Point",
        "coordinates": [16.430054, 48.194558]
      },
      "properties": {
         "id": "pmb8",
         "title": "Prater",
         "lat": "48.194558",
         "lon": "16.430054",
         "timestamp": ["1890-08-09", "1890-08-15"],
         "importance": "2"
      }
      }, 
    {
      "type": "Feature",
      "geometry": {
        "type": "Point",
        "coordinates": [16.25, 48.26667]
      },
      "properties": {
         "id": "pmb473",
         "title": "Weidlingbach",
         "lat": "48.26667",
         "lon": "16.25",
         "timestamp": ["1890-08-22"],
         "importance": "1"
      }
      }, 
    {
      "type": "Feature",
      "geometry": {
        "type": "Point",
        "coordinates": [16.3538456, 48.2134031]
      },
      "properties": {
         "id": "pmb44",
         "title": "Riedhof",
         "lat": "48.2134031",
         "lon": "16.3538456",
         "timestamp": ["1890-08-21"],
         "importance": "1"
      }
      }, 
    {
      "type": "Feature",
      "geometry": {
        "type": "Point",
        "coordinates": [16.23264, 48.00543]
      },
      "properties": {
         "id": "pmb662",
         "title": "Baden bei Wien",
         "lat": "48.00543",
         "lon": "16.23264",
         "timestamp": ["1890-08-03"],
         "importance": "1"
      }
      }, 
    {
      "type": "Feature",
      "geometry": {
        "type": "Point",
        "coordinates": [16.35032, 48.19522]
      },
      "properties": {
         "id": "pmb56",
         "title": "VI., Mariahilf",
         "lat": "48.19522",
         "lon": "16.35032",
         "timestamp": ["1890-08-16"],
         "importance": "1"
      }
      }, 
    {
      "type": "Feature",
      "geometry": {
        "type": "Point",
        "coordinates": [16.371614, 48.201589]
      },
      "properties": {
         "id": "pmb182664",
         "title": "Café zum Künstlerhaus",
         "lat": "48.201589",
         "lon": "16.371614",
         "timestamp": ["1890-08-03", "1890-08-07"],
         "importance": "2"
      }
      }, 
    {
      "type": "Feature",
      "geometry": {
        "type": "Point",
        "coordinates": [16.374618, 48.204074]
      },
      "properties": {
         "id": "pmb187186",
         "title": "Kaffehaus Ferdinand Gause",
         "lat": "48.204074",
         "lon": "16.374618",
         "timestamp": ["1890-08-03", "1890-08-07"],
         "importance": "2"
      }
      }, 
    {
      "type": "Feature",
      "geometry": {
        "type": "Point",
        "coordinates": [16.36946, 48.20138]
      },
      "properties": {
         "id": "pmb42",
         "title": "Leidingers Restauration",
         "lat": "48.20138",
         "lon": "16.36946",
         "timestamp": ["1890-08-23"],
         "importance": "1"
      }
      }, 
    {
      "type": "Feature",
      "geometry": {
        "type": "Point",
        "coordinates": [16.3589854, 48.2139714]
      },
      "properties": {
         "id": "pmb104",
         "title": "Café Arkaden",
         "lat": "48.2139714",
         "lon": "16.3589854",
         "timestamp": ["1890-08-09", "1890-08-13", "1890-08-18", "1890-08-20"],
         "importance": "4"
      }
      }, 
    {
      "type": "Feature",
      "geometry": {
        "type": "Point",
        "coordinates": [16.32522, 48.30521]
      },
      "properties": {
         "id": "pmb865",
         "title": "Klosterneuburg",
         "lat": "48.30521",
         "lon": "16.32522",
         "timestamp": ["1890-08-24"],
         "importance": "1"
      }
      }, 
    {
      "type": "Feature",
      "geometry": {
        "type": "Point",
        "coordinates": [16.379576773014, 48.230065709671]
      },
      "properties": {
         "id": "pmb202",
         "title": "Nordwestbahnhof",
         "lat": "48.230065709671",
         "lon": "16.379576773014",
         "timestamp": ["1890-08-02"],
         "importance": "1"
      }
      }, 
    {
      "type": "Feature",
      "geometry": {
        "type": "Point",
        "coordinates": [16.370578, 48.195075]
      },
      "properties": {
         "id": "pmb186984",
         "title": "Café Viktoria",
         "lat": "48.195075",
         "lon": "16.370578",
         "timestamp": ["1890-08-30"],
         "importance": "1"
      }
      }, 
    {
      "type": "Feature",
      "geometry": {
        "type": "Point",
        "coordinates": [16.375975, 48.207696]
      },
      "properties": {
         "id": "pmb187113",
         "title": "Zur Weintraube (Inh. Ignaz Hörnisch)",
         "lat": "48.207696",
         "lon": "16.375975",
         "timestamp": ["1890-08-11", "1890-08-14", "1890-08-18"],
         "importance": "3"
      }
      }, 
    {
      "type": "Feature",
      "geometry": {
        "type": "Point",
        "coordinates": [16.342013, 48.195523]
      },
      "properties": {
         "id": "pmb187125",
         "title": "Fügergasse 4",
         "lat": "48.195523",
         "lon": "16.342013",
         "timestamp": ["1890-08-23"],
         "importance": "1"
      }
      }, 
    {
      "type": "Feature",
      "geometry": {
        "type": "Point",
        "coordinates": [16.43333, 48.08333]
      },
      "properties": {
         "id": "pmb90879",
         "title": "Himberg",
         "lat": "48.08333",
         "lon": "16.43333",
         "timestamp": ["1890-08-08"],
         "importance": "1"
      }
      }, 
    {
      "type": "Feature",
      "geometry": {
        "type": "Point",
        "coordinates": [16.361234, 48.195239]
      },
      "properties": {
         "id": "pmb185501",
         "title": "Gastwirtschaft Zur Heumühle",
         "lat": "48.195239",
         "lon": "16.361234",
         "timestamp": ["1890-08-19"],
         "importance": "1"
      }
      }, 
    {
      "type": "Feature",
      "geometry": {
        "type": "Point",
        "coordinates": [16.30865, 48.291]
      },
      "properties": {
         "id": "pmb991",
         "title": "Weidling",
         "lat": "48.291",
         "lon": "16.30865",
         "timestamp": ["1890-08-20"],
         "importance": "1"
      }
      }, 
    {
      "type": "Feature",
      "geometry": {
        "type": "Point",
        "coordinates": [16.41667, 48.41667]
      },
      "properties": {
         "id": "pmb92111",
         "title": "Würnitz",
         "lat": "48.41667",
         "lon": "16.41667",
         "timestamp": ["1890-08-01"],
         "importance": "1"
      }
      }, 
    {
      "type": "Feature",
      "geometry": {
        "type": "Point",
        "coordinates": [16.33333, 48.35]
      },
      "properties": {
         "id": "pmb11037",
         "title": "Korneuburg",
         "lat": "48.35",
         "lon": "16.33333",
         "timestamp": ["1890-08-01", "1890-08-02"],
         "importance": "2"
      }
      }, 
    {
      "type": "Feature",
      "geometry": {
        "type": "Point",
        "coordinates": [16.364423, 48.203202]
      },
      "properties": {
         "id": "pmb182675",
         "title": "Café Kaisergarten",
         "lat": "48.203202",
         "lon": "16.364423",
         "timestamp": ["1890-08-03"],
         "importance": "1"
      }
      }, 
    {
      "type": "Feature",
      "geometry": {
        "type": "Point",
        "coordinates": [16.25, 47.8]
      },
      "properties": {
         "id": "pmb587",
         "title": "Wiener Neustadt",
         "lat": "47.8",
         "lon": "16.25",
         "timestamp": ["1890-08-06"],
         "importance": "1"
      }
      }, 
    {
      "type": "Feature",
      "geometry": {
        "type": "Point",
        "coordinates": [16.352634, 48.189861]
      },
      "properties": {
         "id": "pmb190594",
         "title": "Rustler’s Restauration »Zum goldenen Mondschein«",
         "lat": "48.189861",
         "lon": "16.352634",
         "timestamp": ["1890-08-10"],
         "importance": "1"
      }
      }, 
    {
      "type": "Feature",
      "geometry": {
        "type": "Point",
        "coordinates": [16.35754, 48.05729]
      },
      "properties": {
         "id": "pmb2520",
         "title": "Laxenburg",
         "lat": "48.05729",
         "lon": "16.35754",
         "timestamp": ["1890-08-10"],
         "importance": "1"
      }
      }, 
    {
      "type": "Feature",
      "geometry": {
        "type": "Point",
        "coordinates": [16.34542, 48.08393]
      },
      "properties": {
         "id": "pmb90350",
         "title": "Biedermannsdorf",
         "lat": "48.08393",
         "lon": "16.34542",
         "timestamp": ["1890-08-10"],
         "importance": "1"
      }
      }, 
    {
      "type": "Feature",
      "geometry": {
        "type": "Point",
        "coordinates": [16.374722, 48.205806]
      },
      "properties": {
         "id": "pmb187257",
         "title": "Restaurant Centralbad",
         "lat": "48.205806",
         "lon": "16.374722",
         "timestamp": ["1890-08-15"],
         "importance": "1"
      }
      }, 
    {
      "type": "Feature",
      "geometry": {
        "type": "Point",
        "coordinates": [16.3167, 48.1778]
      },
      "properties": {
         "id": "pmb187303",
         "title": "Tivoli [Wien]",
         "lat": "48.1778",
         "lon": "16.3167",
         "timestamp": ["1890-08-15", "1890-08-26", "1890-08-28"],
         "importance": "3"
      }
      }, 
    {
      "type": "Feature",
      "geometry": {
        "type": "Point",
        "coordinates": [16.349528, 48.198883]
      },
      "properties": {
         "id": "pmb195971",
         "title": "Zur goldenen Glocke [7. Bezirk]",
         "lat": "48.198883",
         "lon": "16.349528",
         "timestamp": ["1890-08-16"],
         "importance": "1"
      }
      }, 
    {
      "type": "Feature",
      "geometry": {
        "type": "Point",
        "coordinates": [16.2, 48.23333]
      },
      "properties": {
         "id": "pmb90821",
         "title": "Hainbach",
         "lat": "48.23333",
         "lon": "16.2",
         "timestamp": ["1890-08-18"],
         "importance": "1"
      }
      }, 
    {
      "type": "Feature",
      "geometry": {
        "type": "Point",
        "coordinates": [16.06409, 48.33327]
      },
      "properties": {
         "id": "pmb41239",
         "title": "Tulln an der Donau",
         "lat": "48.33327",
         "lon": "16.06409",
         "timestamp": ["1890-08-24"],
         "importance": "1"
      }
      }, 
    {
      "type": "Feature",
      "geometry": {
        "type": "Point",
        "coordinates": [16.24226, 48.34667]
      },
      "properties": {
         "id": "pmb90763",
         "title": "Greifenstein",
         "lat": "48.34667",
         "lon": "16.24226",
         "timestamp": ["1890-08-24"],
         "importance": "1"
      }
      }, 
    {
      "type": "Feature",
      "geometry": {
        "type": "Point",
        "coordinates": [16.368913, 48.192766]
      },
      "properties": {
         "id": "pmb231273",
         "title": "Mayerhofgasse 12",
         "lat": "48.192766",
         "lon": "16.368913",
         "timestamp": ["1890-08-26"],
         "importance": "1"
      }
      }, 
    {
      "type": "Feature",
      "geometry": {
        "type": "Point",
        "coordinates": [16.370155, 48.193723]
      },
      "properties": {
         "id": "pmb187298",
         "title": "Leopold Spanner’s Restauration",
         "lat": "48.193723",
         "lon": "16.370155",
         "timestamp": ["1890-08-26", "1890-08-29"],
         "importance": "2"
      }
      }, 
    {
      "type": "Feature",
      "geometry": {
        "type": "Point",
        "coordinates": [16.36471, 48.200556]
      },
      "properties": {
         "id": "pmb97",
         "title": "Zum Weingartl",
         "lat": "48.200556",
         "lon": "16.36471",
         "timestamp": ["1890-08-27"],
         "importance": "1"
      }
      }
  ]
}