{
  "type": "FeatureCollection",
  "features": [
    {
      "type": "Feature", 
      "geometry": {
        "type": "LineString", 
        "coordinates": [
            [16.371614, 48.201589], 
            [16.37196, 48.20143], 
            [16.374618, 48.204074], 
            [16.373056, 48.208333], 
            [16.37084, 48.210333]
          ]
      },
      "properties": {
        "name": "12. Mai 1890"
      }
    },
    {
      "type": "Feature",
      "geometry": {
        "type": "Point",
        "coordinates": [
          16.373056, 48.208333
        ]
      },
      "properties": {
        "title": "Wien",
        "timestamp": ["1890-05-12"],
        "pmb": "https://pmb.acdh.oeaw.ac.at/entity//", 
        "wikipedia": "https://de.wikipedia.org/wiki/Wien"
      }
      },
    {
      "type": "Feature",
      "geometry": {
        "type": "Point",
        "coordinates": [
          16.371614, 48.201589
        ]
      },
      "properties": {
        "title": "Café zum Künstlerhaus",
        "timestamp": ["1890-05-12"],
        "pmb": "https://pmb.acdh.oeaw.ac.at/entity//"
      }
      },
    {
      "type": "Feature",
      "geometry": {
        "type": "Point",
        "coordinates": [
          16.37084, 48.210333
        ]
      },
      "properties": {
        "title": "Konservatorium der Gesellschaft der Musikfreunde",
        "timestamp": ["1890-05-12"],
        "pmb": "https://pmb.acdh.oeaw.ac.at/entity//", 
        "wiengeschichtewiki": "https://www.geschichtewiki.wien.gv.at/Universität_für_Musik_und_darstellende_Kunst_Wien"
      }
      },
    {
      "type": "Feature",
      "geometry": {
        "type": "Point",
        "coordinates": [
          16.374618, 48.204074
        ]
      },
      "properties": {
        "title": "Kaffehaus Ferdinand Gause",
        "timestamp": ["1890-05-12"],
        "pmb": "https://pmb.acdh.oeaw.ac.at/entity//"
      }
      },
    {
      "type": "Feature",
      "geometry": {
        "type": "Point",
        "coordinates": [
          16.37196, 48.20143
        ]
      },
      "properties": {
        "title": "Kärntnerring 12/Bösendorferstraße 11",
        "timestamp": ["1890-05-12"],
        "pmb": "https://pmb.acdh.oeaw.ac.at/entity//"
      }
      }
  ]
}