{
  "type": "FeatureCollection",
  "features": [
    {
      "type": "Feature",
      "geometry": {
        "type": "Point",
        "coordinates": [16.373056, 48.208333]
      },
      "properties": {
         "id": "pmb50",
         "title": "Wien",
         "lat": "48.208333",
         "lon": "16.373056",
         "timestamp": ["1890-04-01", "1890-04-02", "1890-04-03", "1890-04-04", "1890-04-05", "1890-04-06", "1890-04-07", "1890-04-08", "1890-04-09", "1890-04-10", "1890-04-11", "1890-04-12", "1890-04-13", "1890-04-14", "1890-04-15", "1890-04-16", "1890-04-17", "1890-04-18", "1890-04-19", "1890-04-20", "1890-04-21", "1890-04-22", "1890-04-23", "1890-04-24", "1890-04-25", "1890-04-26", "1890-04-27", "1890-04-28", "1890-04-29", "1890-04-30"],
         "importance": "30"
      }
      }, 
    {
      "type": "Feature",
      "geometry": {
        "type": "Point",
        "coordinates": [16.430054, 48.194558]
      },
      "properties": {
         "id": "pmb8",
         "title": "Prater",
         "lat": "48.194558",
         "lon": "16.430054",
         "timestamp": ["1890-04-07", "1890-04-18"],
         "importance": "2"
      }
      }, 
    {
      "type": "Feature",
      "geometry": {
        "type": "Point",
        "coordinates": [16.36714, 48.19198]
      },
      "properties": {
         "id": "pmb54",
         "title": "IV., Wieden",
         "lat": "48.19198",
         "lon": "16.36714",
         "timestamp": ["1890-04-05"],
         "importance": "1"
      }
      }, 
    {
      "type": "Feature",
      "geometry": {
        "type": "Point",
        "coordinates": [16.369953, 48.194906]
      },
      "properties": {
         "id": "pmb184870",
         "title": "Hotel Victoria [Wien]",
         "lat": "48.194906",
         "lon": "16.369953",
         "timestamp": ["1890-04-28"],
         "importance": "1"
      }
      }, 
    {
      "type": "Feature",
      "geometry": {
        "type": "Point",
        "coordinates": [16.40289, 48.21206]
      },
      "properties": {
         "id": "pmb185523",
         "title": "Zum braunen Hirschen",
         "lat": "48.21206",
         "lon": "16.40289",
         "timestamp": ["1890-04-07"],
         "importance": "1"
      }
      }, 
    {
      "type": "Feature",
      "geometry": {
        "type": "Point",
        "coordinates": [16.37196, 48.20143]
      },
      "properties": {
         "id": "pmb167805",
         "title": "Kärntnerring 12/Bösendorferstraße 11",
         "lat": "48.20143",
         "lon": "16.37196",
         "timestamp": ["1890-04-01", "1890-04-02", "1890-04-03", "1890-04-04", "1890-04-05", "1890-04-06", "1890-04-07", "1890-04-08", "1890-04-09", "1890-04-10", "1890-04-11", "1890-04-12", "1890-04-13", "1890-04-14", "1890-04-15", "1890-04-16", "1890-04-17", "1890-04-18", "1890-04-19", "1890-04-20", "1890-04-21", "1890-04-22", "1890-04-23", "1890-04-24", "1890-04-25", "1890-04-26", "1890-04-27", "1890-04-28", "1890-04-29", "1890-04-30"],
         "importance": "30"
      }
      }, 
    {
      "type": "Feature",
      "geometry": {
        "type": "Point",
        "coordinates": [16.36192, 48.225446]
      },
      "properties": {
         "id": "pmb186980",
         "title": "Café Alois Eichberger",
         "lat": "48.225446",
         "lon": "16.36192",
         "timestamp": ["1890-04-08"],
         "importance": "1"
      }
      }, 
    {
      "type": "Feature",
      "geometry": {
        "type": "Point",
        "coordinates": [16.370578, 48.195075]
      },
      "properties": {
         "id": "pmb186984",
         "title": "Café Viktoria",
         "lat": "48.195075",
         "lon": "16.370578",
         "timestamp": ["1890-04-13", "1890-04-17", "1890-04-24"],
         "importance": "3"
      }
      }, 
    {
      "type": "Feature",
      "geometry": {
        "type": "Point",
        "coordinates": [16.37243, 48.19544]
      },
      "properties": {
         "id": "pmb50989",
         "title": "Taubstummengasse",
         "lat": "48.19544",
         "lon": "16.37243",
         "timestamp": ["1890-04-13", "1890-04-17", "1890-04-24"],
         "importance": "3"
      }
      }, 
    {
      "type": "Feature",
      "geometry": {
        "type": "Point",
        "coordinates": [16.401694, 48.213944]
      },
      "properties": {
         "id": "pmb47",
         "title": "Schweizerhaus",
         "lat": "48.213944",
         "lon": "16.401694",
         "timestamp": ["1890-04-18"],
         "importance": "1"
      }
      }, 
    {
      "type": "Feature",
      "geometry": {
        "type": "Point",
        "coordinates": [16.402222, 48.214722]
      },
      "properties": {
         "id": "pmb685",
         "title": "Wurstelprater",
         "lat": "48.214722",
         "lon": "16.402222",
         "timestamp": ["1890-04-18"],
         "importance": "1"
      }
      }, 
    {
      "type": "Feature",
      "geometry": {
        "type": "Point",
        "coordinates": [16.3761, 48.20835]
      },
      "properties": {
         "id": "pmb187105",
         "title": "Jean Hofer’s Restaurant Augustinerbräu",
         "lat": "48.20835",
         "lon": "16.3761",
         "timestamp": ["1890-04-29"],
         "importance": "1"
      }
      }, 
    {
      "type": "Feature",
      "geometry": {
        "type": "Point",
        "coordinates": [16.366319, 48.194787]
      },
      "properties": {
         "id": "pmb187109",
         "title": "Restauration zum Hechten",
         "lat": "48.194787",
         "lon": "16.366319",
         "timestamp": ["1890-04-30"],
         "importance": "1"
      }
      }, 
    {
      "type": "Feature",
      "geometry": {
        "type": "Point",
        "coordinates": [16.365323, 48.195139]
      },
      "properties": {
         "id": "pmb92588",
         "title": "Waaggasse",
         "lat": "48.195139",
         "lon": "16.365323",
         "timestamp": ["1890-04-30"],
         "importance": "1"
      }
      }
  ]
}