{
  "type": "FeatureCollection",
  "features": [
    {
      "type": "Feature",
      "geometry": {
        "type": "Point",
        "coordinates": [16.373056, 48.208333]
      },
      "properties": {
         "id": "pmb50",
         "title": "Wien",
         "lat": "48.208333",
         "lon": "16.373056",
         "timestamp": ["1890-09-01", "1890-09-02", "1890-09-03", "1890-09-04", "1890-09-05", "1890-09-06", "1890-09-07", "1890-09-08", "1890-09-09", "1890-09-10", "1890-09-11", "1890-09-12", "1890-09-13", "1890-09-14", "1890-09-15", "1890-09-16", "1890-09-17", "1890-09-19"],
         "importance": "18"
      }
      }, 
    {
      "type": "Feature",
      "geometry": {
        "type": "Point",
        "coordinates": [16.3691, 48.203]
      },
      "properties": {
         "id": "pmb15",
         "title": "Oper",
         "lat": "48.203",
         "lon": "16.3691",
         "timestamp": ["1890-09-02", "1890-09-14"],
         "importance": "2"
      }
      }, 
    {
      "type": "Feature",
      "geometry": {
        "type": "Point",
        "coordinates": [16.3538456, 48.2134031]
      },
      "properties": {
         "id": "pmb44",
         "title": "Riedhof",
         "lat": "48.2134031",
         "lon": "16.3538456",
         "timestamp": ["1890-09-05", "1890-09-06", "1890-09-08", "1890-09-09", "1890-09-10"],
         "importance": "5"
      }
      }, 
    {
      "type": "Feature",
      "geometry": {
        "type": "Point",
        "coordinates": [13.04532, 47.80067]
      },
      "properties": {
         "id": "pmb30",
         "title": "Salzburg",
         "lat": "47.80067",
         "lon": "13.04532",
         "timestamp": ["1890-09-18", "1890-09-19", "1890-09-20", "1890-09-21", "1890-09-22", "1890-09-23", "1890-09-24", "1890-09-25", "1890-09-26", "1890-09-27", "1890-09-28", "1890-09-29", "1890-09-30"],
         "importance": "13"
      }
      }, 
    {
      "type": "Feature",
      "geometry": {
        "type": "Point",
        "coordinates": [13.1, 47.68333]
      },
      "properties": {
         "id": "pmb19527",
         "title": "Hallein",
         "lat": "47.68333",
         "lon": "13.1",
         "timestamp": ["1890-09-22"],
         "importance": "1"
      }
      }, 
    {
      "type": "Feature",
      "geometry": {
        "type": "Point",
        "coordinates": [16.371614, 48.201589]
      },
      "properties": {
         "id": "pmb182664",
         "title": "Café zum Künstlerhaus",
         "lat": "48.201589",
         "lon": "16.371614",
         "timestamp": ["1890-09-14"],
         "importance": "1"
      }
      }, 
    {
      "type": "Feature",
      "geometry": {
        "type": "Point",
        "coordinates": [16.374618, 48.204074]
      },
      "properties": {
         "id": "pmb187186",
         "title": "Kaffehaus Ferdinand Gause",
         "lat": "48.204074",
         "lon": "16.374618",
         "timestamp": ["1890-09-14"],
         "importance": "1"
      }
      }, 
    {
      "type": "Feature",
      "geometry": {
        "type": "Point",
        "coordinates": [16.3589854, 48.2139714]
      },
      "properties": {
         "id": "pmb104",
         "title": "Café Arkaden",
         "lat": "48.2139714",
         "lon": "16.3589854",
         "timestamp": ["1890-09-12", "1890-09-13"],
         "importance": "2"
      }
      }, 
    {
      "type": "Feature",
      "geometry": {
        "type": "Point",
        "coordinates": [16.31006, 48.22707]
      },
      "properties": {
         "id": "pmb67",
         "title": "XVII., Hernals",
         "lat": "48.22707",
         "lon": "16.31006",
         "timestamp": ["1890-09-06"],
         "importance": "1"
      }
      }, 
    {
      "type": "Feature",
      "geometry": {
        "type": "Point",
        "coordinates": [16.37255, 48.203207]
      },
      "properties": {
         "id": "pmb186613",
         "title": "Café Parsifal (Johann Bocksruker)",
         "lat": "48.203207",
         "lon": "16.37255",
         "timestamp": ["1890-09-02", "1890-09-16"],
         "importance": "2"
      }
      }, 
    {
      "type": "Feature",
      "geometry": {
        "type": "Point",
        "coordinates": [16.369953, 48.194906]
      },
      "properties": {
         "id": "pmb184870",
         "title": "Hotel Victoria [Wien]",
         "lat": "48.194906",
         "lon": "16.369953",
         "timestamp": ["1890-09-18"],
         "importance": "1"
      }
      }, 
    {
      "type": "Feature",
      "geometry": {
        "type": "Point",
        "coordinates": [16.37196, 48.20143]
      },
      "properties": {
         "id": "pmb167805",
         "title": "Kärntnerring 12/Bösendorferstraße 11",
         "lat": "48.20143",
         "lon": "16.37196",
         "timestamp": ["1890-09-01", "1890-09-02", "1890-09-03", "1890-09-04", "1890-09-05", "1890-09-06", "1890-09-07", "1890-09-08", "1890-09-09", "1890-09-10", "1890-09-11", "1890-09-12", "1890-09-13", "1890-09-14", "1890-09-15", "1890-09-16", "1890-09-17", "1890-09-19"],
         "importance": "18"
      }
      }, 
    {
      "type": "Feature",
      "geometry": {
        "type": "Point",
        "coordinates": [16.361572, 48.200209]
      },
      "properties": {
         "id": "pmb187161",
         "title": "Zum blauen Freihaus",
         "lat": "48.200209",
         "lon": "16.361572",
         "timestamp": ["1890-09-16"],
         "importance": "1"
      }
      }, 
    {
      "type": "Feature",
      "geometry": {
        "type": "Point",
        "coordinates": [16.35491, 48.18646]
      },
      "properties": {
         "id": "pmb55",
         "title": "V., Margareten",
         "lat": "48.18646",
         "lon": "16.35491",
         "timestamp": ["1890-09-15"],
         "importance": "1"
      }
      }, 
    {
      "type": "Feature",
      "geometry": {
        "type": "Point",
        "coordinates": [16.352634, 48.189861]
      },
      "properties": {
         "id": "pmb190594",
         "title": "Rustler’s Restauration »Zum goldenen Mondschein«",
         "lat": "48.189861",
         "lon": "16.352634",
         "timestamp": ["1890-09-12"],
         "importance": "1"
      }
      }, 
    {
      "type": "Feature",
      "geometry": {
        "type": "Point",
        "coordinates": [16.4097, 48.2283]
      },
      "properties": {
         "id": "pmb439",
         "title": "Reichsbrücke",
         "lat": "48.2283",
         "lon": "16.4097",
         "timestamp": ["1890-09-08"],
         "importance": "1"
      }
      }, 
    {
      "type": "Feature",
      "geometry": {
        "type": "Point",
        "coordinates": [13.043401, 47.802045]
      },
      "properties": {
         "id": "pmb230",
         "title": "Österreichischer Hof",
         "lat": "47.802045",
         "lon": "13.043401",
         "timestamp": ["1890-09-19", "1890-09-20", "1890-09-21", "1890-09-22", "1890-09-23", "1890-09-24", "1890-09-25", "1890-09-26", "1890-09-27", "1890-09-28", "1890-09-29", "1890-09-30"],
         "importance": "12"
      }
      }, 
    {
      "type": "Feature",
      "geometry": {
        "type": "Point",
        "coordinates": [13.06667, 47.8]
      },
      "properties": {
         "id": "pmb804",
         "title": "Parsch",
         "lat": "47.8",
         "lon": "13.06667",
         "timestamp": ["1890-09-19"],
         "importance": "1"
      }
      }, 
    {
      "type": "Feature",
      "geometry": {
        "type": "Point",
        "coordinates": [13.0391, 47.79964]
      },
      "properties": {
         "id": "pmb91270",
         "title": "Mönchsberg",
         "lat": "47.79964",
         "lon": "13.0391",
         "timestamp": ["1890-09-19", "1890-09-20", "1890-09-23"],
         "importance": "3"
      }
      }, 
    {
      "type": "Feature",
      "geometry": {
        "type": "Point",
        "coordinates": [13.04388889, 47.8]
      },
      "properties": {
         "id": "pmb190280",
         "title": "Sternbräu",
         "lat": "47.8",
         "lon": "13.04388889",
         "timestamp": ["1890-09-20"],
         "importance": "1"
      }
      }, 
    {
      "type": "Feature",
      "geometry": {
        "type": "Point",
        "coordinates": [13.0492, 47.79694]
      },
      "properties": {
         "id": "pmb190283",
         "title": "Kasererbräu",
         "lat": "47.79694",
         "lon": "13.0492",
         "timestamp": ["1890-09-20"],
         "importance": "1"
      }
      }, 
    {
      "type": "Feature",
      "geometry": {
        "type": "Point",
        "coordinates": [13.0458, 47.7969]
      },
      "properties": {
         "id": "pmb190287",
         "title": "Stift St Peter",
         "lat": "47.7969",
         "lon": "13.0458",
         "timestamp": ["1890-09-21"],
         "importance": "1"
      }
      }, 
    {
      "type": "Feature",
      "geometry": {
        "type": "Point",
        "coordinates": [13.052689, 47.796539]
      },
      "properties": {
         "id": "pmb190291",
         "title": "Restauration Schanzl",
         "lat": "47.796539",
         "lon": "13.052689",
         "timestamp": ["1890-09-21"],
         "importance": "1"
      }
      }, 
    {
      "type": "Feature",
      "geometry": {
        "type": "Point",
        "coordinates": [13.046155, 47.802721]
      },
      "properties": {
         "id": "pmb190294",
         "title": "Gasthof zum Tiger",
         "lat": "47.802721",
         "lon": "13.046155",
         "timestamp": ["1890-09-21", "1890-09-22", "1890-09-23", "1890-09-24", "1890-09-26"],
         "importance": "5"
      }
      }, 
    {
      "type": "Feature",
      "geometry": {
        "type": "Point",
        "coordinates": [13.060833, 47.762222]
      },
      "properties": {
         "id": "pmb31",
         "title": "Hellbrunn",
         "lat": "47.762222",
         "lon": "13.060833",
         "timestamp": ["1890-09-21"],
         "importance": "1"
      }
      }, 
    {
      "type": "Feature",
      "geometry": {
        "type": "Point",
        "coordinates": [13.092841, 47.68359]
      },
      "properties": {
         "id": "pmb190299",
         "title": "Stampflbräu",
         "lat": "47.68359",
         "lon": "13.092841",
         "timestamp": ["1890-09-22"],
         "importance": "1"
      }
      }, 
    {
      "type": "Feature",
      "geometry": {
        "type": "Point",
        "coordinates": [13.111944, 47.805528]
      },
      "properties": {
         "id": "pmb45105",
         "title": "Gaisberg",
         "lat": "47.805528",
         "lon": "13.111944",
         "timestamp": ["1890-09-24"],
         "importance": "1"
      }
      }, 
    {
      "type": "Feature",
      "geometry": {
        "type": "Point",
        "coordinates": [13.043904, 47.801903]
      },
      "properties": {
         "id": "pmb181",
         "title": "Café Bazar",
         "lat": "47.801903",
         "lon": "13.043904",
         "timestamp": ["1890-09-27"],
         "importance": "1"
      }
      }, 
    {
      "type": "Feature",
      "geometry": {
        "type": "Point",
        "coordinates": [13.042019, 47.805528]
      },
      "properties": {
         "id": "pmb180",
         "title": "Mirabell",
         "lat": "47.805528",
         "lon": "13.042019",
         "timestamp": ["1890-09-28"],
         "importance": "1"
      }
      }, 
    {
      "type": "Feature",
      "geometry": {
        "type": "Point",
        "coordinates": [12.9291, 48.2081]
      },
      "properties": {
         "id": "pmb91647",
         "title": "Salzach",
         "lat": "48.2081",
         "lon": "12.9291",
         "timestamp": ["1890-09-29"],
         "importance": "1"
      }
      }
  ]
}