{
  "type": "FeatureCollection",
  "features": [
    {
      "type": "Feature", 
      "geometry": {
        "type": "LineString", 
        "coordinates": [
            [16.342013, 48.195523], 
            [16.35032, 48.19522], 
            [16.37196, 48.20143], 
            [16.36946, 48.20138], 
            [16.373056, 48.208333]
          ]
      },
      "properties": {
        "name": "11. Mai 1890"
      }
    },
    {
      "type": "Feature",
      "geometry": {
        "type": "Point",
        "coordinates": [
          16.373056, 48.208333
        ]
      },
      "properties": {
        "title": "Wien",
        "timestamp": ["1890-05-11"],
        "pmb": "https://pmb.acdh.oeaw.ac.at/entity//", 
        "wikipedia": "https://de.wikipedia.org/wiki/Wien"
      }
      },
    {
      "type": "Feature",
      "geometry": {
        "type": "Point",
        "coordinates": [
          16.36946, 48.20138
        ]
      },
      "properties": {
        "title": "Leidingers Restauration",
        "timestamp": ["1890-05-11"],
        "pmb": "https://pmb.acdh.oeaw.ac.at/entity//"
      }
      },
    {
      "type": "Feature",
      "geometry": {
        "type": "Point",
        "coordinates": [
          16.342013, 48.195523
        ]
      },
      "properties": {
        "title": "Fügergasse 4",
        "timestamp": ["1890-05-11"],
        "pmb": "https://pmb.acdh.oeaw.ac.at/entity//"
      }
      },
    {
      "type": "Feature",
      "geometry": {
        "type": "Point",
        "coordinates": [
          16.35032, 48.19522
        ]
      },
      "properties": {
        "title": "VI., Mariahilf",
        "timestamp": ["1890-05-11"],
        "pmb": "https://pmb.acdh.oeaw.ac.at/entity//", 
        "wikipedia": "https://de.wikipedia.org/wiki/Mariahilf"
      }
      },
    {
      "type": "Feature",
      "geometry": {
        "type": "Point",
        "coordinates": [
          16.37196, 48.20143
        ]
      },
      "properties": {
        "title": "Kärntnerring 12/Bösendorferstraße 11",
        "timestamp": ["1890-05-11"],
        "pmb": "https://pmb.acdh.oeaw.ac.at/entity//"
      }
      }
  ]
}