{
  "type": "FeatureCollection",
  "features": [
    {
      "type": "Feature",
      "geometry": {
        "type": "Point",
        "coordinates": [16.373056, 48.208333]
      },
      "properties": {
         "id": "pmb50",
         "title": "Wien",
         "lat": "48.208333",
         "lon": "16.373056",
         "timestamp": ["1891-09-01", "1891-09-02", "1891-09-03", "1891-09-04", "1891-09-05", "1891-09-06", "1891-09-07", "1891-09-08", "1891-09-09", "1891-09-10", "1891-09-11", "1891-09-12", "1891-09-13", "1891-09-14", "1891-09-15", "1891-09-16", "1891-09-18", "1891-09-26", "1891-09-27", "1891-09-28", "1891-09-29", "1891-09-30"],
         "importance": "22"
      }
      }, 
    {
      "type": "Feature",
      "geometry": {
        "type": "Point",
        "coordinates": [16.430054, 48.194558]
      },
      "properties": {
         "id": "pmb8",
         "title": "Prater",
         "lat": "48.194558",
         "lon": "16.430054",
         "timestamp": ["1891-09-14", "1891-09-18", "1891-09-26"],
         "importance": "3"
      }
      }, 
    {
      "type": "Feature",
      "geometry": {
        "type": "Point",
        "coordinates": [16.37778, 48.22583]
      },
      "properties": {
         "id": "pmb124",
         "title": "Augarten",
         "lat": "48.22583",
         "lon": "16.37778",
         "timestamp": ["1891-09-18"],
         "importance": "1"
      }
      }, 
    {
      "type": "Feature",
      "geometry": {
        "type": "Point",
        "coordinates": [16.23264, 48.00543]
      },
      "properties": {
         "id": "pmb662",
         "title": "Baden bei Wien",
         "lat": "48.00543",
         "lon": "16.23264",
         "timestamp": ["1891-09-01", "1891-09-06"],
         "importance": "2"
      }
      }, 
    {
      "type": "Feature",
      "geometry": {
        "type": "Point",
        "coordinates": [16.23241375, 48.0108832]
      },
      "properties": {
         "id": "pmb190808",
         "title": "Arena in Baden",
         "lat": "48.0108832",
         "lon": "16.23241375",
         "timestamp": ["1891-09-02", "1891-09-04", "1891-09-07"],
         "importance": "3"
      }
      }, 
    {
      "type": "Feature",
      "geometry": {
        "type": "Point",
        "coordinates": [16.28921, 48.08605]
      },
      "properties": {
         "id": "pmb968",
         "title": "Mödling",
         "lat": "48.08605",
         "lon": "16.28921",
         "timestamp": ["1891-09-01", "1891-09-05", "1891-09-06", "1891-09-07", "1891-09-11"],
         "importance": "5"
      }
      }, 
    {
      "type": "Feature",
      "geometry": {
        "type": "Point",
        "coordinates": [16.379829498031, 48.187455471378]
      },
      "properties": {
         "id": "pmb132",
         "title": "Südbahnhof",
         "lat": "48.187455471378",
         "lon": "16.379829498031",
         "timestamp": ["1891-09-09"],
         "importance": "1"
      }
      }, 
    {
      "type": "Feature",
      "geometry": {
        "type": "Point",
        "coordinates": [13.734861, 51.053528]
      },
      "properties": {
         "id": "pmb5",
         "title": "Gemäldegalerie Alte Meister",
         "lat": "51.053528",
         "lon": "13.734861",
         "timestamp": ["1891-09-25"],
         "importance": "1"
      }
      }, 
    {
      "type": "Feature",
      "geometry": {
        "type": "Point",
        "coordinates": [16.32586, 48.17192]
      },
      "properties": {
         "id": "pmb62",
         "title": "XII., Meidling",
         "lat": "48.17192",
         "lon": "16.32586",
         "timestamp": ["1891-09-17"],
         "importance": "1"
      }
      }, 
    {
      "type": "Feature",
      "geometry": {
        "type": "Point",
        "coordinates": [16.3566, 48.205142]
      },
      "properties": {
         "id": "pmb20",
         "title": "Volkstheater",
         "lat": "48.205142",
         "lon": "16.3566",
         "timestamp": ["1891-09-03", "1891-09-11"],
         "importance": "2"
      }
      }, 
    {
      "type": "Feature",
      "geometry": {
        "type": "Point",
        "coordinates": [16.37502, 48.20727]
      },
      "properties": {
         "id": "pmb36",
         "title": "Zum grünen Anker",
         "lat": "48.20727",
         "lon": "16.37502",
         "timestamp": ["1891-09-10"],
         "importance": "1"
      }
      }, 
    {
      "type": "Feature",
      "geometry": {
        "type": "Point",
        "coordinates": [16.370578, 48.195075]
      },
      "properties": {
         "id": "pmb186984",
         "title": "Café Viktoria",
         "lat": "48.195075",
         "lon": "16.370578",
         "timestamp": ["1891-09-09"],
         "importance": "1"
      }
      }, 
    {
      "type": "Feature",
      "geometry": {
        "type": "Point",
        "coordinates": [16.39482, 48.19811]
      },
      "properties": {
         "id": "pmb53",
         "title": "III., Landstraße",
         "lat": "48.19811",
         "lon": "16.39482",
         "timestamp": ["1891-09-19"],
         "importance": "1"
      }
      }, 
    {
      "type": "Feature",
      "geometry": {
        "type": "Point",
        "coordinates": [16.360584, 48.194996]
      },
      "properties": {
         "id": "pmb38",
         "title": "Zur goldenen Glocke [5. Bezirk]",
         "lat": "48.194996",
         "lon": "16.360584",
         "timestamp": ["1891-09-29"],
         "importance": "1"
      }
      }, 
    {
      "type": "Feature",
      "geometry": {
        "type": "Point",
        "coordinates": [11.97947, 51.48158]
      },
      "properties": {
         "id": "pmb140",
         "title": "Halle (Saale)",
         "lat": "51.48158",
         "lon": "11.97947",
         "timestamp": ["1891-09-19", "1891-09-20", "1891-09-21", "1891-09-22", "1891-09-23", "1891-09-24", "1891-09-25"],
         "importance": "7"
      }
      }, 
    {
      "type": "Feature",
      "geometry": {
        "type": "Point",
        "coordinates": [12.37129, 51.33962]
      },
      "properties": {
         "id": "pmb864",
         "title": "Leipzig",
         "lat": "51.33962",
         "lon": "12.37129",
         "timestamp": ["1891-09-21", "1891-09-24"],
         "importance": "2"
      }
      }, 
    {
      "type": "Feature",
      "geometry": {
        "type": "Point",
        "coordinates": [11.91432, 51.9541]
      },
      "properties": {
         "id": "pmb91632",
         "title": "Saale",
         "lat": "51.9541",
         "lon": "11.91432",
         "timestamp": ["1891-09-22"],
         "importance": "1"
      }
      }
  ]
}