{
  "type": "FeatureCollection",
  "features": [
    {
      "type": "Feature", 
      "geometry": {
        "type": "LineString", 
        "coordinates": [
            [16.360584, 48.194996], 
            [16.37196, 48.20143], 
            [16.37502, 48.20727], 
            [16.373056, 48.208333], 
            [16.369691, 48.211805]
          ]
      },
      "properties": {
        "name": "23. April 1891"
      }
    },
    {
      "type": "Feature",
      "geometry": {
        "type": "Point",
        "coordinates": [
          16.373056, 48.208333
        ]
      },
      "properties": {
        "title": "Wien",
        "timestamp": ["1891-04-23"],
        "pmb": "https://pmb.acdh.oeaw.ac.at/entity//", 
        "wikipedia": "https://de.wikipedia.org/wiki/Wien"
      }
      },
    {
      "type": "Feature",
      "geometry": {
        "type": "Point",
        "coordinates": [
          16.37502, 48.20727
        ]
      },
      "properties": {
        "title": "Zum grünen Anker",
        "timestamp": ["1891-04-23"],
        "pmb": "https://pmb.acdh.oeaw.ac.at/entity//"
      }
      },
    {
      "type": "Feature",
      "geometry": {
        "type": "Point",
        "coordinates": [
          16.360584, 48.194996
        ]
      },
      "properties": {
        "title": "Zur goldenen Glocke [5. Bezirk]",
        "timestamp": ["1891-04-23"],
        "pmb": "https://pmb.acdh.oeaw.ac.at/entity//"
      }
      },
    {
      "type": "Feature",
      "geometry": {
        "type": "Point",
        "coordinates": [
          16.369691, 48.211805
        ]
      },
      "properties": {
        "title": "Café Berg",
        "timestamp": ["1891-04-23"],
        "pmb": "https://pmb.acdh.oeaw.ac.at/entity//"
      }
      },
    {
      "type": "Feature",
      "geometry": {
        "type": "Point",
        "coordinates": [
          16.37196, 48.20143
        ]
      },
      "properties": {
        "title": "Kärntnerring 12/Bösendorferstraße 11",
        "timestamp": ["1891-04-23"],
        "pmb": "https://pmb.acdh.oeaw.ac.at/entity//"
      }
      }
  ]
}