{
  "type": "FeatureCollection",
  "features": [
    {
      "type": "Feature",
      "geometry": {
        "type": "Point",
        "coordinates": [16.373056, 48.208333]
      },
      "properties": {
         "id": "pmb50",
         "title": "Wien",
         "lat": "48.208333",
         "lon": "16.373056",
         "timestamp": ["1891-01-01", "1891-01-02", "1891-01-03", "1891-01-04", "1891-01-05", "1891-01-07", "1891-01-08", "1891-01-09", "1891-01-10", "1891-01-11", "1891-01-12", "1891-01-13", "1891-01-14", "1891-01-15", "1891-01-16", "1891-01-17", "1891-01-18", "1891-01-19", "1891-01-20", "1891-01-21", "1891-01-22", "1891-01-23", "1891-01-24", "1891-01-27", "1891-01-28", "1891-01-29", "1891-01-30", "1891-01-31"],
         "importance": "28"
      }
      }, 
    {
      "type": "Feature",
      "geometry": {
        "type": "Point",
        "coordinates": [16.372564182283, 48.201265597319]
      },
      "properties": {
         "id": "pmb516",
         "title": "Musikverein",
         "lat": "48.201265597319",
         "lon": "16.372564182283",
         "timestamp": ["1891-01-14"],
         "importance": "1"
      }
      }, 
    {
      "type": "Feature",
      "geometry": {
        "type": "Point",
        "coordinates": [16.3691, 48.203]
      },
      "properties": {
         "id": "pmb15",
         "title": "Oper",
         "lat": "48.203",
         "lon": "16.3691",
         "timestamp": ["1891-01-15"],
         "importance": "1"
      }
      }, 
    {
      "type": "Feature",
      "geometry": {
        "type": "Point",
        "coordinates": [16.351111, 48.209583]
      },
      "properties": {
         "id": "pmb40",
         "title": "Theater in der Josefstadt",
         "lat": "48.209583",
         "lon": "16.351111",
         "timestamp": ["1891-01-30"],
         "importance": "1"
      }
      }, 
    {
      "type": "Feature",
      "geometry": {
        "type": "Point",
        "coordinates": [16.384444, 48.215]
      },
      "properties": {
         "id": "pmb118",
         "title": "Carl-Theater",
         "lat": "48.215",
         "lon": "16.384444",
         "timestamp": ["1891-01-10", "1891-01-21"],
         "importance": "2"
      }
      }, 
    {
      "type": "Feature",
      "geometry": {
        "type": "Point",
        "coordinates": [16.3642, 48.19941]
      },
      "properties": {
         "id": "pmb37",
         "title": "Theater an der Wien",
         "lat": "48.19941",
         "lon": "16.3642",
         "timestamp": ["1891-01-08", "1891-01-09", "1891-01-13"],
         "importance": "3"
      }
      }, 
    {
      "type": "Feature",
      "geometry": {
        "type": "Point",
        "coordinates": [16.361139, 48.210333]
      },
      "properties": {
         "id": "pmb14",
         "title": "Burgtheater",
         "lat": "48.210333",
         "lon": "16.361139",
         "timestamp": ["1891-01-07", "1891-01-11", "1891-01-19"],
         "importance": "3"
      }
      }, 
    {
      "type": "Feature",
      "geometry": {
        "type": "Point",
        "coordinates": [16.3734013, 48.2098832]
      },
      "properties": {
         "id": "pmb42749",
         "title": "Stefanskeller",
         "lat": "48.2098832",
         "lon": "16.3734013",
         "timestamp": ["1891-01-02", "1891-01-11", "1891-01-16"],
         "importance": "3"
      }
      }, 
    {
      "type": "Feature",
      "geometry": {
        "type": "Point",
        "coordinates": [13.04532, 47.80067]
      },
      "properties": {
         "id": "pmb30",
         "title": "Salzburg",
         "lat": "47.80067",
         "lon": "13.04532",
         "timestamp": ["1891-01-05", "1891-01-06", "1891-01-07", "1891-01-24", "1891-01-25", "1891-01-26"],
         "importance": "6"
      }
      }, 
    {
      "type": "Feature",
      "geometry": {
        "type": "Point",
        "coordinates": [16.374618, 48.204074]
      },
      "properties": {
         "id": "pmb187186",
         "title": "Kaffehaus Ferdinand Gause",
         "lat": "48.204074",
         "lon": "16.374618",
         "timestamp": ["1891-01-01"],
         "importance": "1"
      }
      }, 
    {
      "type": "Feature",
      "geometry": {
        "type": "Point",
        "coordinates": [16.357685, 48.216547]
      },
      "properties": {
         "id": "pmb41",
         "title": "Allgemeine Poliklinik",
         "lat": "48.216547",
         "lon": "16.357685",
         "timestamp": ["1891-01-12"],
         "importance": "1"
      }
      }, 
    {
      "type": "Feature",
      "geometry": {
        "type": "Point",
        "coordinates": [16.36946, 48.20138]
      },
      "properties": {
         "id": "pmb42",
         "title": "Leidingers Restauration",
         "lat": "48.20138",
         "lon": "16.36946",
         "timestamp": ["1891-01-09"],
         "importance": "1"
      }
      }, 
    {
      "type": "Feature",
      "geometry": {
        "type": "Point",
        "coordinates": [16.362269, 48.210795]
      },
      "properties": {
         "id": "pmb194841",
         "title": "Löwelstraße 16",
         "lat": "48.210795",
         "lon": "16.362269",
         "timestamp": ["1891-01-04"],
         "importance": "1"
      }
      }, 
    {
      "type": "Feature",
      "geometry": {
        "type": "Point",
        "coordinates": [16.369444, 48.203889]
      },
      "properties": {
         "id": "pmb29",
         "title": "Hotel Sacher",
         "lat": "48.203889",
         "lon": "16.369444",
         "timestamp": ["1891-01-13"],
         "importance": "1"
      }
      }, 
    {
      "type": "Feature",
      "geometry": {
        "type": "Point",
        "coordinates": [16.36714, 48.19198]
      },
      "properties": {
         "id": "pmb54",
         "title": "IV., Wieden",
         "lat": "48.19198",
         "lon": "16.36714",
         "timestamp": ["1891-01-13"],
         "importance": "1"
      }
      }, 
    {
      "type": "Feature",
      "geometry": {
        "type": "Point",
        "coordinates": [16.37255, 48.203207]
      },
      "properties": {
         "id": "pmb186613",
         "title": "Café Parsifal (Johann Bocksruker)",
         "lat": "48.203207",
         "lon": "16.37255",
         "timestamp": ["1891-01-09"],
         "importance": "1"
      }
      }, 
    {
      "type": "Feature",
      "geometry": {
        "type": "Point",
        "coordinates": [16.3566, 48.205142]
      },
      "properties": {
         "id": "pmb20",
         "title": "Volkstheater",
         "lat": "48.205142",
         "lon": "16.3566",
         "timestamp": ["1891-01-28"],
         "importance": "1"
      }
      }, 
    {
      "type": "Feature",
      "geometry": {
        "type": "Point",
        "coordinates": [16.37196, 48.20143]
      },
      "properties": {
         "id": "pmb167805",
         "title": "Kärntnerring 12/Bösendorferstraße 11",
         "lat": "48.20143",
         "lon": "16.37196",
         "timestamp": ["1891-01-01", "1891-01-02", "1891-01-03", "1891-01-04", "1891-01-05", "1891-01-07", "1891-01-08", "1891-01-09", "1891-01-10", "1891-01-11", "1891-01-12", "1891-01-13", "1891-01-14", "1891-01-15", "1891-01-16", "1891-01-17", "1891-01-18", "1891-01-19", "1891-01-20", "1891-01-21", "1891-01-22", "1891-01-23", "1891-01-24", "1891-01-27", "1891-01-28", "1891-01-29", "1891-01-30", "1891-01-31"],
         "importance": "28"
      }
      }, 
    {
      "type": "Feature",
      "geometry": {
        "type": "Point",
        "coordinates": [13.042778, 47.802778]
      },
      "properties": {
         "id": "pmb195432",
         "title": "Salzburger Landestheater",
         "lat": "47.802778",
         "lon": "13.042778",
         "timestamp": ["1891-01-25"],
         "importance": "1"
      }
      }, 
    {
      "type": "Feature",
      "geometry": {
        "type": "Point",
        "coordinates": [16.37312, 48.20122]
      },
      "properties": {
         "id": "pmb43",
         "title": "Café Imperial",
         "lat": "48.20122",
         "lon": "16.37312",
         "timestamp": ["1891-01-03", "1891-01-14", "1891-01-15"],
         "importance": "3"
      }
      }, 
    {
      "type": "Feature",
      "geometry": {
        "type": "Point",
        "coordinates": [16.370291, 48.208619]
      },
      "properties": {
         "id": "pmb49",
         "title": "Café Pfob",
         "lat": "48.208619",
         "lon": "16.370291",
         "timestamp": ["1891-01-03", "1891-01-14", "1891-01-17", "1891-01-19", "1891-01-21"],
         "importance": "5"
      }
      }, 
    {
      "type": "Feature",
      "geometry": {
        "type": "Point",
        "coordinates": [16.37968, 48.213595]
      },
      "properties": {
         "id": "pmb92180",
         "title": "Budapest-Orpheum",
         "lat": "48.213595",
         "lon": "16.37968",
         "timestamp": ["1891-01-08"],
         "importance": "1"
      }
      }, 
    {
      "type": "Feature",
      "geometry": {
        "type": "Point",
        "coordinates": [16.369103, 48.213335]
      },
      "properties": {
         "id": "pmb234443",
         "title": "Börsegasse 1",
         "lat": "48.213335",
         "lon": "16.369103",
         "timestamp": ["1891-01-01"],
         "importance": "1"
      }
      }, 
    {
      "type": "Feature",
      "geometry": {
        "type": "Point",
        "coordinates": [15.98333, 48.4]
      },
      "properties": {
         "id": "pmb90182",
         "title": "Absdorf",
         "lat": "48.4",
         "lon": "15.98333",
         "timestamp": ["1891-01-23"],
         "importance": "1"
      }
      }, 
    {
      "type": "Feature",
      "geometry": {
        "type": "Point",
        "coordinates": [16.01862, 48.40815]
      },
      "properties": {
         "id": "pmb91842",
         "title": "Stetteldorf am Wagram",
         "lat": "48.40815",
         "lon": "16.01862",
         "timestamp": ["1891-01-23"],
         "importance": "1"
      }
      }
  ]
}