{
  "type": "FeatureCollection",
  "features": [
    {
      "type": "Feature",
      "geometry": {
        "type": "Point",
        "coordinates": [16.375, 48.205139]
      },
      "properties": {
         "id": "pmb19",
         "title": "Ronacher",
         "lat": "48.205139",
         "lon": "16.375",
         "timestamp": ["1892-10-21"],
         "importance": "1"
      }
      }, 
    {
      "type": "Feature",
      "geometry": {
        "type": "Point",
        "coordinates": [16.3691, 48.203]
      },
      "properties": {
         "id": "pmb15",
         "title": "Oper",
         "lat": "48.203",
         "lon": "16.3691",
         "timestamp": ["1892-10-03", "1892-10-09"],
         "importance": "2"
      }
      }, 
    {
      "type": "Feature",
      "geometry": {
        "type": "Point",
        "coordinates": [16.384444, 48.215]
      },
      "properties": {
         "id": "pmb118",
         "title": "Carl-Theater",
         "lat": "48.215",
         "lon": "16.384444",
         "timestamp": ["1892-10-01", "1892-10-11", "1892-10-24"],
         "importance": "3"
      }
      }, 
    {
      "type": "Feature",
      "geometry": {
        "type": "Point",
        "coordinates": [16.3642, 48.19941]
      },
      "properties": {
         "id": "pmb37",
         "title": "Theater an der Wien",
         "lat": "48.19941",
         "lon": "16.3642",
         "timestamp": ["1892-10-18"],
         "importance": "1"
      }
      }, 
    {
      "type": "Feature",
      "geometry": {
        "type": "Point",
        "coordinates": [16.373056, 48.208333]
      },
      "properties": {
         "id": "pmb50",
         "title": "Wien",
         "lat": "48.208333",
         "lon": "16.373056",
         "timestamp": ["1892-10-01", "1892-10-02", "1892-10-03", "1892-10-04", "1892-10-05", "1892-10-06", "1892-10-07", "1892-10-08", "1892-10-09", "1892-10-11", "1892-10-12", "1892-10-13", "1892-10-14", "1892-10-15", "1892-10-16", "1892-10-17", "1892-10-18", "1892-10-19", "1892-10-20", "1892-10-21", "1892-10-22", "1892-10-23", "1892-10-24", "1892-10-25", "1892-10-26", "1892-10-27", "1892-10-28", "1892-10-29", "1892-10-30", "1892-10-31"],
         "importance": "30"
      }
      }, 
    {
      "type": "Feature",
      "geometry": {
        "type": "Point",
        "coordinates": [16.3589845, 48.2195962]
      },
      "properties": {
         "id": "pmb182762",
         "title": "Danzer’s Orpheum",
         "lat": "48.2195962",
         "lon": "16.3589845",
         "timestamp": ["1892-10-14"],
         "importance": "1"
      }
      }, 
    {
      "type": "Feature",
      "geometry": {
        "type": "Point",
        "coordinates": [16.3566, 48.205142]
      },
      "properties": {
         "id": "pmb20",
         "title": "Volkstheater",
         "lat": "48.205142",
         "lon": "16.3566",
         "timestamp": ["1892-10-02", "1892-10-31"],
         "importance": "2"
      }
      }, 
    {
      "type": "Feature",
      "geometry": {
        "type": "Point",
        "coordinates": [16.35491, 48.18646]
      },
      "properties": {
         "id": "pmb55",
         "title": "V., Margareten",
         "lat": "48.18646",
         "lon": "16.35491",
         "timestamp": ["1892-10-10"],
         "importance": "1"
      }
      }, 
    {
      "type": "Feature",
      "geometry": {
        "type": "Point",
        "coordinates": [16.37312, 48.20122]
      },
      "properties": {
         "id": "pmb43",
         "title": "Café Imperial",
         "lat": "48.20122",
         "lon": "16.37312",
         "timestamp": ["1892-10-10"],
         "importance": "1"
      }
      }, 
    {
      "type": "Feature",
      "geometry": {
        "type": "Point",
        "coordinates": [16.370291, 48.208619]
      },
      "properties": {
         "id": "pmb49",
         "title": "Café Pfob",
         "lat": "48.208619",
         "lon": "16.370291",
         "timestamp": ["1892-10-16", "1892-10-18"],
         "importance": "2"
      }
      }, 
    {
      "type": "Feature",
      "geometry": {
        "type": "Point",
        "coordinates": [16.40752, 48.21409]
      },
      "properties": {
         "id": "pmb192287",
         "title": "Internationale Ausstellung für Musik und Theaterwesen 1892",
         "lat": "48.21409",
         "lon": "16.40752",
         "timestamp": ["1892-10-03", "1892-10-08"],
         "importance": "2"
      }
      }, 
    {
      "type": "Feature",
      "geometry": {
        "type": "Point",
        "coordinates": [16.375924, 48.208656]
      },
      "properties": {
         "id": "pmb190427",
         "title": "Wollzeile 15 (»Berthahof«)",
         "lat": "48.208656",
         "lon": "16.375924",
         "timestamp": ["1892-10-04", "1892-10-08"],
         "importance": "2"
      }
      }, 
    {
      "type": "Feature",
      "geometry": {
        "type": "Point",
        "coordinates": [16.37045, 48.20969]
      },
      "properties": {
         "id": "pmb223",
         "title": "Hotel Wandl",
         "lat": "48.20969",
         "lon": "16.37045",
         "timestamp": ["1892-10-06"],
         "importance": "1"
      }
      }, 
    {
      "type": "Feature",
      "geometry": {
        "type": "Point",
        "coordinates": [16.357353835756, 48.212643768549]
      },
      "properties": {
         "id": "pmb412",
         "title": "Grillparzerstraße",
         "lat": "48.212643768549",
         "lon": "16.357353835756",
         "timestamp": ["1892-10-15"],
         "importance": "1"
      }
      }, 
    {
      "type": "Feature",
      "geometry": {
        "type": "Point",
        "coordinates": [16.37596, 48.20325]
      },
      "properties": {
         "id": "pmb48",
         "title": "Café Union",
         "lat": "48.20325",
         "lon": "16.37596",
         "timestamp": ["1892-10-16"],
         "importance": "1"
      }
      }, 
    {
      "type": "Feature",
      "geometry": {
        "type": "Point",
        "coordinates": [16.380905, 48.198484]
      },
      "properties": {
         "id": "pmb192623",
         "title": "Salesianergasse 12",
         "lat": "48.198484",
         "lon": "16.380905",
         "timestamp": ["1892-10-23"],
         "importance": "1"
      }
      }
  ]
}