{
  "type": "FeatureCollection",
  "features": [
    {
      "type": "Feature", 
      "geometry": {
        "type": "LineString", 
        "coordinates": [
            [16.28921, 48.08605], 
            [16.37196, 48.20143], 
            [16.3709701, 48.2017407], 
            [16.3538456, 48.2134031], 
            [16.28989, 48.23477]
          ]
      },
      "properties": {
        "name": "15. Mai 1892"
      }
    },
    {
      "type": "Feature",
      "geometry": {
        "type": "Point",
        "coordinates": [
          16.3709701, 48.2017407
        ]
      },
      "properties": {
        "title": "Café Kremser",
        "timestamp": ["1892-05-15"],
        "pmb": "https://pmb.acdh.oeaw.ac.at/entity//"
      }
      },
    {
      "type": "Feature",
      "geometry": {
        "type": "Point",
        "coordinates": [
          16.37196, 48.20143
        ]
      },
      "properties": {
        "title": "Kärntnerring 12/Bösendorferstraße 11",
        "timestamp": ["1892-05-15"],
        "pmb": "https://pmb.acdh.oeaw.ac.at/entity//"
      }
      },
    {
      "type": "Feature",
      "geometry": {
        "type": "Point",
        "coordinates": [
          16.3538456, 48.2134031
        ]
      },
      "properties": {
        "title": "Riedhof",
        "timestamp": ["1892-05-15"],
        "pmb": "https://pmb.acdh.oeaw.ac.at/entity//", 
        "wiengeschichtewiki": "https://www.geschichtewiki.wien.gv.at/Riedhof"
      }
      },
    {
      "type": "Feature",
      "geometry": {
        "type": "Point",
        "coordinates": [
          16.28989, 48.23477
        ]
      },
      "properties": {
        "title": "Fürstlich Schwarzenberg’sche Meierei",
        "timestamp": ["1892-05-15"],
        "pmb": "https://pmb.acdh.oeaw.ac.at/entity//"
      }
      },
    {
      "type": "Feature",
      "geometry": {
        "type": "Point",
        "coordinates": [
          16.28921, 48.08605
        ]
      },
      "properties": {
        "title": "Mödling",
        "timestamp": ["1892-05-15"],
        "pmb": "https://pmb.acdh.oeaw.ac.at/entity//", 
        "wikipedia": "https://de.wikipedia.org/wiki/M%C3%B6dling"
      }
      }
  ]
}