{
  "type": "FeatureCollection",
  "features": [
    {
      "type": "Feature",
      "geometry": {
        "type": "Point",
        "coordinates": [16.373056, 48.208333]
      },
      "properties": {
         "id": "pmb50",
         "title": "Wien",
         "lat": "48.208333",
         "lon": "16.373056",
         "timestamp": ["1892-11-01", "1892-11-02", "1892-11-03", "1892-11-04", "1892-11-05", "1892-11-06", "1892-11-07", "1892-11-08", "1892-11-09", "1892-11-10", "1892-11-11", "1892-11-12", "1892-11-13", "1892-11-14", "1892-11-15", "1892-11-16", "1892-11-17", "1892-11-18", "1892-11-19", "1892-11-20", "1892-11-21", "1892-11-22", "1892-11-23", "1892-11-24", "1892-11-25", "1892-11-26", "1892-11-27", "1892-11-28", "1892-11-29", "1892-11-30"],
         "importance": "30"
      }
      }, 
    {
      "type": "Feature",
      "geometry": {
        "type": "Point",
        "coordinates": [16.366111, 48.209167]
      },
      "properties": {
         "id": "pmb4",
         "title": "Bösendorfer-Saal",
         "lat": "48.209167",
         "lon": "16.366111",
         "timestamp": ["1892-11-16"],
         "importance": "1"
      }
      }, 
    {
      "type": "Feature",
      "geometry": {
        "type": "Point",
        "coordinates": [16.361139, 48.210333]
      },
      "properties": {
         "id": "pmb14",
         "title": "Burgtheater",
         "lat": "48.210333",
         "lon": "16.361139",
         "timestamp": ["1892-11-17"],
         "importance": "1"
      }
      }, 
    {
      "type": "Feature",
      "geometry": {
        "type": "Point",
        "coordinates": [16.3538456, 48.2134031]
      },
      "properties": {
         "id": "pmb44",
         "title": "Riedhof",
         "lat": "48.2134031",
         "lon": "16.3538456",
         "timestamp": ["1892-11-01", "1892-11-14", "1892-11-30"],
         "importance": "3"
      }
      }, 
    {
      "type": "Feature",
      "geometry": {
        "type": "Point",
        "coordinates": [16.3566, 48.205142]
      },
      "properties": {
         "id": "pmb20",
         "title": "Volkstheater",
         "lat": "48.205142",
         "lon": "16.3566",
         "timestamp": ["1892-11-12", "1892-11-26"],
         "importance": "2"
      }
      }, 
    {
      "type": "Feature",
      "geometry": {
        "type": "Point",
        "coordinates": [16.36715738471531, 48.2128689619094]
      },
      "properties": {
         "id": "pmb55832",
         "title": "Renngasse",
         "lat": "48.2128689619094",
         "lon": "16.36715738471531",
         "timestamp": ["1892-11-06"],
         "importance": "1"
      }
      }, 
    {
      "type": "Feature",
      "geometry": {
        "type": "Point",
        "coordinates": [16.370291, 48.208619]
      },
      "properties": {
         "id": "pmb49",
         "title": "Café Pfob",
         "lat": "48.208619",
         "lon": "16.370291",
         "timestamp": ["1892-11-01", "1892-11-22"],
         "importance": "2"
      }
      }, 
    {
      "type": "Feature",
      "geometry": {
        "type": "Point",
        "coordinates": [16.375924, 48.208656]
      },
      "properties": {
         "id": "pmb190427",
         "title": "Wollzeile 15 (»Berthahof«)",
         "lat": "48.208656",
         "lon": "16.375924",
         "timestamp": ["1892-11-01", "1892-11-06"],
         "importance": "2"
      }
      }, 
    {
      "type": "Feature",
      "geometry": {
        "type": "Point",
        "coordinates": [16.357233, 48.212477]
      },
      "properties": {
         "id": "pmb167782",
         "title": "Wohnung und Ordination Arthur Schnitzler Grillparzerstraße 7/3. Stock",
         "lat": "48.212477",
         "lon": "16.357233",
         "timestamp": ["1892-11-01", "1892-11-02", "1892-11-03", "1892-11-04", "1892-11-05", "1892-11-06", "1892-11-07", "1892-11-08", "1892-11-09", "1892-11-10", "1892-11-11", "1892-11-12", "1892-11-13", "1892-11-14", "1892-11-15", "1892-11-16", "1892-11-17", "1892-11-18", "1892-11-19", "1892-11-20", "1892-11-21", "1892-11-22", "1892-11-23", "1892-11-24", "1892-11-25", "1892-11-26", "1892-11-27", "1892-11-28", "1892-11-29", "1892-11-30"],
         "importance": "30"
      }
      }
  ]
}