{
  "type": "FeatureCollection",
  "features": [
    {
      "type": "Feature",
      "geometry": {
        "type": "Point",
        "coordinates": [16.373056, 48.208333]
      },
      "properties": {
         "id": "pmb50",
         "title": "Wien",
         "lat": "48.208333",
         "lon": "16.373056",
         "timestamp": ["1893-10-01", "1893-10-02", "1893-10-03", "1893-10-04", "1893-10-05", "1893-10-06", "1893-10-07", "1893-10-08", "1893-10-10", "1893-10-11", "1893-10-12", "1893-10-13", "1893-10-14", "1893-10-15", "1893-10-16", "1893-10-17", "1893-10-18", "1893-10-19", "1893-10-20", "1893-10-21", "1893-10-22", "1893-10-23", "1893-10-24", "1893-10-25", "1893-10-26", "1893-10-27", "1893-10-28", "1893-10-29", "1893-10-30", "1893-10-31"],
         "importance": "30"
      }
      }, 
    {
      "type": "Feature",
      "geometry": {
        "type": "Point",
        "coordinates": [16.363819, 48.20334]
      },
      "properties": {
         "id": "pmb168765",
         "title": "Wohnung und Ordination Johann Schnitzler Burgring 1",
         "lat": "48.20334",
         "lon": "16.363819",
         "timestamp": ["1893-10-01"],
         "importance": "1"
      }
      }, 
    {
      "type": "Feature",
      "geometry": {
        "type": "Point",
        "coordinates": [16.3642, 48.19941]
      },
      "properties": {
         "id": "pmb37",
         "title": "Theater an der Wien",
         "lat": "48.19941",
         "lon": "16.3642",
         "timestamp": ["1893-10-12"],
         "importance": "1"
      }
      }, 
    {
      "type": "Feature",
      "geometry": {
        "type": "Point",
        "coordinates": [16.3538456, 48.2134031]
      },
      "properties": {
         "id": "pmb44",
         "title": "Riedhof",
         "lat": "48.2134031",
         "lon": "16.3538456",
         "timestamp": ["1893-10-03", "1893-10-15", "1893-10-21"],
         "importance": "3"
      }
      }, 
    {
      "type": "Feature",
      "geometry": {
        "type": "Point",
        "coordinates": [15.93893, 47.67487]
      },
      "properties": {
         "id": "pmb50715",
         "title": "Gloggnitz",
         "lat": "47.67487",
         "lon": "15.93893",
         "timestamp": ["1893-10-29"],
         "importance": "1"
      }
      }, 
    {
      "type": "Feature",
      "geometry": {
        "type": "Point",
        "coordinates": [11.15953, 46.66817]
      },
      "properties": {
         "id": "pmb887",
         "title": "Meran",
         "lat": "46.66817",
         "lon": "11.15953",
         "timestamp": ["1893-10-16"],
         "importance": "1"
      }
      }, 
    {
      "type": "Feature",
      "geometry": {
        "type": "Point",
        "coordinates": [17.10674, 48.14816]
      },
      "properties": {
         "id": "pmb39615",
         "title": "Bratislava",
         "lat": "48.14816",
         "lon": "17.10674",
         "timestamp": ["1893-10-08"],
         "importance": "1"
      }
      }, 
    {
      "type": "Feature",
      "geometry": {
        "type": "Point",
        "coordinates": [16.3589854, 48.2139714]
      },
      "properties": {
         "id": "pmb104",
         "title": "Café Arkaden",
         "lat": "48.2139714",
         "lon": "16.3589854",
         "timestamp": ["1893-10-24"],
         "importance": "1"
      }
      }, 
    {
      "type": "Feature",
      "geometry": {
        "type": "Point",
        "coordinates": [16.369444, 48.203889]
      },
      "properties": {
         "id": "pmb29",
         "title": "Hotel Sacher",
         "lat": "48.203889",
         "lon": "16.369444",
         "timestamp": ["1893-10-02"],
         "importance": "1"
      }
      }, 
    {
      "type": "Feature",
      "geometry": {
        "type": "Point",
        "coordinates": [16.36714, 48.19198]
      },
      "properties": {
         "id": "pmb54",
         "title": "IV., Wieden",
         "lat": "48.19198",
         "lon": "16.36714",
         "timestamp": ["1893-10-24"],
         "importance": "1"
      }
      }, 
    {
      "type": "Feature",
      "geometry": {
        "type": "Point",
        "coordinates": [16.3566, 48.205142]
      },
      "properties": {
         "id": "pmb20",
         "title": "Volkstheater",
         "lat": "48.205142",
         "lon": "16.3566",
         "timestamp": ["1893-10-05", "1893-10-07", "1893-10-14", "1893-10-16", "1893-10-18", "1893-10-21", "1893-10-22", "1893-10-23"],
         "importance": "8"
      }
      }, 
    {
      "type": "Feature",
      "geometry": {
        "type": "Point",
        "coordinates": [16.25, 47.8]
      },
      "properties": {
         "id": "pmb587",
         "title": "Wiener Neustadt",
         "lat": "47.8",
         "lon": "16.25",
         "timestamp": ["1893-10-29"],
         "importance": "1"
      }
      }, 
    {
      "type": "Feature",
      "geometry": {
        "type": "Point",
        "coordinates": [16.371211, 48.206416]
      },
      "properties": {
         "id": "pmb96",
         "title": "Meissl & Schadn",
         "lat": "48.206416",
         "lon": "16.371211",
         "timestamp": ["1893-10-07"],
         "importance": "1"
      }
      }, 
    {
      "type": "Feature",
      "geometry": {
        "type": "Point",
        "coordinates": [16.366827, 48.195902]
      },
      "properties": {
         "id": "pmb92438",
         "title": "Paulanergasse",
         "lat": "48.195902",
         "lon": "16.366827",
         "timestamp": ["1893-10-24"],
         "importance": "1"
      }
      }, 
    {
      "type": "Feature",
      "geometry": {
        "type": "Point",
        "coordinates": [16.375924, 48.208656]
      },
      "properties": {
         "id": "pmb190427",
         "title": "Wollzeile 15 (»Berthahof«)",
         "lat": "48.208656",
         "lon": "16.375924",
         "timestamp": ["1893-10-27"],
         "importance": "1"
      }
      }, 
    {
      "type": "Feature",
      "geometry": {
        "type": "Point",
        "coordinates": [16.357353835756, 48.212643768549]
      },
      "properties": {
         "id": "pmb412",
         "title": "Grillparzerstraße",
         "lat": "48.212643768549",
         "lon": "16.357353835756",
         "timestamp": ["1893-10-01", "1893-10-02", "1893-10-03", "1893-10-04", "1893-10-05", "1893-10-06", "1893-10-07", "1893-10-10", "1893-10-11", "1893-10-12", "1893-10-13", "1893-10-14", "1893-10-15", "1893-10-16", "1893-10-17", "1893-10-18", "1893-10-19", "1893-10-20", "1893-10-21", "1893-10-22", "1893-10-23", "1893-10-24", "1893-10-25", "1893-10-26", "1893-10-27", "1893-10-28", "1893-10-30", "1893-10-31"],
         "importance": "28"
      }
      }, 
    {
      "type": "Feature",
      "geometry": {
        "type": "Point",
        "coordinates": [16.357233, 48.212477]
      },
      "properties": {
         "id": "pmb167782",
         "title": "Wohnung und Ordination Arthur Schnitzler Grillparzerstraße 7/3. Stock",
         "lat": "48.212477",
         "lon": "16.357233",
         "timestamp": ["1893-10-01", "1893-10-02", "1893-10-03", "1893-10-04", "1893-10-05", "1893-10-06", "1893-10-07", "1893-10-08", "1893-10-10", "1893-10-11", "1893-10-12", "1893-10-13", "1893-10-14", "1893-10-15", "1893-10-16", "1893-10-17", "1893-10-18", "1893-10-19", "1893-10-20", "1893-10-21", "1893-10-22", "1893-10-23", "1893-10-24", "1893-10-25", "1893-10-26", "1893-10-27", "1893-10-28", "1893-10-29", "1893-10-30", "1893-10-31"],
         "importance": "30"
      }
      }, 
    {
      "type": "Feature",
      "geometry": {
        "type": "Point",
        "coordinates": [16.370064, 48.202791]
      },
      "properties": {
         "id": "pmb205",
         "title": "Hotel Bristol Wien",
         "lat": "48.202791",
         "lon": "16.370064",
         "timestamp": ["1893-10-04", "1893-10-11", "1893-10-18", "1893-10-25"],
         "importance": "4"
      }
      }, 
    {
      "type": "Feature",
      "geometry": {
        "type": "Point",
        "coordinates": [16.209444, 48.327778]
      },
      "properties": {
         "id": "pmb1246",
         "title": "St. Andrä-Wördern",
         "lat": "48.327778",
         "lon": "16.209444",
         "timestamp": ["1893-10-01"],
         "importance": "1"
      }
      }, 
    {
      "type": "Feature",
      "geometry": {
        "type": "Point",
        "coordinates": [16.94504, 48.14627]
      },
      "properties": {
         "id": "pmb96046",
         "title": "Hainburg an der Donau",
         "lat": "48.14627",
         "lon": "16.94504",
         "timestamp": ["1893-10-08"],
         "importance": "1"
      }
      }, 
    {
      "type": "Feature",
      "geometry": {
        "type": "Point",
        "coordinates": [16.365171, 48.203037]
      },
      "properties": {
         "id": "pmb192844",
         "title": "Opernring 19",
         "lat": "48.203037",
         "lon": "16.365171",
         "timestamp": ["1893-10-24"],
         "importance": "1"
      }
      }, 
    {
      "type": "Feature",
      "geometry": {
        "type": "Point",
        "coordinates": [16.359871, 48.216988]
      },
      "properties": {
         "id": "pmb237630",
         "title": "Währinger Straße 14",
         "lat": "48.216988",
         "lon": "16.359871",
         "timestamp": ["1893-10-24"],
         "importance": "1"
      }
      }, 
    {
      "type": "Feature",
      "geometry": {
        "type": "Point",
        "coordinates": [16.14484, 47.69936]
      },
      "properties": {
         "id": "pmb91715",
         "title": "Seebenstein",
         "lat": "47.69936",
         "lon": "16.14484",
         "timestamp": ["1893-10-29"],
         "importance": "1"
      }
      }, 
    {
      "type": "Feature",
      "geometry": {
        "type": "Point",
        "coordinates": [15.99103, 47.60738]
      },
      "properties": {
         "id": "pmb40892",
         "title": "Kirchberg am Wechsel",
         "lat": "47.60738",
         "lon": "15.99103",
         "timestamp": ["1893-10-29", "1893-10-30"],
         "importance": "2"
      }
      }
  ]
}