{
  "type": "FeatureCollection",
  "features": [
    {
      "type": "Feature",
      "geometry": {
        "type": "Point",
        "coordinates": [16.372564182283, 48.201265597319]
      },
      "properties": {
         "id": "pmb516",
         "title": "Musikverein",
         "lat": "48.201265597319",
         "lon": "16.372564182283",
         "timestamp": ["1893-11-05"],
         "importance": "1"
      }
      }, 
    {
      "type": "Feature",
      "geometry": {
        "type": "Point",
        "coordinates": [16.373056, 48.208333]
      },
      "properties": {
         "id": "pmb50",
         "title": "Wien",
         "lat": "48.208333",
         "lon": "16.373056",
         "timestamp": ["1893-11-01", "1893-11-02", "1893-11-03", "1893-11-04", "1893-11-05", "1893-11-06", "1893-11-07", "1893-11-09", "1893-11-10", "1893-11-11", "1893-11-12", "1893-11-13", "1893-11-14", "1893-11-15", "1893-11-16", "1893-11-17", "1893-11-18", "1893-11-19", "1893-11-20", "1893-11-21", "1893-11-22", "1893-11-23", "1893-11-24", "1893-11-25", "1893-11-26", "1893-11-27", "1893-11-28", "1893-11-29", "1893-11-30"],
         "importance": "29"
      }
      }, 
    {
      "type": "Feature",
      "geometry": {
        "type": "Point",
        "coordinates": [16.361139, 48.210333]
      },
      "properties": {
         "id": "pmb14",
         "title": "Burgtheater",
         "lat": "48.210333",
         "lon": "16.361139",
         "timestamp": ["1893-11-11", "1893-11-23"],
         "importance": "2"
      }
      }, 
    {
      "type": "Feature",
      "geometry": {
        "type": "Point",
        "coordinates": [16.361411, 48.202208]
      },
      "properties": {
         "id": "pmb186649",
         "title": "Café Casa Piccola",
         "lat": "48.202208",
         "lon": "16.361411",
         "timestamp": ["1893-11-21"],
         "importance": "1"
      }
      }, 
    {
      "type": "Feature",
      "geometry": {
        "type": "Point",
        "coordinates": [16.3566, 48.205142]
      },
      "properties": {
         "id": "pmb20",
         "title": "Volkstheater",
         "lat": "48.205142",
         "lon": "16.3566",
         "timestamp": ["1893-11-02", "1893-11-04", "1893-11-18", "1893-11-21", "1893-11-24", "1893-11-25", "1893-11-27", "1893-11-28", "1893-11-29", "1893-11-30"],
         "importance": "10"
      }
      }, 
    {
      "type": "Feature",
      "geometry": {
        "type": "Point",
        "coordinates": [16.32475, 48.19031]
      },
      "properties": {
         "id": "pmb39",
         "title": "Volkstheater in Rudolfsheim",
         "lat": "48.19031",
         "lon": "16.32475",
         "timestamp": ["1893-11-08"],
         "importance": "1"
      }
      }, 
    {
      "type": "Feature",
      "geometry": {
        "type": "Point",
        "coordinates": [16.375924, 48.208656]
      },
      "properties": {
         "id": "pmb190427",
         "title": "Wollzeile 15 (»Berthahof«)",
         "lat": "48.208656",
         "lon": "16.375924",
         "timestamp": ["1893-11-15"],
         "importance": "1"
      }
      }, 
    {
      "type": "Feature",
      "geometry": {
        "type": "Point",
        "coordinates": [16.357353835756, 48.212643768549]
      },
      "properties": {
         "id": "pmb412",
         "title": "Grillparzerstraße",
         "lat": "48.212643768549",
         "lon": "16.357353835756",
         "timestamp": ["1893-11-01", "1893-11-02", "1893-11-03", "1893-11-04", "1893-11-05", "1893-11-06", "1893-11-07", "1893-11-08", "1893-11-09", "1893-11-10", "1893-11-11", "1893-11-12", "1893-11-13", "1893-11-14"],
         "importance": "14"
      }
      }, 
    {
      "type": "Feature",
      "geometry": {
        "type": "Point",
        "coordinates": [16.370064, 48.202791]
      },
      "properties": {
         "id": "pmb205",
         "title": "Hotel Bristol Wien",
         "lat": "48.202791",
         "lon": "16.370064",
         "timestamp": ["1893-11-07", "1893-11-14"],
         "importance": "2"
      }
      }, 
    {
      "type": "Feature",
      "geometry": {
        "type": "Point",
        "coordinates": [16.368902, 48.20539]
      },
      "properties": {
         "id": "pmb192966",
         "title": "Lobkowitzplatz 1",
         "lat": "48.20539",
         "lon": "16.368902",
         "timestamp": ["1893-11-01"],
         "importance": "1"
      }
      }, 
    {
      "type": "Feature",
      "geometry": {
        "type": "Point",
        "coordinates": [16.35479, 48.22106]
      },
      "properties": {
         "id": "pmb141786",
         "title": "Amtshaus Wien IX.",
         "lat": "48.22106",
         "lon": "16.35479",
         "timestamp": ["1893-11-22"],
         "importance": "1"
      }
      }, 
    {
      "type": "Feature",
      "geometry": {
        "type": "Point",
        "coordinates": [16.339722, 48.192222]
      },
      "properties": {
         "id": "pmb77",
         "title": "Raimund-Theater",
         "lat": "48.192222",
         "lon": "16.339722",
         "timestamp": ["1893-11-28"],
         "importance": "1"
      }
      }, 
    {
      "type": "Feature",
      "geometry": {
        "type": "Point",
        "coordinates": [16.368057, 48.198059]
      },
      "properties": {
         "id": "pmb192894",
         "title": "Paniglgasse 19a",
         "lat": "48.198059",
         "lon": "16.368057",
         "timestamp": ["1893-11-29"],
         "importance": "1"
      }
      }
  ]
}