{
  "type": "FeatureCollection",
  "features": [
    {
      "type": "Feature",
      "geometry": {
        "type": "Point",
        "coordinates": [16.3691, 48.203]
      },
      "properties": {
         "id": "pmb15",
         "title": "Oper",
         "lat": "48.203",
         "lon": "16.3691",
         "timestamp": ["1894-09-17", "1894-09-19", "1894-09-26"],
         "importance": "3"
      }
      }, 
    {
      "type": "Feature",
      "geometry": {
        "type": "Point",
        "coordinates": [16.351111, 48.209583]
      },
      "properties": {
         "id": "pmb40",
         "title": "Theater in der Josefstadt",
         "lat": "48.209583",
         "lon": "16.351111",
         "timestamp": ["1894-09-28"],
         "importance": "1"
      }
      }, 
    {
      "type": "Feature",
      "geometry": {
        "type": "Point",
        "coordinates": [16.384444, 48.215]
      },
      "properties": {
         "id": "pmb118",
         "title": "Carl-Theater",
         "lat": "48.215",
         "lon": "16.384444",
         "timestamp": ["1894-09-22"],
         "importance": "1"
      }
      }, 
    {
      "type": "Feature",
      "geometry": {
        "type": "Point",
        "coordinates": [16.373056, 48.208333]
      },
      "properties": {
         "id": "pmb50",
         "title": "Wien",
         "lat": "48.208333",
         "lon": "16.373056",
         "timestamp": ["1894-09-04", "1894-09-05", "1894-09-06", "1894-09-07", "1894-09-08", "1894-09-09", "1894-09-10", "1894-09-11", "1894-09-12", "1894-09-13", "1894-09-14", "1894-09-16", "1894-09-17", "1894-09-18", "1894-09-19", "1894-09-20", "1894-09-21", "1894-09-22", "1894-09-23", "1894-09-24", "1894-09-26", "1894-09-27", "1894-09-29", "1894-09-30"],
         "importance": "24"
      }
      }, 
    {
      "type": "Feature",
      "geometry": {
        "type": "Point",
        "coordinates": [16.361139, 48.210333]
      },
      "properties": {
         "id": "pmb14",
         "title": "Burgtheater",
         "lat": "48.210333",
         "lon": "16.361139",
         "timestamp": ["1894-09-14"],
         "importance": "1"
      }
      }, 
    {
      "type": "Feature",
      "geometry": {
        "type": "Point",
        "coordinates": [16.3538456, 48.2134031]
      },
      "properties": {
         "id": "pmb44",
         "title": "Riedhof",
         "lat": "48.2134031",
         "lon": "16.3538456",
         "timestamp": ["1894-09-20", "1894-09-23", "1894-09-28"],
         "importance": "3"
      }
      }, 
    {
      "type": "Feature",
      "geometry": {
        "type": "Point",
        "coordinates": [13.41053, 52.52437]
      },
      "properties": {
         "id": "pmb168",
         "title": "Berlin",
         "lat": "52.52437",
         "lon": "13.41053",
         "timestamp": ["1894-09-05"],
         "importance": "1"
      }
      }, 
    {
      "type": "Feature",
      "geometry": {
        "type": "Point",
        "coordinates": [16.23264, 48.00543]
      },
      "properties": {
         "id": "pmb662",
         "title": "Baden bei Wien",
         "lat": "48.00543",
         "lon": "16.23264",
         "timestamp": ["1894-09-08", "1894-09-10", "1894-09-16", "1894-09-23"],
         "importance": "4"
      }
      }, 
    {
      "type": "Feature",
      "geometry": {
        "type": "Point",
        "coordinates": [13.618611, 47.711389]
      },
      "properties": {
         "id": "pmb1179",
         "title": "Stadttheater [Bad Ischl]",
         "lat": "47.711389",
         "lon": "13.618611",
         "timestamp": ["1894-09-01"],
         "importance": "1"
      }
      }, 
    {
      "type": "Feature",
      "geometry": {
        "type": "Point",
        "coordinates": [16.36714, 48.19198]
      },
      "properties": {
         "id": "pmb54",
         "title": "IV., Wieden",
         "lat": "48.19198",
         "lon": "16.36714",
         "timestamp": ["1894-09-25"],
         "importance": "1"
      }
      }, 
    {
      "type": "Feature",
      "geometry": {
        "type": "Point",
        "coordinates": [16.31006, 48.22707]
      },
      "properties": {
         "id": "pmb67",
         "title": "XVII., Hernals",
         "lat": "48.22707",
         "lon": "16.31006",
         "timestamp": ["1894-09-15"],
         "importance": "1"
      }
      }, 
    {
      "type": "Feature",
      "geometry": {
        "type": "Point",
        "coordinates": [13.48333, 47.71667]
      },
      "properties": {
         "id": "pmb895",
         "title": "Strobl",
         "lat": "47.71667",
         "lon": "13.48333",
         "timestamp": ["1894-09-02"],
         "importance": "1"
      }
      }, 
    {
      "type": "Feature",
      "geometry": {
        "type": "Point",
        "coordinates": [16.3566, 48.205142]
      },
      "properties": {
         "id": "pmb20",
         "title": "Volkstheater",
         "lat": "48.205142",
         "lon": "16.3566",
         "timestamp": ["1894-09-06", "1894-09-07", "1894-09-11", "1894-09-13", "1894-09-24", "1894-09-27", "1894-09-29"],
         "importance": "7"
      }
      }, 
    {
      "type": "Feature",
      "geometry": {
        "type": "Point",
        "coordinates": [16.36471, 48.200556]
      },
      "properties": {
         "id": "pmb97",
         "title": "Zum Weingartl",
         "lat": "48.200556",
         "lon": "16.36471",
         "timestamp": ["1894-09-16"],
         "importance": "1"
      }
      }, 
    {
      "type": "Feature",
      "geometry": {
        "type": "Point",
        "coordinates": [16.365171, 48.203037]
      },
      "properties": {
         "id": "pmb192844",
         "title": "Opernring 19",
         "lat": "48.203037",
         "lon": "16.365171",
         "timestamp": ["1894-09-05", "1894-09-08", "1894-09-10", "1894-09-14", "1894-09-18", "1894-09-19", "1894-09-22", "1894-09-26", "1894-09-28", "1894-09-29", "1894-09-30"],
         "importance": "11"
      }
      }, 
    {
      "type": "Feature",
      "geometry": {
        "type": "Point",
        "coordinates": [16.35736, 48.21533]
      },
      "properties": {
         "id": "pmb168934",
         "title": "Frankgasse 1",
         "lat": "48.21533",
         "lon": "16.35736",
         "timestamp": ["1894-09-26"],
         "importance": "1"
      }
      }, 
    {
      "type": "Feature",
      "geometry": {
        "type": "Point",
        "coordinates": [13.4476, 47.7379]
      },
      "properties": {
         "id": "pmb195147",
         "title": "Pfarrkirche St. Wolfgang",
         "lat": "47.7379",
         "lon": "13.4476",
         "timestamp": ["1894-09-02"],
         "importance": "1"
      }
      }, 
    {
      "type": "Feature",
      "geometry": {
        "type": "Point",
        "coordinates": [13.648174, 47.704823]
      },
      "properties": {
         "id": "pmb92482",
         "title": "Rettenbach Wildnis",
         "lat": "47.704823",
         "lon": "13.648174",
         "timestamp": ["1894-09-02"],
         "importance": "1"
      }
      }, 
    {
      "type": "Feature",
      "geometry": {
        "type": "Point",
        "coordinates": [13.447971, 47.7381]
      },
      "properties": {
         "id": "pmb195144",
         "title": "Marktplatz [Sankt Wolfgang]",
         "lat": "47.7381",
         "lon": "13.447971",
         "timestamp": ["1894-09-02"],
         "importance": "1"
      }
      }, 
    {
      "type": "Feature",
      "geometry": {
        "type": "Point",
        "coordinates": [16.371751, 48.209033]
      },
      "properties": {
         "id": "pmb195150",
         "title": "Pschorr Bierhalle",
         "lat": "48.209033",
         "lon": "16.371751",
         "timestamp": ["1894-09-11"],
         "importance": "1"
      }
      }, 
    {
      "type": "Feature",
      "geometry": {
        "type": "Point",
        "coordinates": [16.46667, 48.13333]
      },
      "properties": {
         "id": "pmb42535",
         "title": "Schwechat",
         "lat": "48.13333",
         "lon": "16.46667",
         "timestamp": ["1894-09-16"],
         "importance": "1"
      }
      }
  ]
}