{
  "type": "FeatureCollection",
  "features": [
    {
      "type": "Feature",
      "geometry": {
        "type": "Point",
        "coordinates": [16.375, 48.205139]
      },
      "properties": {
         "id": "pmb19",
         "title": "Ronacher",
         "lat": "48.205139",
         "lon": "16.375",
         "timestamp": ["1894-12-04"],
         "importance": "1"
      }
      }, 
    {
      "type": "Feature",
      "geometry": {
        "type": "Point",
        "coordinates": [16.373056, 48.208333]
      },
      "properties": {
         "id": "pmb50",
         "title": "Wien",
         "lat": "48.208333",
         "lon": "16.373056",
         "timestamp": ["1894-12-01", "1894-12-02", "1894-12-03", "1894-12-04", "1894-12-05", "1894-12-06", "1894-12-07", "1894-12-08", "1894-12-09", "1894-12-10", "1894-12-11", "1894-12-12", "1894-12-13", "1894-12-14", "1894-12-15", "1894-12-16", "1894-12-17", "1894-12-18", "1894-12-19", "1894-12-20", "1894-12-21", "1894-12-22", "1894-12-23", "1894-12-24", "1894-12-25", "1894-12-26", "1894-12-27", "1894-12-28", "1894-12-29", "1894-12-30", "1894-12-31"],
         "importance": "31"
      }
      }, 
    {
      "type": "Feature",
      "geometry": {
        "type": "Point",
        "coordinates": [16.372564182283, 48.201265597319]
      },
      "properties": {
         "id": "pmb516",
         "title": "Musikverein",
         "lat": "48.201265597319",
         "lon": "16.372564182283",
         "timestamp": ["1894-12-02"],
         "importance": "1"
      }
      }, 
    {
      "type": "Feature",
      "geometry": {
        "type": "Point",
        "coordinates": [16.3691, 48.203]
      },
      "properties": {
         "id": "pmb15",
         "title": "Oper",
         "lat": "48.203",
         "lon": "16.3691",
         "timestamp": ["1894-12-18", "1894-12-21"],
         "importance": "2"
      }
      }, 
    {
      "type": "Feature",
      "geometry": {
        "type": "Point",
        "coordinates": [16.351111, 48.209583]
      },
      "properties": {
         "id": "pmb40",
         "title": "Theater in der Josefstadt",
         "lat": "48.209583",
         "lon": "16.351111",
         "timestamp": ["1894-12-05"],
         "importance": "1"
      }
      }, 
    {
      "type": "Feature",
      "geometry": {
        "type": "Point",
        "coordinates": [16.3642, 48.19941]
      },
      "properties": {
         "id": "pmb37",
         "title": "Theater an der Wien",
         "lat": "48.19941",
         "lon": "16.3642",
         "timestamp": ["1894-12-23"],
         "importance": "1"
      }
      }, 
    {
      "type": "Feature",
      "geometry": {
        "type": "Point",
        "coordinates": [16.361139, 48.210333]
      },
      "properties": {
         "id": "pmb14",
         "title": "Burgtheater",
         "lat": "48.210333",
         "lon": "16.361139",
         "timestamp": ["1894-12-14"],
         "importance": "1"
      }
      }, 
    {
      "type": "Feature",
      "geometry": {
        "type": "Point",
        "coordinates": [16.36543, 48.21021]
      },
      "properties": {
         "id": "pmb90869",
         "title": "Herrengasse",
         "lat": "48.21021",
         "lon": "16.36543",
         "timestamp": ["1894-12-18"],
         "importance": "1"
      }
      }, 
    {
      "type": "Feature",
      "geometry": {
        "type": "Point",
        "coordinates": [16.36338, 48.20204]
      },
      "properties": {
         "id": "pmb168900",
         "title": "Österreichischer Ingenieur- und Architektenverein",
         "lat": "48.20204",
         "lon": "16.36338",
         "timestamp": ["1894-12-11"],
         "importance": "1"
      }
      }, 
    {
      "type": "Feature",
      "geometry": {
        "type": "Point",
        "coordinates": [16.430054, 48.194558]
      },
      "properties": {
         "id": "pmb8",
         "title": "Prater",
         "lat": "48.194558",
         "lon": "16.430054",
         "timestamp": ["1894-12-05", "1894-12-13", "1894-12-25", "1894-12-31"],
         "importance": "4"
      }
      }, 
    {
      "type": "Feature",
      "geometry": {
        "type": "Point",
        "coordinates": [16.3589854, 48.2139714]
      },
      "properties": {
         "id": "pmb104",
         "title": "Café Arkaden",
         "lat": "48.2139714",
         "lon": "16.3589854",
         "timestamp": ["1894-12-09"],
         "importance": "1"
      }
      }, 
    {
      "type": "Feature",
      "geometry": {
        "type": "Point",
        "coordinates": [16.371667, 48.200556]
      },
      "properties": {
         "id": "pmb21",
         "title": "Künstlerhaus",
         "lat": "48.200556",
         "lon": "16.371667",
         "timestamp": ["1894-12-02", "1894-12-21"],
         "importance": "2"
      }
      }, 
    {
      "type": "Feature",
      "geometry": {
        "type": "Point",
        "coordinates": [16.3566, 48.205142]
      },
      "properties": {
         "id": "pmb20",
         "title": "Volkstheater",
         "lat": "48.205142",
         "lon": "16.3566",
         "timestamp": ["1894-12-06", "1894-12-21"],
         "importance": "2"
      }
      }, 
    {
      "type": "Feature",
      "geometry": {
        "type": "Point",
        "coordinates": [16.37968, 48.213595]
      },
      "properties": {
         "id": "pmb92180",
         "title": "Budapest-Orpheum",
         "lat": "48.213595",
         "lon": "16.37968",
         "timestamp": ["1894-12-10", "1894-12-29"],
         "importance": "2"
      }
      }, 
    {
      "type": "Feature",
      "geometry": {
        "type": "Point",
        "coordinates": [16.370064, 48.202791]
      },
      "properties": {
         "id": "pmb205",
         "title": "Hotel Bristol Wien",
         "lat": "48.202791",
         "lon": "16.370064",
         "timestamp": ["1894-12-14", "1894-12-28"],
         "importance": "2"
      }
      }, 
    {
      "type": "Feature",
      "geometry": {
        "type": "Point",
        "coordinates": [16.365171, 48.203037]
      },
      "properties": {
         "id": "pmb192844",
         "title": "Opernring 19",
         "lat": "48.203037",
         "lon": "16.365171",
         "timestamp": ["1894-12-01", "1894-12-03", "1894-12-06", "1894-12-07", "1894-12-09", "1894-12-12", "1894-12-19", "1894-12-21", "1894-12-22", "1894-12-23", "1894-12-24", "1894-12-25", "1894-12-27", "1894-12-28", "1894-12-30"],
         "importance": "15"
      }
      }, 
    {
      "type": "Feature",
      "geometry": {
        "type": "Point",
        "coordinates": [16.368902, 48.20539]
      },
      "properties": {
         "id": "pmb192966",
         "title": "Lobkowitzplatz 1",
         "lat": "48.20539",
         "lon": "16.368902",
         "timestamp": ["1894-12-24"],
         "importance": "1"
      }
      }, 
    {
      "type": "Feature",
      "geometry": {
        "type": "Point",
        "coordinates": [16.35736, 48.21533]
      },
      "properties": {
         "id": "pmb168934",
         "title": "Frankgasse 1",
         "lat": "48.21533",
         "lon": "16.35736",
         "timestamp": ["1894-12-01", "1894-12-02", "1894-12-03", "1894-12-04", "1894-12-05", "1894-12-06", "1894-12-07", "1894-12-08", "1894-12-09", "1894-12-10", "1894-12-11", "1894-12-12", "1894-12-13", "1894-12-14", "1894-12-15", "1894-12-16", "1894-12-17", "1894-12-18", "1894-12-19", "1894-12-20", "1894-12-21", "1894-12-22", "1894-12-23", "1894-12-24", "1894-12-25", "1894-12-26", "1894-12-27", "1894-12-28", "1894-12-29", "1894-12-30", "1894-12-31"],
         "importance": "31"
      }
      }, 
    {
      "type": "Feature",
      "geometry": {
        "type": "Point",
        "coordinates": [16.368057, 48.198059]
      },
      "properties": {
         "id": "pmb192894",
         "title": "Paniglgasse 19a",
         "lat": "48.198059",
         "lon": "16.368057",
         "timestamp": ["1894-12-02"],
         "importance": "1"
      }
      }, 
    {
      "type": "Feature",
      "geometry": {
        "type": "Point",
        "coordinates": [16.43898217221, 48.19252071812]
      },
      "properties": {
         "id": "pmb185",
         "title": "Lusthaus",
         "lat": "48.19252071812",
         "lon": "16.43898217221",
         "timestamp": ["1894-12-25"],
         "importance": "1"
      }
      }, 
    {
      "type": "Feature",
      "geometry": {
        "type": "Point",
        "coordinates": [16.37971, 48.2129]
      },
      "properties": {
         "id": "pmb446",
         "title": "Hotel Continental [Wien]",
         "lat": "48.2129",
         "lon": "16.37971",
         "timestamp": ["1894-12-10"],
         "importance": "1"
      }
      }, 
    {
      "type": "Feature",
      "geometry": {
        "type": "Point",
        "coordinates": [16.360837, 48.193165]
      },
      "properties": {
         "id": "pmb195894",
         "title": "Alexander Förster, k.u.k. Hof-Ledergalanterie- und Luxuswaren",
         "lat": "48.193165",
         "lon": "16.360837",
         "timestamp": ["1894-12-15"],
         "importance": "1"
      }
      }, 
    {
      "type": "Feature",
      "geometry": {
        "type": "Point",
        "coordinates": [16.375203, 48.208212]
      },
      "properties": {
         "id": "pmb195903",
         "title": "König von Ungarn",
         "lat": "48.208212",
         "lon": "16.375203",
         "timestamp": ["1894-12-26"],
         "importance": "1"
      }
      }
  ]
}