{
  "type": "FeatureCollection",
  "features": [
    {
      "type": "Feature",
      "geometry": {
        "type": "Point",
        "coordinates": [16.3691, 48.203]
      },
      "properties": {
         "id": "pmb15",
         "title": "Oper",
         "lat": "48.203",
         "lon": "16.3691",
         "timestamp": ["1894-05-22"],
         "importance": "1"
      }
      }, 
    {
      "type": "Feature",
      "geometry": {
        "type": "Point",
        "coordinates": [16.3642, 48.19941]
      },
      "properties": {
         "id": "pmb37",
         "title": "Theater an der Wien",
         "lat": "48.19941",
         "lon": "16.3642",
         "timestamp": ["1894-05-31"],
         "importance": "1"
      }
      }, 
    {
      "type": "Feature",
      "geometry": {
        "type": "Point",
        "coordinates": [16.373056, 48.208333]
      },
      "properties": {
         "id": "pmb50",
         "title": "Wien",
         "lat": "48.208333",
         "lon": "16.373056",
         "timestamp": ["1894-05-01", "1894-05-02", "1894-05-03", "1894-05-04", "1894-05-05", "1894-05-06", "1894-05-07", "1894-05-08", "1894-05-09", "1894-05-10", "1894-05-11", "1894-05-12", "1894-05-13", "1894-05-14", "1894-05-15", "1894-05-16", "1894-05-17", "1894-05-18", "1894-05-19", "1894-05-20", "1894-05-21", "1894-05-22", "1894-05-23", "1894-05-25", "1894-05-26", "1894-05-27", "1894-05-28", "1894-05-29", "1894-05-30", "1894-05-31"],
         "importance": "30"
      }
      }, 
    {
      "type": "Feature",
      "geometry": {
        "type": "Point",
        "coordinates": [16.430054, 48.194558]
      },
      "properties": {
         "id": "pmb8",
         "title": "Prater",
         "lat": "48.194558",
         "lon": "16.430054",
         "timestamp": ["1894-05-16", "1894-05-27", "1894-05-29"],
         "importance": "3"
      }
      }, 
    {
      "type": "Feature",
      "geometry": {
        "type": "Point",
        "coordinates": [16.25, 48.26667]
      },
      "properties": {
         "id": "pmb473",
         "title": "Weidlingbach",
         "lat": "48.26667",
         "lon": "16.25",
         "timestamp": ["1894-05-17", "1894-05-19", "1894-05-21"],
         "importance": "3"
      }
      }, 
    {
      "type": "Feature",
      "geometry": {
        "type": "Point",
        "coordinates": [16.3538456, 48.2134031]
      },
      "properties": {
         "id": "pmb44",
         "title": "Riedhof",
         "lat": "48.2134031",
         "lon": "16.3538456",
         "timestamp": ["1894-05-21", "1894-05-31"],
         "importance": "2"
      }
      }, 
    {
      "type": "Feature",
      "geometry": {
        "type": "Point",
        "coordinates": [15.93893, 47.67487]
      },
      "properties": {
         "id": "pmb50715",
         "title": "Gloggnitz",
         "lat": "47.67487",
         "lon": "15.93893",
         "timestamp": ["1894-05-14"],
         "importance": "1"
      }
      }, 
    {
      "type": "Feature",
      "geometry": {
        "type": "Point",
        "coordinates": [16.3589854, 48.2139714]
      },
      "properties": {
         "id": "pmb104",
         "title": "Café Arkaden",
         "lat": "48.2139714",
         "lon": "16.3589854",
         "timestamp": ["1894-05-21"],
         "importance": "1"
      }
      }, 
    {
      "type": "Feature",
      "geometry": {
        "type": "Point",
        "coordinates": [16.32522, 48.30521]
      },
      "properties": {
         "id": "pmb865",
         "title": "Klosterneuburg",
         "lat": "48.30521",
         "lon": "16.32522",
         "timestamp": ["1894-05-12"],
         "importance": "1"
      }
      }, 
    {
      "type": "Feature",
      "geometry": {
        "type": "Point",
        "coordinates": [16.371667, 48.200556]
      },
      "properties": {
         "id": "pmb21",
         "title": "Künstlerhaus",
         "lat": "48.200556",
         "lon": "16.371667",
         "timestamp": ["1894-05-23"],
         "importance": "1"
      }
      }, 
    {
      "type": "Feature",
      "geometry": {
        "type": "Point",
        "coordinates": [16.28921, 48.08605]
      },
      "properties": {
         "id": "pmb968",
         "title": "Mödling",
         "lat": "48.08605",
         "lon": "16.28921",
         "timestamp": ["1894-05-03"],
         "importance": "1"
      }
      }, 
    {
      "type": "Feature",
      "geometry": {
        "type": "Point",
        "coordinates": [16.4094, 48.2122]
      },
      "properties": {
         "id": "pmb148394",
         "title": "Rotunde",
         "lat": "48.2122",
         "lon": "16.4094",
         "timestamp": ["1894-05-20"],
         "importance": "1"
      }
      }, 
    {
      "type": "Feature",
      "geometry": {
        "type": "Point",
        "coordinates": [16.02433, 48.17936]
      },
      "properties": {
         "id": "pmb11543",
         "title": "Rekawinkel",
         "lat": "48.17936",
         "lon": "16.02433",
         "timestamp": ["1894-05-24"],
         "importance": "1"
      }
      }, 
    {
      "type": "Feature",
      "geometry": {
        "type": "Point",
        "coordinates": [16.3566, 48.205142]
      },
      "properties": {
         "id": "pmb20",
         "title": "Volkstheater",
         "lat": "48.205142",
         "lon": "16.3566",
         "timestamp": ["1894-05-05", "1894-05-10", "1894-05-18", "1894-05-19"],
         "importance": "4"
      }
      }, 
    {
      "type": "Feature",
      "geometry": {
        "type": "Point",
        "coordinates": [16.08107, 47.72096]
      },
      "properties": {
         "id": "pmb91340",
         "title": "Neunkirchen",
         "lat": "47.72096",
         "lon": "16.08107",
         "timestamp": ["1894-05-13"],
         "importance": "1"
      }
      }, 
    {
      "type": "Feature",
      "geometry": {
        "type": "Point",
        "coordinates": [16.25, 47.8]
      },
      "properties": {
         "id": "pmb587",
         "title": "Wiener Neustadt",
         "lat": "47.8",
         "lon": "16.25",
         "timestamp": ["1894-05-13"],
         "importance": "1"
      }
      }, 
    {
      "type": "Feature",
      "geometry": {
        "type": "Point",
        "coordinates": [16.06409, 48.33327]
      },
      "properties": {
         "id": "pmb41239",
         "title": "Tulln an der Donau",
         "lat": "48.33327",
         "lon": "16.06409",
         "timestamp": ["1894-05-07", "1894-05-30"],
         "importance": "2"
      }
      }, 
    {
      "type": "Feature",
      "geometry": {
        "type": "Point",
        "coordinates": [16.36471, 48.200556]
      },
      "properties": {
         "id": "pmb97",
         "title": "Zum Weingartl",
         "lat": "48.200556",
         "lon": "16.36471",
         "timestamp": ["1894-05-22"],
         "importance": "1"
      }
      }, 
    {
      "type": "Feature",
      "geometry": {
        "type": "Point",
        "coordinates": [16.43138888888889, 48.155833333333334]
      },
      "properties": {
         "id": "pmb192349",
         "title": "Israelitischer Friedhof",
         "lat": "48.155833333333334",
         "lon": "16.43138888888889",
         "timestamp": ["1894-05-02"],
         "importance": "1"
      }
      }, 
    {
      "type": "Feature",
      "geometry": {
        "type": "Point",
        "coordinates": [16.26269, 48.24616]
      },
      "properties": {
         "id": "pmb456",
         "title": "Rohrerhütte",
         "lat": "48.24616",
         "lon": "16.26269",
         "timestamp": ["1894-05-07"],
         "importance": "1"
      }
      }, 
    {
      "type": "Feature",
      "geometry": {
        "type": "Point",
        "coordinates": [16.380905, 48.198484]
      },
      "properties": {
         "id": "pmb192623",
         "title": "Salesianergasse 12",
         "lat": "48.198484",
         "lon": "16.380905",
         "timestamp": ["1894-05-31"],
         "importance": "1"
      }
      }, 
    {
      "type": "Feature",
      "geometry": {
        "type": "Point",
        "coordinates": [16.370064, 48.202791]
      },
      "properties": {
         "id": "pmb205",
         "title": "Hotel Bristol Wien",
         "lat": "48.202791",
         "lon": "16.370064",
         "timestamp": ["1894-05-01"],
         "importance": "1"
      }
      }, 
    {
      "type": "Feature",
      "geometry": {
        "type": "Point",
        "coordinates": [16.365171, 48.203037]
      },
      "properties": {
         "id": "pmb192844",
         "title": "Opernring 19",
         "lat": "48.203037",
         "lon": "16.365171",
         "timestamp": ["1894-05-02", "1894-05-03", "1894-05-04", "1894-05-05", "1894-05-08", "1894-05-09", "1894-05-10", "1894-05-11", "1894-05-14", "1894-05-15", "1894-05-17", "1894-05-18", "1894-05-23", "1894-05-25", "1894-05-26", "1894-05-28", "1894-05-30"],
         "importance": "17"
      }
      }, 
    {
      "type": "Feature",
      "geometry": {
        "type": "Point",
        "coordinates": [16.256152195922, 48.132793312328]
      },
      "properties": {
         "id": "pmb173",
         "title": "Rodaun",
         "lat": "48.132793312328",
         "lon": "16.256152195922",
         "timestamp": ["1894-05-03"],
         "importance": "1"
      }
      }, 
    {
      "type": "Feature",
      "geometry": {
        "type": "Point",
        "coordinates": [16.23479, 48.0978]
      },
      "properties": {
         "id": "pmb90721",
         "title": "Gießhübl",
         "lat": "48.0978",
         "lon": "16.23479",
         "timestamp": ["1894-05-03"],
         "importance": "1"
      }
      }, 
    {
      "type": "Feature",
      "geometry": {
        "type": "Point",
        "coordinates": [16.359115820865, 48.21529247001]
      },
      "properties": {
         "id": "pmb526",
         "title": "Votivkirche",
         "lat": "48.21529247001",
         "lon": "16.359115820865",
         "timestamp": ["1894-05-07"],
         "importance": "1"
      }
      }, 
    {
      "type": "Feature",
      "geometry": {
        "type": "Point",
        "coordinates": [15.8634, 47.69209]
      },
      "properties": {
         "id": "pmb948",
         "title": "Payerbach",
         "lat": "47.69209",
         "lon": "15.8634",
         "timestamp": ["1894-05-14"],
         "importance": "1"
      }
      }, 
    {
      "type": "Feature",
      "geometry": {
        "type": "Point",
        "coordinates": [15.8725, 47.65683]
      },
      "properties": {
         "id": "pmb91695",
         "title": "Schottwien",
         "lat": "47.65683",
         "lon": "15.8725",
         "timestamp": ["1894-05-14"],
         "importance": "1"
      }
      }, 
    {
      "type": "Feature",
      "geometry": {
        "type": "Point",
        "coordinates": [16.334585, 48.297583]
      },
      "properties": {
         "id": "pmb193079",
         "title": "Bahnhof Klosterneuburg-Weidling",
         "lat": "48.297583",
         "lon": "16.334585",
         "timestamp": ["1894-05-19"],
         "importance": "1"
      }
      }, 
    {
      "type": "Feature",
      "geometry": {
        "type": "Point",
        "coordinates": [15.77414, 48.0339]
      },
      "properties": {
         "id": "pmb90825",
         "title": "Hainfeld",
         "lat": "48.0339",
         "lon": "15.77414",
         "timestamp": ["1894-05-24"],
         "importance": "1"
      }
      }, 
    {
      "type": "Feature",
      "geometry": {
        "type": "Point",
        "coordinates": [15.59664, 48.01312]
      },
      "properties": {
         "id": "pmb91147",
         "title": "Lilienfeld",
         "lat": "48.01312",
         "lon": "15.59664",
         "timestamp": ["1894-05-24"],
         "importance": "1"
      }
      }, 
    {
      "type": "Feature",
      "geometry": {
        "type": "Point",
        "coordinates": [16.21667, 48.38333]
      },
      "properties": {
         "id": "pmb15282",
         "title": "Stockerau",
         "lat": "48.38333",
         "lon": "16.21667",
         "timestamp": ["1894-05-30"],
         "importance": "1"
      }
      }
  ]
}