{
  "type": "FeatureCollection",
  "features": [
    {
      "type": "Feature",
      "geometry": {
        "type": "Point",
        "coordinates": [16.375, 48.205139]
      },
      "properties": {
         "id": "pmb19",
         "title": "Ronacher",
         "lat": "48.205139",
         "lon": "16.375",
         "timestamp": ["1894-11-07"],
         "importance": "1"
      }
      }, 
    {
      "type": "Feature",
      "geometry": {
        "type": "Point",
        "coordinates": [16.373056, 48.208333]
      },
      "properties": {
         "id": "pmb50",
         "title": "Wien",
         "lat": "48.208333",
         "lon": "16.373056",
         "timestamp": ["1894-11-01", "1894-11-02", "1894-11-03", "1894-11-04", "1894-11-05", "1894-11-06", "1894-11-07", "1894-11-08", "1894-11-09", "1894-11-10", "1894-11-11", "1894-11-12", "1894-11-13", "1894-11-14", "1894-11-15", "1894-11-16", "1894-11-17", "1894-11-18", "1894-11-19", "1894-11-20", "1894-11-21", "1894-11-22", "1894-11-23", "1894-11-24", "1894-11-25", "1894-11-26", "1894-11-27", "1894-11-28", "1894-11-29", "1894-11-30"],
         "importance": "30"
      }
      }, 
    {
      "type": "Feature",
      "geometry": {
        "type": "Point",
        "coordinates": [16.351111, 48.209583]
      },
      "properties": {
         "id": "pmb40",
         "title": "Theater in der Josefstadt",
         "lat": "48.209583",
         "lon": "16.351111",
         "timestamp": ["1894-11-11"],
         "importance": "1"
      }
      }, 
    {
      "type": "Feature",
      "geometry": {
        "type": "Point",
        "coordinates": [16.3642, 48.19941]
      },
      "properties": {
         "id": "pmb37",
         "title": "Theater an der Wien",
         "lat": "48.19941",
         "lon": "16.3642",
         "timestamp": ["1894-11-03"],
         "importance": "1"
      }
      }, 
    {
      "type": "Feature",
      "geometry": {
        "type": "Point",
        "coordinates": [16.361139, 48.210333]
      },
      "properties": {
         "id": "pmb14",
         "title": "Burgtheater",
         "lat": "48.210333",
         "lon": "16.361139",
         "timestamp": ["1894-11-21"],
         "importance": "1"
      }
      }, 
    {
      "type": "Feature",
      "geometry": {
        "type": "Point",
        "coordinates": [16.367027, 48.20785]
      },
      "properties": {
         "id": "pmb184999",
         "title": "Michaelerbierhaus",
         "lat": "48.20785",
         "lon": "16.367027",
         "timestamp": ["1894-11-25"],
         "importance": "1"
      }
      }, 
    {
      "type": "Feature",
      "geometry": {
        "type": "Point",
        "coordinates": [16.362803, 48.215589]
      },
      "properties": {
         "id": "pmb207250",
         "title": "Wasagasse 4",
         "lat": "48.215589",
         "lon": "16.362803",
         "timestamp": ["1894-11-15"],
         "importance": "1"
      }
      }, 
    {
      "type": "Feature",
      "geometry": {
        "type": "Point",
        "coordinates": [16.31006, 48.22707]
      },
      "properties": {
         "id": "pmb67",
         "title": "XVII., Hernals",
         "lat": "48.22707",
         "lon": "16.31006",
         "timestamp": ["1894-11-16"],
         "importance": "1"
      }
      }, 
    {
      "type": "Feature",
      "geometry": {
        "type": "Point",
        "coordinates": [16.3566, 48.205142]
      },
      "properties": {
         "id": "pmb20",
         "title": "Volkstheater",
         "lat": "48.205142",
         "lon": "16.3566",
         "timestamp": ["1894-11-10", "1894-11-17", "1894-11-24"],
         "importance": "3"
      }
      }, 
    {
      "type": "Feature",
      "geometry": {
        "type": "Point",
        "coordinates": [16.36471, 48.200556]
      },
      "properties": {
         "id": "pmb97",
         "title": "Zum Weingartl",
         "lat": "48.200556",
         "lon": "16.36471",
         "timestamp": ["1894-11-03"],
         "importance": "1"
      }
      }, 
    {
      "type": "Feature",
      "geometry": {
        "type": "Point",
        "coordinates": [16.36028, 48.217575]
      },
      "properties": {
         "id": "pmb34106",
         "title": "Zum silbernen Brunnen",
         "lat": "48.217575",
         "lon": "16.36028",
         "timestamp": ["1894-11-26"],
         "importance": "1"
      }
      }, 
    {
      "type": "Feature",
      "geometry": {
        "type": "Point",
        "coordinates": [16.371211, 48.206416]
      },
      "properties": {
         "id": "pmb96",
         "title": "Meissl & Schadn",
         "lat": "48.206416",
         "lon": "16.371211",
         "timestamp": ["1894-11-13"],
         "importance": "1"
      }
      }, 
    {
      "type": "Feature",
      "geometry": {
        "type": "Point",
        "coordinates": [16.366111, 48.208258]
      },
      "properties": {
         "id": "pmb34",
         "title": "Café Griensteidl",
         "lat": "48.208258",
         "lon": "16.366111",
         "timestamp": ["1894-11-03"],
         "importance": "1"
      }
      }, 
    {
      "type": "Feature",
      "geometry": {
        "type": "Point",
        "coordinates": [16.34706, 48.21126]
      },
      "properties": {
         "id": "pmb58",
         "title": "VIII., Josefstadt",
         "lat": "48.21126",
         "lon": "16.34706",
         "timestamp": ["1894-11-11"],
         "importance": "1"
      }
      }, 
    {
      "type": "Feature",
      "geometry": {
        "type": "Point",
        "coordinates": [16.365171, 48.203037]
      },
      "properties": {
         "id": "pmb192844",
         "title": "Opernring 19",
         "lat": "48.203037",
         "lon": "16.365171",
         "timestamp": ["1894-11-05", "1894-11-06", "1894-11-09", "1894-11-12", "1894-11-15", "1894-11-18", "1894-11-19", "1894-11-21", "1894-11-25", "1894-11-26", "1894-11-28", "1894-11-29", "1894-11-30"],
         "importance": "13"
      }
      }, 
    {
      "type": "Feature",
      "geometry": {
        "type": "Point",
        "coordinates": [16.35736, 48.21533]
      },
      "properties": {
         "id": "pmb168934",
         "title": "Frankgasse 1",
         "lat": "48.21533",
         "lon": "16.35736",
         "timestamp": ["1894-11-01", "1894-11-02", "1894-11-03", "1894-11-04", "1894-11-05", "1894-11-06", "1894-11-07", "1894-11-08", "1894-11-09", "1894-11-10", "1894-11-11", "1894-11-12", "1894-11-13", "1894-11-14", "1894-11-15", "1894-11-16", "1894-11-17", "1894-11-18", "1894-11-19", "1894-11-20", "1894-11-21", "1894-11-22", "1894-11-23", "1894-11-24", "1894-11-25", "1894-11-26", "1894-11-27", "1894-11-28", "1894-11-29", "1894-11-30"],
         "importance": "30"
      }
      }, 
    {
      "type": "Feature",
      "geometry": {
        "type": "Point",
        "coordinates": [16.339722, 48.192222]
      },
      "properties": {
         "id": "pmb77",
         "title": "Raimund-Theater",
         "lat": "48.192222",
         "lon": "16.339722",
         "timestamp": ["1894-11-14"],
         "importance": "1"
      }
      }, 
    {
      "type": "Feature",
      "geometry": {
        "type": "Point",
        "coordinates": [16.368223055918985, 48.20547391356277]
      },
      "properties": {
         "id": "pmb55097",
         "title": "Augustinerstraße",
         "lat": "48.20547391356277",
         "lon": "16.368223055918985",
         "timestamp": ["1894-11-21"],
         "importance": "1"
      }
      }
  ]
}