{
  "type": "FeatureCollection",
  "features": [
    {
      "type": "Feature", 
      "geometry": {
        "type": "LineString", 
        "coordinates": [
            [15.889166666667, 47.875833333333], 
            [15.73019, 47.77325], 
            [15.8634, 47.69209], 
            [16.25, 47.8], 
            [16.24833, 47.89834], 
            [16.373056, 48.208333], 
            [16.35736, 48.21533]
          ]
      },
      "properties": {
        "name": "24. Juni 1894"
      }
    },
    {
      "type": "Feature",
      "geometry": {
        "type": "Point",
        "coordinates": [
          16.373056, 48.208333
        ]
      },
      "properties": {
        "title": "Wien",
        "timestamp": ["1894-06-24"],
        "pmb": "https://pmb.acdh.oeaw.ac.at/entity//", 
        "wikipedia": "https://de.wikipedia.org/wiki/Wien"
      }
      },
    {
      "type": "Feature",
      "geometry": {
        "type": "Point",
        "coordinates": [
          16.25, 47.8
        ]
      },
      "properties": {
        "title": "Wiener Neustadt",
        "timestamp": ["1894-06-24"],
        "pmb": "https://pmb.acdh.oeaw.ac.at/entity//", 
        "wikipedia": "https://de.wikipedia.org/wiki/Wiener_Neustadt"
      }
      },
    {
      "type": "Feature",
      "geometry": {
        "type": "Point",
        "coordinates": [
          15.8634, 47.69209
        ]
      },
      "properties": {
        "title": "Payerbach",
        "timestamp": ["1894-06-24"],
        "pmb": "https://pmb.acdh.oeaw.ac.at/entity//", 
        "wikipedia": "https://de.wikipedia.org/wiki/Payerbach"
      }
      },
    {
      "type": "Feature",
      "geometry": {
        "type": "Point",
        "coordinates": [
          15.73019, 47.77325
        ]
      },
      "properties": {
        "title": "Singerin",
        "timestamp": ["1894-06-24"],
        "pmb": "https://pmb.acdh.oeaw.ac.at/entity//"
      }
      },
    {
      "type": "Feature",
      "geometry": {
        "type": "Point",
        "coordinates": [
          15.889166666667, 47.875833333333
        ]
      },
      "properties": {
        "title": "Gutenstein",
        "timestamp": ["1894-06-24"],
        "pmb": "https://pmb.acdh.oeaw.ac.at/entity//", 
        "wikipedia": "https://de.wikipedia.org/wiki/Gutenstein_(Nieder%C3%B6sterreich)"
      }
      },
    {
      "type": "Feature",
      "geometry": {
        "type": "Point",
        "coordinates": [
          16.24833, 47.89834
        ]
      },
      "properties": {
        "title": "Sollenau",
        "timestamp": ["1894-06-24"],
        "pmb": "https://pmb.acdh.oeaw.ac.at/entity//"
      }
      },
    {
      "type": "Feature",
      "geometry": {
        "type": "Point",
        "coordinates": [
          16.35736, 48.21533
        ]
      },
      "properties": {
        "title": "Frankgasse 1",
        "timestamp": ["1894-06-24"],
        "pmb": "https://pmb.acdh.oeaw.ac.at/entity//"
      }
      }
  ]
}