{
  "type": "FeatureCollection",
  "features": [
    {
      "type": "Feature",
      "geometry": {
        "type": "Point",
        "coordinates": [16.384444, 48.215]
      },
      "properties": {
         "id": "pmb118",
         "title": "Carl-Theater",
         "lat": "48.215",
         "lon": "16.384444",
         "timestamp": ["1894-04-02"],
         "importance": "1"
      }
      }, 
    {
      "type": "Feature",
      "geometry": {
        "type": "Point",
        "coordinates": [16.373056, 48.208333]
      },
      "properties": {
         "id": "pmb50",
         "title": "Wien",
         "lat": "48.208333",
         "lon": "16.373056",
         "timestamp": ["1894-04-01", "1894-04-02", "1894-04-03", "1894-04-04", "1894-04-05", "1894-04-06", "1894-04-07", "1894-04-08", "1894-04-09", "1894-04-10", "1894-04-11", "1894-04-12", "1894-04-13", "1894-04-14", "1894-04-15", "1894-04-16", "1894-04-17", "1894-04-18", "1894-04-19", "1894-04-20", "1894-04-21", "1894-04-22", "1894-04-23", "1894-04-24", "1894-04-25", "1894-04-26", "1894-04-27", "1894-04-28", "1894-04-29", "1894-04-30"],
         "importance": "30"
      }
      }, 
    {
      "type": "Feature",
      "geometry": {
        "type": "Point",
        "coordinates": [16.361139, 48.210333]
      },
      "properties": {
         "id": "pmb14",
         "title": "Burgtheater",
         "lat": "48.210333",
         "lon": "16.361139",
         "timestamp": ["1894-04-25"],
         "importance": "1"
      }
      }, 
    {
      "type": "Feature",
      "geometry": {
        "type": "Point",
        "coordinates": [16.365278, 48.210278]
      },
      "properties": {
         "id": "pmb262",
         "title": "Café Central",
         "lat": "48.210278",
         "lon": "16.365278",
         "timestamp": ["1894-04-02", "1894-04-07", "1894-04-10"],
         "importance": "3"
      }
      }, 
    {
      "type": "Feature",
      "geometry": {
        "type": "Point",
        "coordinates": [16.430054, 48.194558]
      },
      "properties": {
         "id": "pmb8",
         "title": "Prater",
         "lat": "48.194558",
         "lon": "16.430054",
         "timestamp": ["1894-04-20"],
         "importance": "1"
      }
      }, 
    {
      "type": "Feature",
      "geometry": {
        "type": "Point",
        "coordinates": [16.25, 48.26667]
      },
      "properties": {
         "id": "pmb473",
         "title": "Weidlingbach",
         "lat": "48.26667",
         "lon": "16.25",
         "timestamp": ["1894-04-27"],
         "importance": "1"
      }
      }, 
    {
      "type": "Feature",
      "geometry": {
        "type": "Point",
        "coordinates": [16.23264, 48.00543]
      },
      "properties": {
         "id": "pmb662",
         "title": "Baden bei Wien",
         "lat": "48.00543",
         "lon": "16.23264",
         "timestamp": ["1894-04-08"],
         "importance": "1"
      }
      }, 
    {
      "type": "Feature",
      "geometry": {
        "type": "Point",
        "coordinates": [16.28921, 48.08605]
      },
      "properties": {
         "id": "pmb968",
         "title": "Mödling",
         "lat": "48.08605",
         "lon": "16.28921",
         "timestamp": ["1894-04-08"],
         "importance": "1"
      }
      }, 
    {
      "type": "Feature",
      "geometry": {
        "type": "Point",
        "coordinates": [16.15292, 48.04261]
      },
      "properties": {
         "id": "pmb939",
         "title": "Heiligenkreuz",
         "lat": "48.04261",
         "lon": "16.15292",
         "timestamp": ["1894-04-08"],
         "importance": "1"
      }
      }, 
    {
      "type": "Feature",
      "geometry": {
        "type": "Point",
        "coordinates": [16.38091, 48.19156]
      },
      "properties": {
         "id": "pmb90328",
         "title": "Schloss Belvedere",
         "lat": "48.19156",
         "lon": "16.38091",
         "timestamp": ["1894-04-26"],
         "importance": "1"
      }
      }, 
    {
      "type": "Feature",
      "geometry": {
        "type": "Point",
        "coordinates": [16.3672713, 48.1950553]
      },
      "properties": {
         "id": "pmb110",
         "title": "Kührer’s Restauration Zum rothen Rössel",
         "lat": "48.1950553",
         "lon": "16.3672713",
         "timestamp": ["1894-04-17"],
         "importance": "1"
      }
      }, 
    {
      "type": "Feature",
      "geometry": {
        "type": "Point",
        "coordinates": [16.3566, 48.205142]
      },
      "properties": {
         "id": "pmb20",
         "title": "Volkstheater",
         "lat": "48.205142",
         "lon": "16.3566",
         "timestamp": ["1894-04-07", "1894-04-26"],
         "importance": "2"
      }
      }, 
    {
      "type": "Feature",
      "geometry": {
        "type": "Point",
        "coordinates": [16.36471, 48.200556]
      },
      "properties": {
         "id": "pmb97",
         "title": "Zum Weingartl",
         "lat": "48.200556",
         "lon": "16.36471",
         "timestamp": ["1894-04-22"],
         "importance": "1"
      }
      }, 
    {
      "type": "Feature",
      "geometry": {
        "type": "Point",
        "coordinates": [16.36028, 48.217575]
      },
      "properties": {
         "id": "pmb34106",
         "title": "Zum silbernen Brunnen",
         "lat": "48.217575",
         "lon": "16.36028",
         "timestamp": ["1894-04-02"],
         "importance": "1"
      }
      }, 
    {
      "type": "Feature",
      "geometry": {
        "type": "Point",
        "coordinates": [16.40051, 48.21762]
      },
      "properties": {
         "id": "pmb79",
         "title": "Zum Paradiesgarten (Inh. Joh. Hauswirth)",
         "lat": "48.21762",
         "lon": "16.40051",
         "timestamp": ["1894-04-01"],
         "importance": "1"
      }
      }, 
    {
      "type": "Feature",
      "geometry": {
        "type": "Point",
        "coordinates": [16.32428, 48.3065]
      },
      "properties": {
         "id": "pmb192317",
         "title": "Stiftskeller Klosterneuburg",
         "lat": "48.3065",
         "lon": "16.32428",
         "timestamp": ["1894-04-27"],
         "importance": "1"
      }
      }, 
    {
      "type": "Feature",
      "geometry": {
        "type": "Point",
        "coordinates": [16.375924, 48.208656]
      },
      "properties": {
         "id": "pmb190427",
         "title": "Wollzeile 15 (»Berthahof«)",
         "lat": "48.208656",
         "lon": "16.375924",
         "timestamp": ["1894-04-22", "1894-04-29"],
         "importance": "2"
      }
      }, 
    {
      "type": "Feature",
      "geometry": {
        "type": "Point",
        "coordinates": [16.347825, 48.197742]
      },
      "properties": {
         "id": "pmb192642",
         "title": "Café Gabesam (Inh. Alois Planer)",
         "lat": "48.197742",
         "lon": "16.347825",
         "timestamp": ["1894-04-04"],
         "importance": "1"
      }
      }, 
    {
      "type": "Feature",
      "geometry": {
        "type": "Point",
        "coordinates": [16.370064, 48.202791]
      },
      "properties": {
         "id": "pmb205",
         "title": "Hotel Bristol Wien",
         "lat": "48.202791",
         "lon": "16.370064",
         "timestamp": ["1894-04-10"],
         "importance": "1"
      }
      }, 
    {
      "type": "Feature",
      "geometry": {
        "type": "Point",
        "coordinates": [16.08333, 48.18333]
      },
      "properties": {
         "id": "pmb2734",
         "title": "Pressbaum",
         "lat": "48.18333",
         "lon": "16.08333",
         "timestamp": ["1894-04-15"],
         "importance": "1"
      }
      }, 
    {
      "type": "Feature",
      "geometry": {
        "type": "Point",
        "coordinates": [16.365171, 48.203037]
      },
      "properties": {
         "id": "pmb192844",
         "title": "Opernring 19",
         "lat": "48.203037",
         "lon": "16.365171",
         "timestamp": ["1894-04-01", "1894-04-03", "1894-04-04", "1894-04-05", "1894-04-06", "1894-04-06", "1894-04-11", "1894-04-12", "1894-04-13", "1894-04-14", "1894-04-16", "1894-04-17", "1894-04-19", "1894-04-22", "1894-04-23", "1894-04-24", "1894-04-24", "1894-04-28", "1894-04-29", "1894-04-30"],
         "importance": "20"
      }
      }, 
    {
      "type": "Feature",
      "geometry": {
        "type": "Point",
        "coordinates": [16.339722, 48.192222]
      },
      "properties": {
         "id": "pmb77",
         "title": "Raimund-Theater",
         "lat": "48.192222",
         "lon": "16.339722",
         "timestamp": ["1894-04-04", "1894-04-17"],
         "importance": "2"
      }
      }, 
    {
      "type": "Feature",
      "geometry": {
        "type": "Point",
        "coordinates": [16.256152195922, 48.132793312328]
      },
      "properties": {
         "id": "pmb173",
         "title": "Rodaun",
         "lat": "48.132793312328",
         "lon": "16.256152195922",
         "timestamp": ["1894-04-03", "1894-04-09", "1894-04-15"],
         "importance": "3"
      }
      }, 
    {
      "type": "Feature",
      "geometry": {
        "type": "Point",
        "coordinates": [16.15, 48.13333]
      },
      "properties": {
         "id": "pmb1022",
         "title": "Breitenfurt bei Wien",
         "lat": "48.13333",
         "lon": "16.15",
         "timestamp": ["1894-04-15"],
         "importance": "1"
      }
      }, 
    {
      "type": "Feature",
      "geometry": {
        "type": "Point",
        "coordinates": [16.43898217221, 48.19252071812]
      },
      "properties": {
         "id": "pmb185",
         "title": "Lusthaus",
         "lat": "48.19252071812",
         "lon": "16.43898217221",
         "timestamp": ["1894-04-18"],
         "importance": "1"
      }
      }, 
    {
      "type": "Feature",
      "geometry": {
        "type": "Point",
        "coordinates": [16.40142, 48.20335]
      },
      "properties": {
         "id": "pmb92523",
         "title": "Am Schüttel",
         "lat": "48.20335",
         "lon": "16.40142",
         "timestamp": ["1894-04-23"],
         "importance": "1"
      }
      }, 
    {
      "type": "Feature",
      "geometry": {
        "type": "Point",
        "coordinates": [16.359134, 48.213768]
      },
      "properties": {
         "id": "pmb34210",
         "title": "Café Kaiserhof (Inh. Johann Wortner)",
         "lat": "48.213768",
         "lon": "16.359134",
         "timestamp": ["1894-04-25"],
         "importance": "1"
      }
      }
  ]
}