{
  "type": "FeatureCollection",
  "features": [
    {
      "type": "Feature",
      "geometry": {
        "type": "Point",
        "coordinates": [16.373056, 48.208333]
      },
      "properties": {
         "id": "pmb50",
         "title": "Wien",
         "lat": "48.208333",
         "lon": "16.373056",
         "timestamp": ["1894-03-01", "1894-03-02", "1894-03-03", "1894-03-04", "1894-03-05", "1894-03-06", "1894-03-07", "1894-03-08", "1894-03-09", "1894-03-10", "1894-03-11", "1894-03-12", "1894-03-13", "1894-03-14", "1894-03-15", "1894-03-16", "1894-03-17", "1894-03-18", "1894-03-19", "1894-03-20", "1894-03-21", "1894-03-22", "1894-03-23", "1894-03-24", "1894-03-25", "1894-03-26", "1894-03-27", "1894-03-28", "1894-03-29", "1894-03-30", "1894-03-31"],
         "importance": "31"
      }
      }, 
    {
      "type": "Feature",
      "geometry": {
        "type": "Point",
        "coordinates": [16.351111, 48.209583]
      },
      "properties": {
         "id": "pmb40",
         "title": "Theater in der Josefstadt",
         "lat": "48.209583",
         "lon": "16.351111",
         "timestamp": ["1894-03-07"],
         "importance": "1"
      }
      }, 
    {
      "type": "Feature",
      "geometry": {
        "type": "Point",
        "coordinates": [16.3642, 48.19941]
      },
      "properties": {
         "id": "pmb37",
         "title": "Theater an der Wien",
         "lat": "48.19941",
         "lon": "16.3642",
         "timestamp": ["1894-03-10"],
         "importance": "1"
      }
      }, 
    {
      "type": "Feature",
      "geometry": {
        "type": "Point",
        "coordinates": [16.362803, 48.215589]
      },
      "properties": {
         "id": "pmb207250",
         "title": "Wasagasse 4",
         "lat": "48.215589",
         "lon": "16.362803",
         "timestamp": ["1894-03-25"],
         "importance": "1"
      }
      }, 
    {
      "type": "Feature",
      "geometry": {
        "type": "Point",
        "coordinates": [16.3566, 48.205142]
      },
      "properties": {
         "id": "pmb20",
         "title": "Volkstheater",
         "lat": "48.205142",
         "lon": "16.3566",
         "timestamp": ["1894-03-01", "1894-03-31"],
         "importance": "2"
      }
      }, 
    {
      "type": "Feature",
      "geometry": {
        "type": "Point",
        "coordinates": [16.33333, 48.35]
      },
      "properties": {
         "id": "pmb11037",
         "title": "Korneuburg",
         "lat": "48.35",
         "lon": "16.33333",
         "timestamp": ["1894-03-24"],
         "importance": "1"
      }
      }, 
    {
      "type": "Feature",
      "geometry": {
        "type": "Point",
        "coordinates": [16.361378, 48.203661]
      },
      "properties": {
         "id": "pmb47660",
         "title": "Kunsthistorisches Museum",
         "lat": "48.203661",
         "lon": "16.361378",
         "timestamp": ["1894-03-07"],
         "importance": "1"
      }
      }, 
    {
      "type": "Feature",
      "geometry": {
        "type": "Point",
        "coordinates": [16.375924, 48.208656]
      },
      "properties": {
         "id": "pmb190427",
         "title": "Wollzeile 15 (»Berthahof«)",
         "lat": "48.208656",
         "lon": "16.375924",
         "timestamp": ["1894-03-26", "1894-03-29"],
         "importance": "2"
      }
      }, 
    {
      "type": "Feature",
      "geometry": {
        "type": "Point",
        "coordinates": [16.359930555555554, 48.205130555555556]
      },
      "properties": {
         "id": "pmb192662",
         "title": "Naturhistorisches Museum",
         "lat": "48.205130555555556",
         "lon": "16.359930555555554",
         "timestamp": ["1894-03-10"],
         "importance": "1"
      }
      }, 
    {
      "type": "Feature",
      "geometry": {
        "type": "Point",
        "coordinates": [16.370064, 48.202791]
      },
      "properties": {
         "id": "pmb205",
         "title": "Hotel Bristol Wien",
         "lat": "48.202791",
         "lon": "16.370064",
         "timestamp": ["1894-03-13", "1894-03-20", "1894-03-27"],
         "importance": "3"
      }
      }, 
    {
      "type": "Feature",
      "geometry": {
        "type": "Point",
        "coordinates": [16.365171, 48.203037]
      },
      "properties": {
         "id": "pmb192844",
         "title": "Opernring 19",
         "lat": "48.203037",
         "lon": "16.365171",
         "timestamp": ["1894-03-01", "1894-03-02", "1894-03-03", "1894-03-04", "1894-03-05", "1894-03-06", "1894-03-08", "1894-03-10", "1894-03-11", "1894-03-12", "1894-03-14", "1894-03-16", "1894-03-17", "1894-03-19", "1894-03-21", "1894-03-24", "1894-03-25", "1894-03-26", "1894-03-28", "1894-03-30", "1894-03-31"],
         "importance": "21"
      }
      }, 
    {
      "type": "Feature",
      "geometry": {
        "type": "Point",
        "coordinates": [16.35736, 48.21533]
      },
      "properties": {
         "id": "pmb168934",
         "title": "Frankgasse 1",
         "lat": "48.21533",
         "lon": "16.35736",
         "timestamp": ["1894-03-01", "1894-03-02", "1894-03-03", "1894-03-04", "1894-03-05", "1894-03-06", "1894-03-07", "1894-03-08", "1894-03-09", "1894-03-10", "1894-03-11", "1894-03-12", "1894-03-13", "1894-03-14", "1894-03-15", "1894-03-16", "1894-03-17", "1894-03-18", "1894-03-19", "1894-03-20", "1894-03-21", "1894-03-22", "1894-03-23", "1894-03-24", "1894-03-25", "1894-03-26", "1894-03-27", "1894-03-28", "1894-03-29", "1894-03-30", "1894-03-31"],
         "importance": "31"
      }
      }, 
    {
      "type": "Feature",
      "geometry": {
        "type": "Point",
        "coordinates": [16.339722, 48.192222]
      },
      "properties": {
         "id": "pmb77",
         "title": "Raimund-Theater",
         "lat": "48.192222",
         "lon": "16.339722",
         "timestamp": ["1894-03-15"],
         "importance": "1"
      }
      }, 
    {
      "type": "Feature",
      "geometry": {
        "type": "Point",
        "coordinates": [16.368057, 48.198059]
      },
      "properties": {
         "id": "pmb192894",
         "title": "Paniglgasse 19a",
         "lat": "48.198059",
         "lon": "16.368057",
         "timestamp": ["1894-03-04"],
         "importance": "1"
      }
      }
  ]
}