{
  "type": "FeatureCollection",
  "features": [
    {
      "type": "Feature", 
      "geometry": {
        "type": "LineString", 
        "coordinates": [
            [16.369693, 48.204446], 
            [16.373056, 48.208333], 
            [16.375924, 48.208656], 
            [16.3957, 48.217566], 
            [16.35736, 48.21533]
          ]
      },
      "properties": {
        "name": "27. Oktober 1895"
      }
    },
    {
      "type": "Feature",
      "geometry": {
        "type": "Point",
        "coordinates": [
          16.373056, 48.208333
        ]
      },
      "properties": {
        "title": "Wien",
        "timestamp": ["1895-10-27"],
        "pmb": "https://pmb.acdh.oeaw.ac.at/entity//", 
        "wikipedia": "https://de.wikipedia.org/wiki/Wien"
      }
      },
    {
      "type": "Feature",
      "geometry": {
        "type": "Point",
        "coordinates": [
          16.3957, 48.217566
        ]
      },
      "properties": {
        "title": "Jantsch-Theater",
        "timestamp": ["1895-10-27"],
        "pmb": "https://pmb.acdh.oeaw.ac.at/entity//"
      }
      },
    {
      "type": "Feature",
      "geometry": {
        "type": "Point",
        "coordinates": [
          16.369693, 48.204446
        ]
      },
      "properties": {
        "title": "Maysedergasse 4",
        "timestamp": ["1895-10-27"],
        "pmb": "https://pmb.acdh.oeaw.ac.at/entity//"
      }
      },
    {
      "type": "Feature",
      "geometry": {
        "type": "Point",
        "coordinates": [
          16.375924, 48.208656
        ]
      },
      "properties": {
        "title": "Wollzeile 15 (»Berthahof«)",
        "timestamp": ["1895-10-27"],
        "pmb": "https://pmb.acdh.oeaw.ac.at/entity//"
      }
      },
    {
      "type": "Feature",
      "geometry": {
        "type": "Point",
        "coordinates": [
          16.35736, 48.21533
        ]
      },
      "properties": {
        "title": "Frankgasse 1",
        "timestamp": ["1895-10-27"],
        "pmb": "https://pmb.acdh.oeaw.ac.at/entity//"
      }
      }
  ]
}