{
  "type": "FeatureCollection",
  "features": [
    {
      "type": "Feature",
      "geometry": {
        "type": "Point",
        "coordinates": [16.375, 48.205139]
      },
      "properties": {
         "id": "pmb19",
         "title": "Ronacher",
         "lat": "48.205139",
         "lon": "16.375",
         "timestamp": ["1895-12-12"],
         "importance": "1"
      }
      }, 
    {
      "type": "Feature",
      "geometry": {
        "type": "Point",
        "coordinates": [16.3691, 48.203]
      },
      "properties": {
         "id": "pmb15",
         "title": "Oper",
         "lat": "48.203",
         "lon": "16.3691",
         "timestamp": ["1895-12-27"],
         "importance": "1"
      }
      }, 
    {
      "type": "Feature",
      "geometry": {
        "type": "Point",
        "coordinates": [16.351111, 48.209583]
      },
      "properties": {
         "id": "pmb40",
         "title": "Theater in der Josefstadt",
         "lat": "48.209583",
         "lon": "16.351111",
         "timestamp": ["1895-12-14"],
         "importance": "1"
      }
      }, 
    {
      "type": "Feature",
      "geometry": {
        "type": "Point",
        "coordinates": [16.384444, 48.215]
      },
      "properties": {
         "id": "pmb118",
         "title": "Carl-Theater",
         "lat": "48.215",
         "lon": "16.384444",
         "timestamp": ["1895-12-08"],
         "importance": "1"
      }
      }, 
    {
      "type": "Feature",
      "geometry": {
        "type": "Point",
        "coordinates": [16.366111, 48.209167]
      },
      "properties": {
         "id": "pmb4",
         "title": "Bösendorfer-Saal",
         "lat": "48.209167",
         "lon": "16.366111",
         "timestamp": ["1895-12-12", "1895-12-18", "1895-12-21"],
         "importance": "3"
      }
      }, 
    {
      "type": "Feature",
      "geometry": {
        "type": "Point",
        "coordinates": [16.3642, 48.19941]
      },
      "properties": {
         "id": "pmb37",
         "title": "Theater an der Wien",
         "lat": "48.19941",
         "lon": "16.3642",
         "timestamp": ["1895-12-02"],
         "importance": "1"
      }
      }, 
    {
      "type": "Feature",
      "geometry": {
        "type": "Point",
        "coordinates": [16.373056, 48.208333]
      },
      "properties": {
         "id": "pmb50",
         "title": "Wien",
         "lat": "48.208333",
         "lon": "16.373056",
         "timestamp": ["1895-12-01", "1895-12-02", "1895-12-03", "1895-12-04", "1895-12-05", "1895-12-06", "1895-12-07", "1895-12-08", "1895-12-09", "1895-12-10", "1895-12-11", "1895-12-12", "1895-12-13", "1895-12-15", "1895-12-16", "1895-12-17", "1895-12-19", "1895-12-20", "1895-12-21", "1895-12-22", "1895-12-23", "1895-12-24", "1895-12-25", "1895-12-26", "1895-12-27", "1895-12-28", "1895-12-29", "1895-12-30", "1895-12-31"],
         "importance": "29"
      }
      }, 
    {
      "type": "Feature",
      "geometry": {
        "type": "Point",
        "coordinates": [16.361139, 48.210333]
      },
      "properties": {
         "id": "pmb14",
         "title": "Burgtheater",
         "lat": "48.210333",
         "lon": "16.361139",
         "timestamp": ["1895-12-28", "1895-12-31"],
         "importance": "2"
      }
      }, 
    {
      "type": "Feature",
      "geometry": {
        "type": "Point",
        "coordinates": [16.371667, 48.200556]
      },
      "properties": {
         "id": "pmb21",
         "title": "Künstlerhaus",
         "lat": "48.200556",
         "lon": "16.371667",
         "timestamp": ["1895-12-13"],
         "importance": "1"
      }
      }, 
    {
      "type": "Feature",
      "geometry": {
        "type": "Point",
        "coordinates": [16.3566, 48.205142]
      },
      "properties": {
         "id": "pmb20",
         "title": "Volkstheater",
         "lat": "48.205142",
         "lon": "16.3566",
         "timestamp": ["1895-12-28"],
         "importance": "1"
      }
      }, 
    {
      "type": "Feature",
      "geometry": {
        "type": "Point",
        "coordinates": [16.37312, 48.20122]
      },
      "properties": {
         "id": "pmb43",
         "title": "Café Imperial",
         "lat": "48.20122",
         "lon": "16.37312",
         "timestamp": ["1895-12-16", "1895-12-18"],
         "importance": "2"
      }
      }, 
    {
      "type": "Feature",
      "geometry": {
        "type": "Point",
        "coordinates": [16.366111, 48.208258]
      },
      "properties": {
         "id": "pmb34",
         "title": "Café Griensteidl",
         "lat": "48.208258",
         "lon": "16.366111",
         "timestamp": ["1895-12-16", "1895-12-17", "1895-12-18", "1895-12-24"],
         "importance": "4"
      }
      }, 
    {
      "type": "Feature",
      "geometry": {
        "type": "Point",
        "coordinates": [16.4, 48.21667]
      },
      "properties": {
         "id": "pmb52",
         "title": "II., Leopoldstadt",
         "lat": "48.21667",
         "lon": "16.4",
         "timestamp": ["1895-12-18"],
         "importance": "1"
      }
      }, 
    {
      "type": "Feature",
      "geometry": {
        "type": "Point",
        "coordinates": [16.368902, 48.20539]
      },
      "properties": {
         "id": "pmb192966",
         "title": "Lobkowitzplatz 1",
         "lat": "48.20539",
         "lon": "16.368902",
         "timestamp": ["1895-12-24"],
         "importance": "1"
      }
      }, 
    {
      "type": "Feature",
      "geometry": {
        "type": "Point",
        "coordinates": [16.339722, 48.192222]
      },
      "properties": {
         "id": "pmb77",
         "title": "Raimund-Theater",
         "lat": "48.192222",
         "lon": "16.339722",
         "timestamp": ["1895-12-03"],
         "importance": "1"
      }
      }, 
    {
      "type": "Feature",
      "geometry": {
        "type": "Point",
        "coordinates": [16.368057, 48.198059]
      },
      "properties": {
         "id": "pmb192894",
         "title": "Paniglgasse 19a",
         "lat": "48.198059",
         "lon": "16.368057",
         "timestamp": ["1895-12-08"],
         "importance": "1"
      }
      }, 
    {
      "type": "Feature",
      "geometry": {
        "type": "Point",
        "coordinates": [16.35736, 48.21533]
      },
      "properties": {
         "id": "pmb168934",
         "title": "Frankgasse 1",
         "lat": "48.21533",
         "lon": "16.35736",
         "timestamp": ["1895-12-04", "1895-12-06", "1895-12-08", "1895-12-11", "1895-12-14", "1895-12-16", "1895-12-19", "1895-12-21", "1895-12-25", "1895-12-27", "1895-12-28", "1895-12-31"],
         "importance": "12"
      }
      }, 
    {
      "type": "Feature",
      "geometry": {
        "type": "Point",
        "coordinates": [16.376259, 48.211639]
      },
      "properties": {
         "id": "pmb199135",
         "title": "Hotel Habsburg",
         "lat": "48.211639",
         "lon": "16.376259",
         "timestamp": ["1895-12-25"],
         "importance": "1"
      }
      }, 
    {
      "type": "Feature",
      "geometry": {
        "type": "Point",
        "coordinates": [16.340393, 48.232254]
      },
      "properties": {
         "id": "pmb199147",
         "title": "Anastasius-Grün-Gasse 54",
         "lat": "48.232254",
         "lon": "16.340393",
         "timestamp": ["1895-12-28"],
         "importance": "1"
      }
      }, 
    {
      "type": "Feature",
      "geometry": {
        "type": "Point",
        "coordinates": [16.370721, 48.212551]
      },
      "properties": {
         "id": "pmb168687",
         "title": "[Salvatorgasse 11, Absteigequartier III Marie Reinhard und Arthur Schnitzler]",
         "lat": "48.212551",
         "lon": "16.370721",
         "timestamp": ["1895-12-01", "1895-12-07", "1895-12-09", "1895-12-15", "1895-12-19", "1895-12-23", "1895-12-26", "1895-12-30"],
         "importance": "8"
      }
      }, 
    {
      "type": "Feature",
      "geometry": {
        "type": "Point",
        "coordinates": [16.383445, 48.201636]
      },
      "properties": {
         "id": "pmb199403",
         "title": "Reisnerstraße 13",
         "lat": "48.201636",
         "lon": "16.383445",
         "timestamp": ["1895-12-29"],
         "importance": "1"
      }
      }, 
    {
      "type": "Feature",
      "geometry": {
        "type": "Point",
        "coordinates": [16.346958, 48.202013]
      },
      "properties": {
         "id": "pmb92279",
         "title": "Hermanngasse",
         "lat": "48.202013",
         "lon": "16.346958",
         "timestamp": ["1895-12-05"],
         "importance": "1"
      }
      }, 
    {
      "type": "Feature",
      "geometry": {
        "type": "Point",
        "coordinates": [16.369401, 48.216774]
      },
      "properties": {
         "id": "pmb199413",
         "title": "Schottenring 28",
         "lat": "48.216774",
         "lon": "16.369401",
         "timestamp": ["1895-12-11"],
         "importance": "1"
      }
      }, 
    {
      "type": "Feature",
      "geometry": {
        "type": "Point",
        "coordinates": [16.373424, 48.200517]
      },
      "properties": {
         "id": "pmb199430",
         "title": "Canovagasse 3",
         "lat": "48.200517",
         "lon": "16.373424",
         "timestamp": ["1895-12-16"],
         "importance": "1"
      }
      }, 
    {
      "type": "Feature",
      "geometry": {
        "type": "Point",
        "coordinates": [16.357784, 48.205699]
      },
      "properties": {
         "id": "pmb199437",
         "title": "Volksgartenstraße 5",
         "lat": "48.205699",
         "lon": "16.357784",
         "timestamp": ["1895-12-20"],
         "importance": "1"
      }
      }
  ]
}