{
  "type": "FeatureCollection",
  "features": [
    {
      "type": "Feature", 
      "geometry": {
        "type": "LineString", 
        "coordinates": [
            [16.36449, 48.196196], 
            [16.371296264238, 48.202432234197], 
            [16.370068, 48.213056], 
            [16.366111, 48.208258], 
            [16.35736, 48.21533]
          ]
      },
      "properties": {
        "name": "13. April 1895"
      }
    },
    {
      "type": "Feature",
      "geometry": {
        "type": "Point",
        "coordinates": [
          16.36449, 48.196196
        ]
      },
      "properties": {
        "title": "Margaretenstraße 30",
        "timestamp": ["1895-04-13"],
        "pmb": "https://pmb.acdh.oeaw.ac.at/entity//"
      }
      },
    {
      "type": "Feature",
      "geometry": {
        "type": "Point",
        "coordinates": [
          16.366111, 48.208258
        ]
      },
      "properties": {
        "title": "Café Griensteidl",
        "timestamp": ["1895-04-13"],
        "pmb": "https://pmb.acdh.oeaw.ac.at/entity//", 
        "wikipedia": "https://de.wikipedia.org/wiki/Caf%C3%A9_Griensteidl"
      }
      },
    {
      "type": "Feature",
      "geometry": {
        "type": "Point",
        "coordinates": [
          16.370068, 48.213056
        ]
      },
      "properties": {
        "title": "Café Müller",
        "timestamp": ["1895-04-13"],
        "pmb": "https://pmb.acdh.oeaw.ac.at/entity//"
      }
      },
    {
      "type": "Feature",
      "geometry": {
        "type": "Point",
        "coordinates": [
          16.371296264238, 48.202432234197
        ]
      },
      "properties": {
        "title": "Ringstraße",
        "timestamp": ["1895-04-13"],
        "pmb": "https://pmb.acdh.oeaw.ac.at/entity//", 
        "wikipedia": "https://de.wikipedia.org/wiki/Wiener_Ringstra%C3%9Fe"
      }
      },
    {
      "type": "Feature",
      "geometry": {
        "type": "Point",
        "coordinates": [
          16.35736, 48.21533
        ]
      },
      "properties": {
        "title": "Frankgasse 1",
        "timestamp": ["1895-04-13"],
        "pmb": "https://pmb.acdh.oeaw.ac.at/entity//"
      }
      }
  ]
}