{
  "type": "FeatureCollection",
  "features": [
    {
      "type": "Feature",
      "geometry": {
        "type": "Point",
        "coordinates": [16.375, 48.205139]
      },
      "properties": {
         "id": "pmb19",
         "title": "Ronacher",
         "lat": "48.205139",
         "lon": "16.375",
         "timestamp": ["1895-03-22"],
         "importance": "1"
      }
      }, 
    {
      "type": "Feature",
      "geometry": {
        "type": "Point",
        "coordinates": [16.373056, 48.208333]
      },
      "properties": {
         "id": "pmb50",
         "title": "Wien",
         "lat": "48.208333",
         "lon": "16.373056",
         "timestamp": ["1895-03-01", "1895-03-02", "1895-03-03", "1895-03-04", "1895-03-05", "1895-03-06", "1895-03-07", "1895-03-08", "1895-03-09", "1895-03-10", "1895-03-11", "1895-03-12", "1895-03-13", "1895-03-14", "1895-03-15", "1895-03-16", "1895-03-17", "1895-03-18", "1895-03-19", "1895-03-20", "1895-03-21", "1895-03-22", "1895-03-23", "1895-03-24", "1895-03-25", "1895-03-26", "1895-03-27", "1895-03-28", "1895-03-29", "1895-03-30", "1895-03-31"],
         "importance": "31"
      }
      }, 
    {
      "type": "Feature",
      "geometry": {
        "type": "Point",
        "coordinates": [16.384444, 48.215]
      },
      "properties": {
         "id": "pmb118",
         "title": "Carl-Theater",
         "lat": "48.215",
         "lon": "16.384444",
         "timestamp": ["1895-03-02"],
         "importance": "1"
      }
      }, 
    {
      "type": "Feature",
      "geometry": {
        "type": "Point",
        "coordinates": [16.3642, 48.19941]
      },
      "properties": {
         "id": "pmb37",
         "title": "Theater an der Wien",
         "lat": "48.19941",
         "lon": "16.3642",
         "timestamp": ["1895-03-10"],
         "importance": "1"
      }
      }, 
    {
      "type": "Feature",
      "geometry": {
        "type": "Point",
        "coordinates": [16.379608025302, 48.204824018066]
      },
      "properties": {
         "id": "pmb575",
         "title": "Stadtpark",
         "lat": "48.204824018066",
         "lon": "16.379608025302",
         "timestamp": ["1895-03-23"],
         "importance": "1"
      }
      }, 
    {
      "type": "Feature",
      "geometry": {
        "type": "Point",
        "coordinates": [16.361139, 48.210333]
      },
      "properties": {
         "id": "pmb14",
         "title": "Burgtheater",
         "lat": "48.210333",
         "lon": "16.361139",
         "timestamp": ["1895-03-09", "1895-03-14", "1895-03-27"],
         "importance": "3"
      }
      }, 
    {
      "type": "Feature",
      "geometry": {
        "type": "Point",
        "coordinates": [16.430054, 48.194558]
      },
      "properties": {
         "id": "pmb8",
         "title": "Prater",
         "lat": "48.194558",
         "lon": "16.430054",
         "timestamp": ["1895-03-30"],
         "importance": "1"
      }
      }, 
    {
      "type": "Feature",
      "geometry": {
        "type": "Point",
        "coordinates": [16.36756870745, 48.244596474277]
      },
      "properties": {
         "id": "pmb159",
         "title": "Heiligenstadt",
         "lat": "48.244596474277",
         "lon": "16.36756870745",
         "timestamp": ["1895-03-10"],
         "importance": "1"
      }
      }, 
    {
      "type": "Feature",
      "geometry": {
        "type": "Point",
        "coordinates": [16.3538456, 48.2134031]
      },
      "properties": {
         "id": "pmb44",
         "title": "Riedhof",
         "lat": "48.2134031",
         "lon": "16.3538456",
         "timestamp": ["1895-03-04", "1895-03-29"],
         "importance": "2"
      }
      }, 
    {
      "type": "Feature",
      "geometry": {
        "type": "Point",
        "coordinates": [16.3589845, 48.2195962]
      },
      "properties": {
         "id": "pmb182762",
         "title": "Danzer’s Orpheum",
         "lat": "48.2195962",
         "lon": "16.3589845",
         "timestamp": ["1895-03-31"],
         "importance": "1"
      }
      }, 
    {
      "type": "Feature",
      "geometry": {
        "type": "Point",
        "coordinates": [16.371667, 48.200556]
      },
      "properties": {
         "id": "pmb21",
         "title": "Künstlerhaus",
         "lat": "48.200556",
         "lon": "16.371667",
         "timestamp": ["1895-03-31"],
         "importance": "1"
      }
      }, 
    {
      "type": "Feature",
      "geometry": {
        "type": "Point",
        "coordinates": [16.369444, 48.203889]
      },
      "properties": {
         "id": "pmb29",
         "title": "Hotel Sacher",
         "lat": "48.203889",
         "lon": "16.369444",
         "timestamp": ["1895-03-30"],
         "importance": "1"
      }
      }, 
    {
      "type": "Feature",
      "geometry": {
        "type": "Point",
        "coordinates": [16.32586, 48.17192]
      },
      "properties": {
         "id": "pmb62",
         "title": "XII., Meidling",
         "lat": "48.17192",
         "lon": "16.32586",
         "timestamp": ["1895-03-19"],
         "importance": "1"
      }
      }, 
    {
      "type": "Feature",
      "geometry": {
        "type": "Point",
        "coordinates": [16.37502, 48.20727]
      },
      "properties": {
         "id": "pmb36",
         "title": "Zum grünen Anker",
         "lat": "48.20727",
         "lon": "16.37502",
         "timestamp": ["1895-03-16"],
         "importance": "1"
      }
      }, 
    {
      "type": "Feature",
      "geometry": {
        "type": "Point",
        "coordinates": [16.361378, 48.203661]
      },
      "properties": {
         "id": "pmb47660",
         "title": "Kunsthistorisches Museum",
         "lat": "48.203661",
         "lon": "16.361378",
         "timestamp": ["1895-03-18"],
         "importance": "1"
      }
      }, 
    {
      "type": "Feature",
      "geometry": {
        "type": "Point",
        "coordinates": [16.43138888888889, 48.155833333333334]
      },
      "properties": {
         "id": "pmb192349",
         "title": "Israelitischer Friedhof",
         "lat": "48.155833333333334",
         "lon": "16.43138888888889",
         "timestamp": ["1895-03-31"],
         "importance": "1"
      }
      }, 
    {
      "type": "Feature",
      "geometry": {
        "type": "Point",
        "coordinates": [16.375924, 48.208656]
      },
      "properties": {
         "id": "pmb190427",
         "title": "Wollzeile 15 (»Berthahof«)",
         "lat": "48.208656",
         "lon": "16.375924",
         "timestamp": ["1895-03-05", "1895-03-11", "1895-03-12", "1895-03-17"],
         "importance": "4"
      }
      }, 
    {
      "type": "Feature",
      "geometry": {
        "type": "Point",
        "coordinates": [16.389156785664, 48.181978611064]
      },
      "properties": {
         "id": "pmb257",
         "title": "Arsenal",
         "lat": "48.181978611064",
         "lon": "16.389156785664",
         "timestamp": ["1895-03-24"],
         "importance": "1"
      }
      }, 
    {
      "type": "Feature",
      "geometry": {
        "type": "Point",
        "coordinates": [16.35736, 48.21533]
      },
      "properties": {
         "id": "pmb168934",
         "title": "Frankgasse 1",
         "lat": "48.21533",
         "lon": "16.35736",
         "timestamp": ["1895-03-01", "1895-03-02", "1895-03-03", "1895-03-04", "1895-03-05", "1895-03-06", "1895-03-07", "1895-03-08", "1895-03-09", "1895-03-10", "1895-03-11", "1895-03-12", "1895-03-13", "1895-03-14", "1895-03-15", "1895-03-16", "1895-03-17", "1895-03-18", "1895-03-19", "1895-03-20", "1895-03-21", "1895-03-22", "1895-03-23", "1895-03-24", "1895-03-25", "1895-03-26", "1895-03-27", "1895-03-28", "1895-03-29", "1895-03-30", "1895-03-31"],
         "importance": "31"
      }
      }, 
    {
      "type": "Feature",
      "geometry": {
        "type": "Point",
        "coordinates": [16.38566, 48.20574]
      },
      "properties": {
         "id": "pmb50530",
         "title": "Landstraßer Hauptstraße",
         "lat": "48.20574",
         "lon": "16.38566",
         "timestamp": ["1895-03-07"],
         "importance": "1"
      }
      }, 
    {
      "type": "Feature",
      "geometry": {
        "type": "Point",
        "coordinates": [16.371141, 48.201213]
      },
      "properties": {
         "id": "pmb542",
         "title": "Bösendorferstraße",
         "lat": "48.201213",
         "lon": "16.371141",
         "timestamp": ["1895-03-13"],
         "importance": "1"
      }
      }, 
    {
      "type": "Feature",
      "geometry": {
        "type": "Point",
        "coordinates": [16.378424, 48.205873]
      },
      "properties": {
         "id": "pmb199096",
         "title": "Liebenberggasse 7",
         "lat": "48.205873",
         "lon": "16.378424",
         "timestamp": ["1895-03-29", "1895-03-31"],
         "importance": "2"
      }
      }
  ]
}