{
  "type": "FeatureCollection",
  "features": [
    {
      "type": "Feature", 
      "geometry": {
        "type": "LineString", 
        "coordinates": [
            [16.35491, 48.18646], 
            [16.36103888888889, 48.2018], 
            [16.361411, 48.202208], 
            [16.360584, 48.194996], 
            [16.36449, 48.196196], 
            [16.373056, 48.208333], 
            [16.374444444444, 48.211944444444], 
            [16.366111, 48.208258], 
            [16.371916, 48.212604], 
            [16.35736, 48.21533], 
            [16.341333, 48.226694]
          ]
      },
      "properties": {
        "name": "23. Januar 1895"
      }
    },
    {
      "type": "Feature",
      "geometry": {
        "type": "Point",
        "coordinates": [
          16.373056, 48.208333
        ]
      },
      "properties": {
        "title": "Wien",
        "timestamp": ["1895-01-23"],
        "pmb": "https://pmb.acdh.oeaw.ac.at/entity//", 
        "wikipedia": "https://de.wikipedia.org/wiki/Wien"
      }
      },
    {
      "type": "Feature",
      "geometry": {
        "type": "Point",
        "coordinates": [
          16.360584, 48.194996
        ]
      },
      "properties": {
        "title": "Zur goldenen Glocke [5. Bezirk]",
        "timestamp": ["1895-01-23"],
        "pmb": "https://pmb.acdh.oeaw.ac.at/entity//"
      }
      },
    {
      "type": "Feature",
      "geometry": {
        "type": "Point",
        "coordinates": [
          16.366111, 48.208258
        ]
      },
      "properties": {
        "title": "Café Griensteidl",
        "timestamp": ["1895-01-23"],
        "pmb": "https://pmb.acdh.oeaw.ac.at/entity//", 
        "wikipedia": "https://de.wikipedia.org/wiki/Caf%C3%A9_Griensteidl"
      }
      },
    {
      "type": "Feature",
      "geometry": {
        "type": "Point",
        "coordinates": [
          16.361411, 48.202208
        ]
      },
      "properties": {
        "title": "Café Casa Piccola",
        "timestamp": ["1895-01-23"],
        "pmb": "https://pmb.acdh.oeaw.ac.at/entity//"
      }
      },
    {
      "type": "Feature",
      "geometry": {
        "type": "Point",
        "coordinates": [
          16.36103888888889, 48.2018
        ]
      },
      "properties": {
        "title": "Rahlstiege",
        "timestamp": ["1895-01-23"],
        "pmb": "https://pmb.acdh.oeaw.ac.at/entity//", 
        "wikipedia": "https://de.wikipedia.org/wiki/Rahlstiege"
      }
      },
    {
      "type": "Feature",
      "geometry": {
        "type": "Point",
        "coordinates": [
          16.371916, 48.212604
        ]
      },
      "properties": {
        "title": "Fischerstiege",
        "timestamp": ["1895-01-23"],
        "pmb": "https://pmb.acdh.oeaw.ac.at/entity//", 
        "wikipedia": "https://de.wikipedia.org/wiki/Fischerstiege"
      }
      },
    {
      "type": "Feature",
      "geometry": {
        "type": "Point",
        "coordinates": [
          16.374444444444, 48.211944444444
        ]
      },
      "properties": {
        "title": "Ruprechtskirche",
        "timestamp": ["1895-01-23"],
        "pmb": "https://pmb.acdh.oeaw.ac.at/entity//", 
        "wikipedia": "https://de.wikipedia.org/wiki/Ruprechtskirche_(Wien)"
      }
      },
    {
      "type": "Feature",
      "geometry": {
        "type": "Point",
        "coordinates": [
          16.35491, 48.18646
        ]
      },
      "properties": {
        "title": "V., Margareten",
        "timestamp": ["1895-01-23"],
        "pmb": "https://pmb.acdh.oeaw.ac.at/entity//", 
        "wikipedia": "https://de.wikipedia.org/wiki/Margareten"
      }
      },
    {
      "type": "Feature",
      "geometry": {
        "type": "Point",
        "coordinates": [
          16.341333, 48.226694
        ]
      },
      "properties": {
        "title": "Währinger Straße",
        "timestamp": ["1895-01-23"],
        "pmb": "https://pmb.acdh.oeaw.ac.at/entity//", 
        "wikipedia": "https://de.wikipedia.org/wiki/W%C3%A4hringer_Stra%C3%9Fe"
      }
      },
    {
      "type": "Feature",
      "geometry": {
        "type": "Point",
        "coordinates": [
          16.36449, 48.196196
        ]
      },
      "properties": {
        "title": "Margaretenstraße 30",
        "timestamp": ["1895-01-23"],
        "pmb": "https://pmb.acdh.oeaw.ac.at/entity//"
      }
      },
    {
      "type": "Feature",
      "geometry": {
        "type": "Point",
        "coordinates": [
          16.35736, 48.21533
        ]
      },
      "properties": {
        "title": "Frankgasse 1",
        "timestamp": ["1895-01-23"],
        "pmb": "https://pmb.acdh.oeaw.ac.at/entity//"
      }
      }
  ]
}