{
  "type": "FeatureCollection",
  "features": [
    {
      "type": "Feature",
      "geometry": {
        "type": "Point",
        "coordinates": [16.3691, 48.203]
      },
      "properties": {
         "id": "pmb15",
         "title": "Oper",
         "lat": "48.203",
         "lon": "16.3691",
         "timestamp": ["1895-08-12"],
         "importance": "1"
      }
      }, 
    {
      "type": "Feature",
      "geometry": {
        "type": "Point",
        "coordinates": [16.373056, 48.208333]
      },
      "properties": {
         "id": "pmb50",
         "title": "Wien",
         "lat": "48.208333",
         "lon": "16.373056",
         "timestamp": ["1895-08-11", "1895-08-12", "1895-08-13"],
         "importance": "3"
      }
      }, 
    {
      "type": "Feature",
      "geometry": {
        "type": "Point",
        "coordinates": [16.3538456, 48.2134031]
      },
      "properties": {
         "id": "pmb44",
         "title": "Riedhof",
         "lat": "48.2134031",
         "lon": "16.3538456",
         "timestamp": ["1895-08-12"],
         "importance": "1"
      }
      }, 
    {
      "type": "Feature",
      "geometry": {
        "type": "Point",
        "coordinates": [13.04532, 47.80067]
      },
      "properties": {
         "id": "pmb30",
         "title": "Salzburg",
         "lat": "47.80067",
         "lon": "13.04532",
         "timestamp": ["1895-08-20", "1895-08-22", "1895-08-24"],
         "importance": "3"
      }
      }, 
    {
      "type": "Feature",
      "geometry": {
        "type": "Point",
        "coordinates": [13.78243, 47.60998]
      },
      "properties": {
         "id": "pmb415",
         "title": "Bad Aussee",
         "lat": "47.60998",
         "lon": "13.78243",
         "timestamp": ["1895-08-07"],
         "importance": "1"
      }
      }, 
    {
      "type": "Feature",
      "geometry": {
        "type": "Point",
        "coordinates": [13.61893, 47.71109]
      },
      "properties": {
         "id": "pmb213",
         "title": "Bad Ischl",
         "lat": "47.71109",
         "lon": "13.61893",
         "timestamp": ["1895-08-14", "1895-08-18", "1895-08-19"],
         "importance": "3"
      }
      }, 
    {
      "type": "Feature",
      "geometry": {
        "type": "Point",
        "coordinates": [13.00187, 47.63236]
      },
      "properties": {
         "id": "pmb797",
         "title": "Berchtesgaden",
         "lat": "47.63236",
         "lon": "13.00187",
         "timestamp": ["1895-08-20"],
         "importance": "1"
      }
      }, 
    {
      "type": "Feature",
      "geometry": {
        "type": "Point",
        "coordinates": [12.97802, 47.55567]
      },
      "properties": {
         "id": "pmb91054",
         "title": "Königssee",
         "lat": "47.55567",
         "lon": "12.97802",
         "timestamp": ["1895-08-20", "1895-08-22"],
         "importance": "2"
      }
      }, 
    {
      "type": "Feature",
      "geometry": {
        "type": "Point",
        "coordinates": [13.64912, 47.56231]
      },
      "properties": {
         "id": "pmb39671",
         "title": "Hallstatt",
         "lat": "47.56231",
         "lon": "13.64912",
         "timestamp": ["1895-08-18"],
         "importance": "1"
      }
      }, 
    {
      "type": "Feature",
      "geometry": {
        "type": "Point",
        "coordinates": [13.618611, 47.711389]
      },
      "properties": {
         "id": "pmb1179",
         "title": "Stadttheater [Bad Ischl]",
         "lat": "47.711389",
         "lon": "13.618611",
         "timestamp": ["1895-08-01", "1895-08-02", "1895-08-03", "1895-08-04", "1895-08-05", "1895-08-06", "1895-08-09", "1895-08-15", "1895-08-16", "1895-08-17"],
         "importance": "10"
      }
      }, 
    {
      "type": "Feature",
      "geometry": {
        "type": "Point",
        "coordinates": [16.25, 47.8]
      },
      "properties": {
         "id": "pmb587",
         "title": "Wiener Neustadt",
         "lat": "47.8",
         "lon": "16.25",
         "timestamp": ["1895-08-13", "1895-08-14"],
         "importance": "2"
      }
      }, 
    {
      "type": "Feature",
      "geometry": {
        "type": "Point",
        "coordinates": [13.0391, 47.79964]
      },
      "properties": {
         "id": "pmb91270",
         "title": "Mönchsberg",
         "lat": "47.79964",
         "lon": "13.0391",
         "timestamp": ["1895-08-19", "1895-08-23"],
         "importance": "2"
      }
      }, 
    {
      "type": "Feature",
      "geometry": {
        "type": "Point",
        "coordinates": [13.060833, 47.762222]
      },
      "properties": {
         "id": "pmb31",
         "title": "Hellbrunn",
         "lat": "47.762222",
         "lon": "13.060833",
         "timestamp": ["1895-08-19", "1895-08-21"],
         "importance": "2"
      }
      }, 
    {
      "type": "Feature",
      "geometry": {
        "type": "Point",
        "coordinates": [13.03333, 47.78333]
      },
      "properties": {
         "id": "pmb91137",
         "title": "Leopoldskron",
         "lat": "47.78333",
         "lon": "13.03333",
         "timestamp": ["1895-08-21"],
         "importance": "1"
      }
      }, 
    {
      "type": "Feature",
      "geometry": {
        "type": "Point",
        "coordinates": [16.37312, 48.20122]
      },
      "properties": {
         "id": "pmb43",
         "title": "Café Imperial",
         "lat": "48.20122",
         "lon": "16.37312",
         "timestamp": ["1895-08-13"],
         "importance": "1"
      }
      }, 
    {
      "type": "Feature",
      "geometry": {
        "type": "Point",
        "coordinates": [16.3, 48.13333]
      },
      "properties": {
         "id": "pmb73",
         "title": "XXIII., Liesing",
         "lat": "48.13333",
         "lon": "16.3",
         "timestamp": ["1895-08-14"],
         "importance": "1"
      }
      }, 
    {
      "type": "Feature",
      "geometry": {
        "type": "Point",
        "coordinates": [11.571111, 48.148333]
      },
      "properties": {
         "id": "pmb511",
         "title": "Alte Pinakothek",
         "lat": "48.148333",
         "lon": "11.571111",
         "timestamp": ["1895-08-29"],
         "importance": "1"
      }
      }, 
    {
      "type": "Feature",
      "geometry": {
        "type": "Point",
        "coordinates": [11.57475, 48.14293]
      },
      "properties": {
         "id": "pmb100",
         "title": "Café Luitpold",
         "lat": "48.14293",
         "lon": "11.57475",
         "timestamp": ["1895-08-31"],
         "importance": "1"
      }
      }, 
    {
      "type": "Feature",
      "geometry": {
        "type": "Point",
        "coordinates": [11.584749, 48.143664]
      },
      "properties": {
         "id": "pmb98",
         "title": "Münchener Secession",
         "lat": "48.143664",
         "lon": "11.584749",
         "timestamp": ["1895-08-28"],
         "importance": "1"
      }
      }, 
    {
      "type": "Feature",
      "geometry": {
        "type": "Point",
        "coordinates": [11.564675, 48.142331]
      },
      "properties": {
         "id": "pmb497",
         "title": "Glaspalast",
         "lat": "48.142331",
         "lon": "11.564675",
         "timestamp": ["1895-08-30"],
         "importance": "1"
      }
      }, 
    {
      "type": "Feature",
      "geometry": {
        "type": "Point",
        "coordinates": [11.571111, 48.149722]
      },
      "properties": {
         "id": "pmb101",
         "title": "Neue Pinakothek",
         "lat": "48.149722",
         "lon": "11.571111",
         "timestamp": ["1895-08-31"],
         "importance": "1"
      }
      }, 
    {
      "type": "Feature",
      "geometry": {
        "type": "Point",
        "coordinates": [13.63333, 47.6]
      },
      "properties": {
         "id": "pmb65485",
         "title": "Steeg",
         "lat": "47.6",
         "lon": "13.63333",
         "timestamp": ["1895-08-04"],
         "importance": "1"
      }
      }, 
    {
      "type": "Feature",
      "geometry": {
        "type": "Point",
        "coordinates": [13.047256, 47.794967]
      },
      "properties": {
         "id": "pmb638",
         "title": "Festung Hohensalzburg",
         "lat": "47.794967",
         "lon": "13.047256",
         "timestamp": ["1895-08-21"],
         "importance": "1"
      }
      }, 
    {
      "type": "Feature",
      "geometry": {
        "type": "Point",
        "coordinates": [13.61429, 47.64671]
      },
      "properties": {
         "id": "pmb672",
         "title": "Bad Goisern",
         "lat": "47.64671",
         "lon": "13.61429",
         "timestamp": ["1895-08-06"],
         "importance": "1"
      }
      }, 
    {
      "type": "Feature",
      "geometry": {
        "type": "Point",
        "coordinates": [13.61926, 47.71356]
      },
      "properties": {
         "id": "pmb655",
         "title": "Hotel Kaiserkrone",
         "lat": "47.71356",
         "lon": "13.61926",
         "timestamp": ["1895-08-10"],
         "importance": "1"
      }
      }, 
    {
      "type": "Feature",
      "geometry": {
        "type": "Point",
        "coordinates": [13.65, 47.73333]
      },
      "properties": {
         "id": "pmb90795",
         "title": "Gstättenberg",
         "lat": "47.73333",
         "lon": "13.65",
         "timestamp": ["1895-08-10"],
         "importance": "1"
      }
      }, 
    {
      "type": "Feature",
      "geometry": {
        "type": "Point",
        "coordinates": [16.39469, 48.21753]
      },
      "properties": {
         "id": "pmb168273",
         "title": "Marionettentheater",
         "lat": "48.21753",
         "lon": "16.39469",
         "timestamp": ["1895-08-11"],
         "importance": "1"
      }
      }, 
    {
      "type": "Feature",
      "geometry": {
        "type": "Point",
        "coordinates": [13.045, 47.799167]
      },
      "properties": {
         "id": "pmb41187",
         "title": "Café Tomaselli",
         "lat": "47.799167",
         "lon": "13.045",
         "timestamp": ["1895-08-21"],
         "importance": "1"
      }
      }, 
    {
      "type": "Feature",
      "geometry": {
        "type": "Point",
        "coordinates": [13.045555555556, 47.796666666667]
      },
      "properties": {
         "id": "pmb190342",
         "title": "Petersfriedhof",
         "lat": "47.796666666667",
         "lon": "13.045555555556",
         "timestamp": ["1895-08-21"],
         "importance": "1"
      }
      }, 
    {
      "type": "Feature",
      "geometry": {
        "type": "Point",
        "coordinates": [13.0177540433945, 47.6381197331148]
      },
      "properties": {
         "id": "pmb199208",
         "title": "Salzbergwerk Berchtesgaden",
         "lat": "47.6381197331148",
         "lon": "13.0177540433945",
         "timestamp": ["1895-08-22"],
         "importance": "1"
      }
      }, 
    {
      "type": "Feature",
      "geometry": {
        "type": "Point",
        "coordinates": [13.045811, 47.799652]
      },
      "properties": {
         "id": "pmb199211",
         "title": "Antiquitäten Anna Swatek",
         "lat": "47.799652",
         "lon": "13.045811",
         "timestamp": ["1895-08-23"],
         "importance": "1"
      }
      }, 
    {
      "type": "Feature",
      "geometry": {
        "type": "Point",
        "coordinates": [12.882423, 47.730685]
      },
      "properties": {
         "id": "pmb1181",
         "title": "Bad Reichenhall",
         "lat": "47.730685",
         "lon": "12.882423",
         "timestamp": ["1895-08-24"],
         "importance": "1"
      }
      }, 
    {
      "type": "Feature",
      "geometry": {
        "type": "Point",
        "coordinates": [12.69333, 47.58475]
      },
      "properties": {
         "id": "pmb33929",
         "title": "Lofer",
         "lat": "47.58475",
         "lon": "12.69333",
         "timestamp": ["1895-08-24"],
         "importance": "1"
      }
      }, 
    {
      "type": "Feature",
      "geometry": {
        "type": "Point",
        "coordinates": [12.42326, 47.52332]
      },
      "properties": {
         "id": "pmb40127",
         "title": "St. Johann in Tirol",
         "lat": "47.52332",
         "lon": "12.42326",
         "timestamp": ["1895-08-24"],
         "importance": "1"
      }
      }, 
    {
      "type": "Feature",
      "geometry": {
        "type": "Point",
        "coordinates": [11.77245, 47.39173]
      },
      "properties": {
         "id": "pmb90956",
         "title": "Jenbach",
         "lat": "47.39173",
         "lon": "11.77245",
         "timestamp": ["1895-08-24", "1895-08-25"],
         "importance": "2"
      }
      }, 
    {
      "type": "Feature",
      "geometry": {
        "type": "Point",
        "coordinates": [11.70924, 47.46556]
      },
      "properties": {
         "id": "pmb90186",
         "title": "Achensee",
         "lat": "47.46556",
         "lon": "11.70924",
         "timestamp": ["1895-08-25"],
         "importance": "1"
      }
      }, 
    {
      "type": "Feature",
      "geometry": {
        "type": "Point",
        "coordinates": [11.5589, 47.76111]
      },
      "properties": {
         "id": "pmb424",
         "title": "Bad Tölz",
         "lat": "47.76111",
         "lon": "11.5589",
         "timestamp": ["1895-08-25", "1895-08-27"],
         "importance": "2"
      }
      }, 
    {
      "type": "Feature",
      "geometry": {
        "type": "Point",
        "coordinates": [11.709722222222222, 47.49888888888889]
      },
      "properties": {
         "id": "pmb199216",
         "title": "Hotel Scholastika",
         "lat": "47.49888888888889",
         "lon": "11.709722222222222",
         "timestamp": ["1895-08-25"],
         "importance": "1"
      }
      }, 
    {
      "type": "Feature",
      "geometry": {
        "type": "Point",
        "coordinates": [11.555839, 47.759957]
      },
      "properties": {
         "id": "pmb114",
         "title": "Bruckbräu",
         "lat": "47.759957",
         "lon": "11.555839",
         "timestamp": ["1895-08-26"],
         "importance": "1"
      }
      }, 
    {
      "type": "Feature",
      "geometry": {
        "type": "Point",
        "coordinates": [11.70181, 47.87663]
      },
      "properties": {
         "id": "pmb90905",
         "title": "Holzkirchen",
         "lat": "47.87663",
         "lon": "11.70181",
         "timestamp": ["1895-08-27"],
         "importance": "1"
      }
      }, 
    {
      "type": "Feature",
      "geometry": {
        "type": "Point",
        "coordinates": [11.569993, 48.143395]
      },
      "properties": {
         "id": "pmb681",
         "title": "Hotel Continental [München]",
         "lat": "48.143395",
         "lon": "11.569993",
         "timestamp": ["1895-08-27", "1895-08-28", "1895-08-29", "1895-08-30", "1895-08-31"],
         "importance": "5"
      }
      }, 
    {
      "type": "Feature",
      "geometry": {
        "type": "Point",
        "coordinates": [11.579489, 48.1468]
      },
      "properties": {
         "id": "pmb92524",
         "title": "Ludwigstraße",
         "lat": "48.1468",
         "lon": "11.579489",
         "timestamp": ["1895-08-30"],
         "importance": "1"
      }
      }, 
    {
      "type": "Feature",
      "geometry": {
        "type": "Point",
        "coordinates": [11.591944, 48.152778]
      },
      "properties": {
         "id": "pmb706",
         "title": "Englischer Garten [München]",
         "lat": "48.152778",
         "lon": "11.591944",
         "timestamp": ["1895-08-30"],
         "importance": "1"
      }
      }, 
    {
      "type": "Feature",
      "geometry": {
        "type": "Point",
        "coordinates": [11.5890607127893, 48.1352542879165]
      },
      "properties": {
         "id": "pmb199247",
         "title": "Café Isarlust",
         "lat": "48.1352542879165",
         "lon": "11.5890607127893",
         "timestamp": ["1895-08-30"],
         "importance": "1"
      }
      }, 
    {
      "type": "Feature",
      "geometry": {
        "type": "Point",
        "coordinates": [11.57078, 48.131701]
      },
      "properties": {
         "id": "pmb199250",
         "title": "Gasthaus Blumensäle",
         "lat": "48.131701",
         "lon": "11.57078",
         "timestamp": ["1895-08-31"],
         "importance": "1"
      }
      }
  ]
}