{
  "type": "FeatureCollection",
  "features": [
    {
      "type": "Feature", 
      "geometry": {
        "type": "LineString", 
        "coordinates": [
            [16.34706, 48.21126], 
            [16.361139, 48.210333], 
            [16.373056, 48.208333], 
            [16.377439, 48.208532], 
            [16.360855, 48.217017], 
            [16.35736, 48.21533]
          ]
      },
      "properties": {
        "name": "15. Oktober 1895"
      }
    },
    {
      "type": "Feature",
      "geometry": {
        "type": "Point",
        "coordinates": [
          16.373056, 48.208333
        ]
      },
      "properties": {
        "title": "Wien",
        "timestamp": ["1895-10-15"],
        "pmb": "https://pmb.acdh.oeaw.ac.at/entity//", 
        "wikipedia": "https://de.wikipedia.org/wiki/Wien"
      }
      },
    {
      "type": "Feature",
      "geometry": {
        "type": "Point",
        "coordinates": [
          16.360855, 48.217017
        ]
      },
      "properties": {
        "title": "Wasagasse 11",
        "timestamp": ["1895-10-15"],
        "pmb": "https://pmb.acdh.oeaw.ac.at/entity//"
      }
      },
    {
      "type": "Feature",
      "geometry": {
        "type": "Point",
        "coordinates": [
          16.377439, 48.208532
        ]
      },
      "properties": {
        "title": "Bäckerstraße 20",
        "timestamp": ["1895-10-15"],
        "pmb": "https://pmb.acdh.oeaw.ac.at/entity//"
      }
      },
    {
      "type": "Feature",
      "geometry": {
        "type": "Point",
        "coordinates": [
          16.34706, 48.21126
        ]
      },
      "properties": {
        "title": "VIII., Josefstadt",
        "timestamp": ["1895-10-15"],
        "pmb": "https://pmb.acdh.oeaw.ac.at/entity//", 
        "wikipedia": "https://de.wikipedia.org/wiki/Josefstadt_(Wien)"
      }
      },
    {
      "type": "Feature",
      "geometry": {
        "type": "Point",
        "coordinates": [
          16.361139, 48.210333
        ]
      },
      "properties": {
        "title": "Burgtheater",
        "timestamp": ["1895-10-15"],
        "pmb": "https://pmb.acdh.oeaw.ac.at/entity//"
      }
      },
    {
      "type": "Feature",
      "geometry": {
        "type": "Point",
        "coordinates": [
          16.35736, 48.21533
        ]
      },
      "properties": {
        "title": "Frankgasse 1",
        "timestamp": ["1895-10-15"],
        "pmb": "https://pmb.acdh.oeaw.ac.at/entity//"
      }
      }
  ]
}