{
  "type": "FeatureCollection",
  "features": [
    {
      "type": "Feature", 
      "geometry": {
        "type": "LineString", 
        "coordinates": [
            [10.727068, 59.91505], 
            [10.734349, 59.91352], 
            [10.74, 59.91305555555556], 
            [10.739572, 59.91373], 
            [10.7393, 59.9177], 
            [10.67931, 59.97795], 
            [10.667777777778, 59.963888888889], 
            [10.66824, 59.96107]
          ]
      },
      "properties": {
        "name": "25. Juli 1896"
      }
    },
    {
      "type": "Feature",
      "geometry": {
        "type": "Point",
        "coordinates": [
          10.734349, 59.91352
        ]
      },
      "properties": {
        "title": "Tivoli [Oslo]",
        "timestamp": ["1896-07-25"],
        "pmb": "https://pmb.acdh.oeaw.ac.at/entity//", 
        "wikipedia": "https://de.wikipedia.org/wiki/Tivoli_(Oslo)"
      }
      },
    {
      "type": "Feature",
      "geometry": {
        "type": "Point",
        "coordinates": [
          10.74, 59.91305555555556
        ]
      },
      "properties": {
        "title": "Stortinget",
        "timestamp": ["1896-07-25"],
        "pmb": "https://pmb.acdh.oeaw.ac.at/entity//", 
        "wikipedia": "https://de.wikipedia.org/wiki/Storting"
      }
      },
    {
      "type": "Feature",
      "geometry": {
        "type": "Point",
        "coordinates": [
          10.7393, 59.9177
        ]
      },
      "properties": {
        "title": "Oslo Kunstforening",
        "timestamp": ["1896-07-25"],
        "pmb": "https://pmb.acdh.oeaw.ac.at/entity//"
      }
      },
    {
      "type": "Feature",
      "geometry": {
        "type": "Point",
        "coordinates": [
          10.727068, 59.91505
        ]
      },
      "properties": {
        "title": "[Wohnhaus von Henrik Ibsen]",
        "timestamp": ["1896-07-25"],
        "pmb": "https://pmb.acdh.oeaw.ac.at/entity//", 
        "wikipedia": "https://de.wikipedia.org/wiki/Ibsen-Museum"
      }
      },
    {
      "type": "Feature",
      "geometry": {
        "type": "Point",
        "coordinates": [
          10.667777777778, 59.963888888889
        ]
      },
      "properties": {
        "title": "Holmenkollbakken",
        "timestamp": ["1896-07-25"],
        "pmb": "https://pmb.acdh.oeaw.ac.at/entity//", 
        "wikipedia": "https://de.wikipedia.org/wiki/Holmenkollbakken"
      }
      },
    {
      "type": "Feature",
      "geometry": {
        "type": "Point",
        "coordinates": [
          10.739572, 59.91373
        ]
      },
      "properties": {
        "title": "Grand Hotel [Oslo]",
        "timestamp": ["1896-07-25"],
        "pmb": "https://pmb.acdh.oeaw.ac.at/entity//", 
        "wikipedia": "https://de.wikipedia.org/wiki/Grand_Hotel_(Oslo)"
      }
      },
    {
      "type": "Feature",
      "geometry": {
        "type": "Point",
        "coordinates": [
          10.66824, 59.96107
        ]
      },
      "properties": {
        "title": "Holmenkollen",
        "timestamp": ["1896-07-25"],
        "pmb": "https://pmb.acdh.oeaw.ac.at/entity//"
      }
      },
    {
      "type": "Feature",
      "geometry": {
        "type": "Point",
        "coordinates": [
          10.67931, 59.97795
        ]
      },
      "properties": {
        "title": "Frognerseteren",
        "timestamp": ["1896-07-25"],
        "pmb": "https://pmb.acdh.oeaw.ac.at/entity//"
      }
      }
  ]
}