{
  "type": "FeatureCollection",
  "features": [
    {
      "type": "Feature",
      "geometry": {
        "type": "Point",
        "coordinates": [16.373056, 48.208333]
      },
      "properties": {
         "id": "pmb50",
         "title": "Wien",
         "lat": "48.208333",
         "lon": "16.373056",
         "timestamp": ["1896-07-01", "1896-07-02", "1896-07-03"],
         "importance": "3"
      }
      }, 
    {
      "type": "Feature",
      "geometry": {
        "type": "Point",
        "coordinates": [16.3734013, 48.2098832]
      },
      "properties": {
         "id": "pmb42749",
         "title": "Stefanskeller",
         "lat": "48.2098832",
         "lon": "16.3734013",
         "timestamp": ["1896-07-01"],
         "importance": "1"
      }
      }, 
    {
      "type": "Feature",
      "geometry": {
        "type": "Point",
        "coordinates": [16.401694, 48.213944]
      },
      "properties": {
         "id": "pmb47",
         "title": "Schweizerhaus",
         "lat": "48.213944",
         "lon": "16.401694",
         "timestamp": ["1896-07-02"],
         "importance": "1"
      }
      }, 
    {
      "type": "Feature",
      "geometry": {
        "type": "Point",
        "coordinates": [10.397, 63.426857]
      },
      "properties": {
         "id": "pmb42558",
         "title": "Nidarosdom",
         "lat": "63.426857",
         "lon": "10.397",
         "timestamp": ["1896-07-23"],
         "importance": "1"
      }
      }, 
    {
      "type": "Feature",
      "geometry": {
        "type": "Point",
        "coordinates": [10.008484, 53.553694]
      },
      "properties": {
         "id": "pmb43368",
         "title": "Hotel zum Kronprinzen [Hamburg]",
         "lat": "53.553694",
         "lon": "10.008484",
         "timestamp": ["1896-07-04", "1896-07-05", "1896-07-06", "1896-07-07"],
         "importance": "4"
      }
      }, 
    {
      "type": "Feature",
      "geometry": {
        "type": "Point",
        "coordinates": [9.7972, 53.5652]
      },
      "properties": {
         "id": "pmb1226",
         "title": "Blankenese",
         "lat": "53.5652",
         "lon": "9.7972",
         "timestamp": ["1896-07-05"],
         "importance": "1"
      }
      }, 
    {
      "type": "Feature",
      "geometry": {
        "type": "Point",
        "coordinates": [9.98277778, 53.54]
      },
      "properties": {
         "id": "pmb199707",
         "title": "Hamburger Hafen",
         "lat": "53.54",
         "lon": "9.98277778",
         "timestamp": ["1896-07-05"],
         "importance": "1"
      }
      }, 
    {
      "type": "Feature",
      "geometry": {
        "type": "Point",
        "coordinates": [9.983679, 53.544509]
      },
      "properties": {
         "id": "pmb52304",
         "title": "Alster",
         "lat": "53.544509",
         "lon": "9.983679",
         "timestamp": ["1896-07-06"],
         "importance": "1"
      }
      }, 
    {
      "type": "Feature",
      "geometry": {
        "type": "Point",
        "coordinates": [9.8262, 53.5725]
      },
      "properties": {
         "id": "pmb1259",
         "title": "Altona",
         "lat": "53.5725",
         "lon": "9.8262",
         "timestamp": ["1896-07-06"],
         "importance": "1"
      }
      }, 
    {
      "type": "Feature",
      "geometry": {
        "type": "Point",
        "coordinates": [9.964, 53.557]
      },
      "properties": {
         "id": "pmb91806",
         "title": "St. Pauli",
         "lat": "53.557",
         "lon": "9.964",
         "timestamp": ["1896-07-06"],
         "importance": "1"
      }
      }, 
    {
      "type": "Feature",
      "geometry": {
        "type": "Point",
        "coordinates": [10.68729, 53.86893]
      },
      "properties": {
         "id": "pmb884",
         "title": "Lübeck",
         "lat": "53.86893",
         "lon": "10.68729",
         "timestamp": ["1896-07-07"],
         "importance": "1"
      }
      }, 
    {
      "type": "Feature",
      "geometry": {
        "type": "Point",
        "coordinates": [5.73126389, 58.97197]
      },
      "properties": {
         "id": "pmb199712",
         "title": "Valbergtårnet",
         "lat": "58.97197",
         "lon": "5.73126389",
         "timestamp": ["1896-07-09"],
         "importance": "1"
      }
      }, 
    {
      "type": "Feature",
      "geometry": {
        "type": "Point",
        "coordinates": [5.733162, 58.969787]
      },
      "properties": {
         "id": "pmb199715",
         "title": "Stavanger Domkirke",
         "lat": "58.969787",
         "lon": "5.733162",
         "timestamp": ["1896-07-09"],
         "importance": "1"
      }
      }, 
    {
      "type": "Feature",
      "geometry": {
        "type": "Point",
        "coordinates": [6.5851666666667, 59.947666666667]
      },
      "properties": {
         "id": "pmb199718",
         "title": "Låtefossen",
         "lat": "59.947666666667",
         "lon": "6.5851666666667",
         "timestamp": ["1896-07-10"],
         "importance": "1"
      }
      }, 
    {
      "type": "Feature",
      "geometry": {
        "type": "Point",
        "coordinates": [6.41474, 60.62869]
      },
      "properties": {
         "id": "pmb92029",
         "title": "Voss",
         "lat": "60.62869",
         "lon": "6.41474",
         "timestamp": ["1896-07-11", "1896-07-12"],
         "importance": "2"
      }
      }, 
    {
      "type": "Feature",
      "geometry": {
        "type": "Point",
        "coordinates": [5.326, 60.3959]
      },
      "properties": {
         "id": "pmb199721",
         "title": "Det Hanseatiske Museum og Schøtstuene",
         "lat": "60.3959",
         "lon": "5.326",
         "timestamp": ["1896-07-11"],
         "importance": "1"
      }
      }, 
    {
      "type": "Feature",
      "geometry": {
        "type": "Point",
        "coordinates": [10.01534, 53.57532]
      },
      "properties": {
         "id": "pmb506",
         "title": "Hamburg",
         "lat": "53.57532",
         "lon": "10.01534",
         "timestamp": ["1896-07-11"],
         "importance": "1"
      }
      }, 
    {
      "type": "Feature",
      "geometry": {
        "type": "Point",
        "coordinates": [6.6799, 60.83626]
      },
      "properties": {
         "id": "pmb91820",
         "title": "Stalheim",
         "lat": "60.83626",
         "lon": "6.6799",
         "timestamp": ["1896-07-12"],
         "importance": "1"
      }
      }, 
    {
      "type": "Feature",
      "geometry": {
        "type": "Point",
        "coordinates": [6.83795, 60.87773]
      },
      "properties": {
         "id": "pmb90799",
         "title": "Gudvangen",
         "lat": "60.87773",
         "lon": "6.83795",
         "timestamp": ["1896-07-12"],
         "importance": "1"
      }
      }, 
    {
      "type": "Feature",
      "geometry": {
        "type": "Point",
        "coordinates": [7.02868, 60.98268]
      },
      "properties": {
         "id": "pmb91322",
         "title": "Nærøyfjord",
         "lat": "60.98268",
         "lon": "7.02868",
         "timestamp": ["1896-07-12"],
         "importance": "1"
      }
      }, 
    {
      "type": "Feature",
      "geometry": {
        "type": "Point",
        "coordinates": [13.91097, 54.24364]
      },
      "properties": {
         "id": "pmb91397",
         "title": "Oie",
         "lat": "54.24364",
         "lon": "13.91097",
         "timestamp": ["1896-07-13"],
         "importance": "1"
      }
      }, 
    {
      "type": "Feature",
      "geometry": {
        "type": "Point",
        "coordinates": [6.73333, 62.18333]
      },
      "properties": {
         "id": "pmb91360",
         "title": "Norangsdalen",
         "lat": "62.18333",
         "lon": "6.73333",
         "timestamp": ["1896-07-13"],
         "importance": "1"
      }
      }, 
    {
      "type": "Feature",
      "geometry": {
        "type": "Point",
        "coordinates": [6.86769, 62.08549]
      },
      "properties": {
         "id": "pmb90859",
         "title": "Hellesylt",
         "lat": "62.08549",
         "lon": "6.86769",
         "timestamp": ["1896-07-13"],
         "importance": "1"
      }
      }, 
    {
      "type": "Feature",
      "geometry": {
        "type": "Point",
        "coordinates": [7.21667, 62.1]
      },
      "properties": {
         "id": "pmb91235",
         "title": "Maråk",
         "lat": "62.1",
         "lon": "7.21667",
         "timestamp": ["1896-07-13"],
         "importance": "1"
      }
      }, 
    {
      "type": "Feature",
      "geometry": {
        "type": "Point",
        "coordinates": [6.98333, 62.11667]
      },
      "properties": {
         "id": "pmb90697",
         "title": "Geirangerfjord",
         "lat": "62.11667",
         "lon": "6.98333",
         "timestamp": ["1896-07-13"],
         "importance": "1"
      }
      }, 
    {
      "type": "Feature",
      "geometry": {
        "type": "Point",
        "coordinates": [8.42908, 62.89496]
      },
      "properties": {
         "id": "pmb91318",
         "title": "Nes",
         "lat": "62.89496",
         "lon": "8.42908",
         "timestamp": ["1896-07-14"],
         "importance": "1"
      }
      }, 
    {
      "type": "Feature",
      "geometry": {
        "type": "Point",
        "coordinates": [7.80423, 62.72551]
      },
      "properties": {
         "id": "pmb91612",
         "title": "Romsdal",
         "lat": "62.72551",
         "lon": "7.80423",
         "timestamp": ["1896-07-14"],
         "importance": "1"
      }
      }, 
    {
      "type": "Feature",
      "geometry": {
        "type": "Point",
        "coordinates": [7.15912, 62.73752]
      },
      "properties": {
         "id": "pmb91263",
         "title": "Molde",
         "lat": "62.73752",
         "lon": "7.15912",
         "timestamp": ["1896-07-14"],
         "importance": "1"
      }
      }, 
    {
      "type": "Feature",
      "geometry": {
        "type": "Point",
        "coordinates": [7.72795, 63.11045]
      },
      "properties": {
         "id": "pmb91075",
         "title": "Kristiansund",
         "lat": "63.11045",
         "lon": "7.72795",
         "timestamp": ["1896-07-14"],
         "importance": "1"
      }
      }, 
    {
      "type": "Feature",
      "geometry": {
        "type": "Point",
        "coordinates": [10.3988, 63.432]
      },
      "properties": {
         "id": "pmb199726",
         "title": "Britannia Hotel",
         "lat": "63.432",
         "lon": "10.3988",
         "timestamp": ["1896-07-15"],
         "importance": "1"
      }
      }, 
    {
      "type": "Feature",
      "geometry": {
        "type": "Point",
        "coordinates": [10.39188, 63.4352]
      },
      "properties": {
         "id": "pmb199729",
         "title": "Trondheim havn",
         "lat": "63.4352",
         "lon": "10.39188",
         "timestamp": ["1896-07-15"],
         "importance": "1"
      }
      }, 
    {
      "type": "Feature",
      "geometry": {
        "type": "Point",
        "coordinates": [10.0275, 63.94082]
      },
      "properties": {
         "id": "pmb91916",
         "title": "Torghatten",
         "lat": "63.94082",
         "lon": "10.0275",
         "timestamp": ["1896-07-16"],
         "importance": "1"
      }
      }, 
    {
      "type": "Feature",
      "geometry": {
        "type": "Point",
        "coordinates": [13.93925, 66.65895]
      },
      "properties": {
         "id": "pmb90141",
         "title": "Svartisen",
         "lat": "66.65895",
         "lon": "13.93925",
         "timestamp": ["1896-07-16"],
         "importance": "1"
      }
      }, 
    {
      "type": "Feature",
      "geometry": {
        "type": "Point",
        "coordinates": [16.5622, 68.822]
      },
      "properties": {
         "id": "pmb199732",
         "title": "Kirche von Trondenes",
         "lat": "68.822",
         "lon": "16.5622",
         "timestamp": ["1896-07-17"],
         "importance": "1"
      }
      }, 
    {
      "type": "Feature",
      "geometry": {
        "type": "Point",
        "coordinates": [12.79496, 68.20483]
      },
      "properties": {
         "id": "pmb91161",
         "title": "Lofoten",
         "lat": "68.20483",
         "lon": "12.79496",
         "timestamp": ["1896-07-17"],
         "importance": "1"
      }
      }, 
    {
      "type": "Feature",
      "geometry": {
        "type": "Point",
        "coordinates": [18.95508, 69.6489]
      },
      "properties": {
         "id": "pmb42542",
         "title": "Tromsø",
         "lat": "69.6489",
         "lon": "18.95508",
         "timestamp": ["1896-07-18"],
         "importance": "1"
      }
      }, 
    {
      "type": "Feature",
      "geometry": {
        "type": "Point",
        "coordinates": [23.68092, 70.66313]
      },
      "properties": {
         "id": "pmb90831",
         "title": "Hammerfest",
         "lat": "70.66313",
         "lon": "23.68092",
         "timestamp": ["1896-07-19"],
         "importance": "1"
      }
      }, 
    {
      "type": "Feature",
      "geometry": {
        "type": "Point",
        "coordinates": [25.784444, 71.1725]
      },
      "properties": {
         "id": "pmb41072",
         "title": "Nordkap",
         "lat": "71.1725",
         "lon": "25.784444",
         "timestamp": ["1896-07-19"],
         "importance": "1"
      }
      }, 
    {
      "type": "Feature",
      "geometry": {
        "type": "Point",
        "coordinates": [25.33659, 71.13997]
      },
      "properties": {
         "id": "pmb91822",
         "title": "Gjesværstappan",
         "lat": "71.13997",
         "lon": "25.33659",
         "timestamp": ["1896-07-19"],
         "importance": "1"
      }
      }, 
    {
      "type": "Feature",
      "geometry": {
        "type": "Point",
        "coordinates": [11.28901, 64.36957]
      },
      "properties": {
         "id": "pmb91181",
         "title": "Lyngenfjorden",
         "lat": "64.36957",
         "lon": "11.28901",
         "timestamp": ["1896-07-20"],
         "importance": "1"
      }
      }, 
    {
      "type": "Feature",
      "geometry": {
        "type": "Point",
        "coordinates": [11.49572, 64.46624]
      },
      "properties": {
         "id": "pmb91320",
         "title": "Namsos",
         "lat": "64.46624",
         "lon": "11.49572",
         "timestamp": ["1896-07-22"],
         "importance": "1"
      }
      }, 
    {
      "type": "Feature",
      "geometry": {
        "type": "Point",
        "coordinates": [10.398888888889, 63.436388888889]
      },
      "properties": {
         "id": "pmb199736",
         "title": "Trondheim sentralstasjon",
         "lat": "63.436388888889",
         "lon": "10.398888888889",
         "timestamp": ["1896-07-23"],
         "importance": "1"
      }
      }, 
    {
      "type": "Feature",
      "geometry": {
        "type": "Point",
        "coordinates": [10.734349, 59.91352]
      },
      "properties": {
         "id": "pmb187310",
         "title": "Tivoli [Oslo]",
         "lat": "59.91352",
         "lon": "10.734349",
         "timestamp": ["1896-07-24", "1896-07-25"],
         "importance": "2"
      }
      }, 
    {
      "type": "Feature",
      "geometry": {
        "type": "Point",
        "coordinates": [10.739572, 59.91373]
      },
      "properties": {
         "id": "pmb199739",
         "title": "Grand Hotel [Oslo]",
         "lat": "59.91373",
         "lon": "10.739572",
         "timestamp": ["1896-07-24", "1896-07-25", "1896-07-26"],
         "importance": "3"
      }
      }, 
    {
      "type": "Feature",
      "geometry": {
        "type": "Point",
        "coordinates": [10.74703, 59.92369]
      },
      "properties": {
         "id": "pmb199741",
         "title": "Gamle Aker kirke",
         "lat": "59.92369",
         "lon": "10.74703",
         "timestamp": ["1896-07-24"],
         "importance": "1"
      }
      }, 
    {
      "type": "Feature",
      "geometry": {
        "type": "Point",
        "coordinates": [10.746517, 59.901723]
      },
      "properties": {
         "id": "pmb199744",
         "title": "Oslo havn",
         "lat": "59.901723",
         "lon": "10.746517",
         "timestamp": ["1896-07-24", "1896-07-26"],
         "importance": "2"
      }
      }, 
    {
      "type": "Feature",
      "geometry": {
        "type": "Point",
        "coordinates": [10.74772222, 59.91222222]
      },
      "properties": {
         "id": "pmb199747",
         "title": "Basarene",
         "lat": "59.91222222",
         "lon": "10.74772222",
         "timestamp": ["1896-07-24"],
         "importance": "1"
      }
      }, 
    {
      "type": "Feature",
      "geometry": {
        "type": "Point",
        "coordinates": [10.74, 59.91305555555556]
      },
      "properties": {
         "id": "pmb199750",
         "title": "Stortinget",
         "lat": "59.91305555555556",
         "lon": "10.74",
         "timestamp": ["1896-07-25"],
         "importance": "1"
      }
      }, 
    {
      "type": "Feature",
      "geometry": {
        "type": "Point",
        "coordinates": [10.7393, 59.9177]
      },
      "properties": {
         "id": "pmb199753",
         "title": "Oslo Kunstforening",
         "lat": "59.9177",
         "lon": "10.7393",
         "timestamp": ["1896-07-25"],
         "importance": "1"
      }
      }, 
    {
      "type": "Feature",
      "geometry": {
        "type": "Point",
        "coordinates": [10.727068, 59.91505]
      },
      "properties": {
         "id": "pmb199756",
         "title": "[Wohnhaus von Henrik Ibsen]",
         "lat": "59.91505",
         "lon": "10.727068",
         "timestamp": ["1896-07-25", "1896-07-26"],
         "importance": "2"
      }
      }, 
    {
      "type": "Feature",
      "geometry": {
        "type": "Point",
        "coordinates": [10.667777777778, 59.963888888889]
      },
      "properties": {
         "id": "pmb199760",
         "title": "Holmenkollbakken",
         "lat": "59.963888888889",
         "lon": "10.667777777778",
         "timestamp": ["1896-07-25"],
         "importance": "1"
      }
      }, 
    {
      "type": "Feature",
      "geometry": {
        "type": "Point",
        "coordinates": [10.66824, 59.96107]
      },
      "properties": {
         "id": "pmb90903",
         "title": "Holmenkollen",
         "lat": "59.96107",
         "lon": "10.66824",
         "timestamp": ["1896-07-25"],
         "importance": "1"
      }
      }, 
    {
      "type": "Feature",
      "geometry": {
        "type": "Point",
        "coordinates": [10.67931, 59.97795]
      },
      "properties": {
         "id": "pmb90663",
         "title": "Frognerseteren",
         "lat": "59.97795",
         "lon": "10.67931",
         "timestamp": ["1896-07-25"],
         "importance": "1"
      }
      }, 
    {
      "type": "Feature",
      "geometry": {
        "type": "Point",
        "coordinates": [10.727258, 59.914954]
      },
      "properties": {
         "id": "pmb92148",
         "title": "Arbiensgate",
         "lat": "59.914954",
         "lon": "10.727258",
         "timestamp": ["1896-07-26"],
         "importance": "1"
      }
      }, 
    {
      "type": "Feature",
      "geometry": {
        "type": "Point",
        "coordinates": [18.075556, 59.329722]
      },
      "properties": {
         "id": "pmb40705",
         "title": "Grand Hotel Stockholm",
         "lat": "59.329722",
         "lon": "18.075556",
         "timestamp": ["1896-07-27", "1896-07-28", "1896-07-29", "1896-07-30", "1896-07-31"],
         "importance": "5"
      }
      }, 
    {
      "type": "Feature",
      "geometry": {
        "type": "Point",
        "coordinates": [18.06430278, 59.32093333]
      },
      "properties": {
         "id": "pmb199766",
         "title": "Mariahissen",
         "lat": "59.32093333",
         "lon": "18.06430278",
         "timestamp": ["1896-07-27"],
         "importance": "1"
      }
      }, 
    {
      "type": "Feature",
      "geometry": {
        "type": "Point",
        "coordinates": [18.07277778, 59.32]
      },
      "properties": {
         "id": "pmb199769",
         "title": "Katarinahissen",
         "lat": "59.32",
         "lon": "18.07277778",
         "timestamp": ["1896-07-27"],
         "importance": "1"
      }
      }, 
    {
      "type": "Feature",
      "geometry": {
        "type": "Point",
        "coordinates": [18.101, 59.32445]
      },
      "properties": {
         "id": "pmb199772",
         "title": "Skansen",
         "lat": "59.32445",
         "lon": "18.101",
         "timestamp": ["1896-07-27"],
         "importance": "1"
      }
      }, 
    {
      "type": "Feature",
      "geometry": {
        "type": "Point",
        "coordinates": [18.0996, 59.3257]
      },
      "properties": {
         "id": "pmb199775",
         "title": "Hasselbacken",
         "lat": "59.3257",
         "lon": "18.0996",
         "timestamp": ["1896-07-27", "1896-07-30"],
         "importance": "2"
      }
      }, 
    {
      "type": "Feature",
      "geometry": {
        "type": "Point",
        "coordinates": [18.06273, 59.3254]
      },
      "properties": {
         "id": "pmb91586",
         "title": "Riddarholmen",
         "lat": "59.3254",
         "lon": "18.06273",
         "timestamp": ["1896-07-27"],
         "importance": "1"
      }
      }, 
    {
      "type": "Feature",
      "geometry": {
        "type": "Point",
        "coordinates": [18.10616, 59.32548]
      },
      "properties": {
         "id": "pmb90529",
         "title": "Djurgården",
         "lat": "59.32548",
         "lon": "18.10616",
         "timestamp": ["1896-07-27", "1896-07-30"],
         "importance": "2"
      }
      }, 
    {
      "type": "Feature",
      "geometry": {
        "type": "Point",
        "coordinates": [18.077777777778, 59.328611111111]
      },
      "properties": {
         "id": "pmb199778",
         "title": "Nationalmuseum",
         "lat": "59.328611111111",
         "lon": "18.077777777778",
         "timestamp": ["1896-07-28", "1896-07-31"],
         "importance": "2"
      }
      }, 
    {
      "type": "Feature",
      "geometry": {
        "type": "Point",
        "coordinates": [18.064722222222, 59.324722222222]
      },
      "properties": {
         "id": "pmb199781",
         "title": "Riddarholmskyrkan",
         "lat": "59.324722222222",
         "lon": "18.064722222222",
         "timestamp": ["1896-07-28"],
         "importance": "1"
      }
      }, 
    {
      "type": "Feature",
      "geometry": {
        "type": "Point",
        "coordinates": [18.07138888888889, 59.33]
      },
      "properties": {
         "id": "pmb186914",
         "title": "Operakällaren",
         "lat": "59.33",
         "lon": "18.07138888888889",
         "timestamp": ["1896-07-28", "1896-07-29"],
         "importance": "2"
      }
      }, 
    {
      "type": "Feature",
      "geometry": {
        "type": "Point",
        "coordinates": [18.3, 59.28333]
      },
      "properties": {
         "id": "pmb62297",
         "title": "Saltsjöbaden",
         "lat": "59.28333",
         "lon": "18.3",
         "timestamp": ["1896-07-28"],
         "importance": "1"
      }
      }, 
    {
      "type": "Feature",
      "geometry": {
        "type": "Point",
        "coordinates": [18.07443, 59.31796]
      },
      "properties": {
         "id": "pmb91302",
         "title": "Mosebacke torg",
         "lat": "59.31796",
         "lon": "18.07443",
         "timestamp": ["1896-07-28"],
         "importance": "1"
      }
      }, 
    {
      "type": "Feature",
      "geometry": {
        "type": "Point",
        "coordinates": [18.070584, 59.328355]
      },
      "properties": {
         "id": "pmb92559",
         "title": "Strömparterre",
         "lat": "59.328355",
         "lon": "18.070584",
         "timestamp": ["1896-07-28"],
         "importance": "1"
      }
      }, 
    {
      "type": "Feature",
      "geometry": {
        "type": "Point",
        "coordinates": [17.631111111111, 59.855]
      },
      "properties": {
         "id": "pmb186918",
         "title": "Carolina Rediviva",
         "lat": "59.855",
         "lon": "17.631111111111",
         "timestamp": ["1896-07-29"],
         "importance": "1"
      }
      }, 
    {
      "type": "Feature",
      "geometry": {
        "type": "Point",
        "coordinates": [17.633333333333, 59.858055555556]
      },
      "properties": {
         "id": "pmb186922",
         "title": "Dom St. Erik",
         "lat": "59.858055555556",
         "lon": "17.633333333333",
         "timestamp": ["1896-07-29"],
         "importance": "1"
      }
      }, 
    {
      "type": "Feature",
      "geometry": {
        "type": "Point",
        "coordinates": [18.10166667, 59.32527778]
      },
      "properties": {
         "id": "pmb190258",
         "title": "Tivoli [Stockholm]",
         "lat": "59.32527778",
         "lon": "18.10166667",
         "timestamp": ["1896-07-30"],
         "importance": "1"
      }
      }, 
    {
      "type": "Feature",
      "geometry": {
        "type": "Point",
        "coordinates": [17.8878, 59.32513]
      },
      "properties": {
         "id": "pmb25933",
         "title": "Drottningholm",
         "lat": "59.32513",
         "lon": "17.8878",
         "timestamp": ["1896-07-30"],
         "importance": "1"
      }
      }, 
    {
      "type": "Feature",
      "geometry": {
        "type": "Point",
        "coordinates": [18.08435, 59.32544]
      },
      "properties": {
         "id": "pmb91764",
         "title": "Skeppsholmen",
         "lat": "59.32544",
         "lon": "18.08435",
         "timestamp": ["1896-07-30"],
         "importance": "1"
      }
      }
  ]
}