{
  "type": "FeatureCollection",
  "features": [
    {
      "type": "Feature",
      "geometry": {
        "type": "Point",
        "coordinates": [16.373056, 48.208333]
      },
      "properties": {
         "id": "pmb50",
         "title": "Wien",
         "lat": "48.208333",
         "lon": "16.373056",
         "timestamp": ["1896-12-01", "1896-12-02", "1896-12-03", "1896-12-04", "1896-12-05", "1896-12-06", "1896-12-07", "1896-12-08", "1896-12-09", "1896-12-10", "1896-12-11", "1896-12-12", "1896-12-13", "1896-12-14", "1896-12-15", "1896-12-16", "1896-12-17", "1896-12-18", "1896-12-19", "1896-12-20", "1896-12-21", "1896-12-22", "1896-12-23", "1896-12-24", "1896-12-25", "1896-12-26", "1896-12-27", "1896-12-28", "1896-12-29", "1896-12-30", "1896-12-31"],
         "importance": "31"
      }
      }, 
    {
      "type": "Feature",
      "geometry": {
        "type": "Point",
        "coordinates": [16.372564182283, 48.201265597319]
      },
      "properties": {
         "id": "pmb516",
         "title": "Musikverein",
         "lat": "48.201265597319",
         "lon": "16.372564182283",
         "timestamp": ["1896-12-15"],
         "importance": "1"
      }
      }, 
    {
      "type": "Feature",
      "geometry": {
        "type": "Point",
        "coordinates": [16.384444, 48.215]
      },
      "properties": {
         "id": "pmb118",
         "title": "Carl-Theater",
         "lat": "48.215",
         "lon": "16.384444",
         "timestamp": ["1896-12-05", "1896-12-21"],
         "importance": "2"
      }
      }, 
    {
      "type": "Feature",
      "geometry": {
        "type": "Point",
        "coordinates": [16.366111, 48.209167]
      },
      "properties": {
         "id": "pmb4",
         "title": "Bösendorfer-Saal",
         "lat": "48.209167",
         "lon": "16.366111",
         "timestamp": ["1896-12-11", "1896-12-18"],
         "importance": "2"
      }
      }, 
    {
      "type": "Feature",
      "geometry": {
        "type": "Point",
        "coordinates": [16.361139, 48.210333]
      },
      "properties": {
         "id": "pmb14",
         "title": "Burgtheater",
         "lat": "48.210333",
         "lon": "16.361139",
         "timestamp": ["1896-12-07"],
         "importance": "1"
      }
      }, 
    {
      "type": "Feature",
      "geometry": {
        "type": "Point",
        "coordinates": [16.24801, 48.08509]
      },
      "properties": {
         "id": "pmb44413",
         "title": "Brühl",
         "lat": "48.08509",
         "lon": "16.24801",
         "timestamp": ["1896-12-25", "1896-12-30"],
         "importance": "2"
      }
      }, 
    {
      "type": "Feature",
      "geometry": {
        "type": "Point",
        "coordinates": [16.3538456, 48.2134031]
      },
      "properties": {
         "id": "pmb44",
         "title": "Riedhof",
         "lat": "48.2134031",
         "lon": "16.3538456",
         "timestamp": ["1896-12-22"],
         "importance": "1"
      }
      }, 
    {
      "type": "Feature",
      "geometry": {
        "type": "Point",
        "coordinates": [16.371667, 48.200556]
      },
      "properties": {
         "id": "pmb21",
         "title": "Künstlerhaus",
         "lat": "48.200556",
         "lon": "16.371667",
         "timestamp": ["1896-12-19"],
         "importance": "1"
      }
      }, 
    {
      "type": "Feature",
      "geometry": {
        "type": "Point",
        "coordinates": [16.363548, 48.216542]
      },
      "properties": {
         "id": "pmb199530",
         "title": "Kolingasse 13",
         "lat": "48.216542",
         "lon": "16.363548",
         "timestamp": ["1896-12-10"],
         "importance": "1"
      }
      }, 
    {
      "type": "Feature",
      "geometry": {
        "type": "Point",
        "coordinates": [16.362245, 48.21079]
      },
      "properties": {
         "id": "pmb199958",
         "title": "Löwelstraße 14",
         "lat": "48.21079",
         "lon": "16.362245",
         "timestamp": ["1896-12-02", "1896-12-12", "1896-12-17"],
         "importance": "3"
      }
      }, 
    {
      "type": "Feature",
      "geometry": {
        "type": "Point",
        "coordinates": [16.362803, 48.215589]
      },
      "properties": {
         "id": "pmb207250",
         "title": "Wasagasse 4",
         "lat": "48.215589",
         "lon": "16.362803",
         "timestamp": ["1896-12-27"],
         "importance": "1"
      }
      }, 
    {
      "type": "Feature",
      "geometry": {
        "type": "Point",
        "coordinates": [16.3566, 48.205142]
      },
      "properties": {
         "id": "pmb20",
         "title": "Volkstheater",
         "lat": "48.205142",
         "lon": "16.3566",
         "timestamp": ["1896-12-23"],
         "importance": "1"
      }
      }, 
    {
      "type": "Feature",
      "geometry": {
        "type": "Point",
        "coordinates": [16.36028, 48.217575]
      },
      "properties": {
         "id": "pmb34106",
         "title": "Zum silbernen Brunnen",
         "lat": "48.217575",
         "lon": "16.36028",
         "timestamp": ["1896-12-09"],
         "importance": "1"
      }
      }, 
    {
      "type": "Feature",
      "geometry": {
        "type": "Point",
        "coordinates": [16.356411, 48.215333]
      },
      "properties": {
         "id": "pmb192737",
         "title": "Garnisongasse 3",
         "lat": "48.215333",
         "lon": "16.356411",
         "timestamp": ["1896-12-20"],
         "importance": "1"
      }
      }, 
    {
      "type": "Feature",
      "geometry": {
        "type": "Point",
        "coordinates": [16.261108, 48.081286]
      },
      "properties": {
         "id": "pmb625",
         "title": "Zum goldenen Stern",
         "lat": "48.081286",
         "lon": "16.261108",
         "timestamp": ["1896-12-25"],
         "importance": "1"
      }
      }, 
    {
      "type": "Feature",
      "geometry": {
        "type": "Point",
        "coordinates": [16.368902, 48.20539]
      },
      "properties": {
         "id": "pmb192966",
         "title": "Lobkowitzplatz 1",
         "lat": "48.20539",
         "lon": "16.368902",
         "timestamp": ["1896-12-24"],
         "importance": "1"
      }
      }, 
    {
      "type": "Feature",
      "geometry": {
        "type": "Point",
        "coordinates": [16.35736, 48.21533]
      },
      "properties": {
         "id": "pmb168934",
         "title": "Frankgasse 1",
         "lat": "48.21533",
         "lon": "16.35736",
         "timestamp": ["1896-12-01", "1896-12-02", "1896-12-03", "1896-12-04", "1896-12-05", "1896-12-06", "1896-12-07", "1896-12-08", "1896-12-09", "1896-12-10", "1896-12-11", "1896-12-12", "1896-12-13", "1896-12-14", "1896-12-15", "1896-12-16", "1896-12-17", "1896-12-18", "1896-12-19", "1896-12-20", "1896-12-21", "1896-12-22", "1896-12-23", "1896-12-24", "1896-12-25", "1896-12-26", "1896-12-27", "1896-12-28", "1896-12-29", "1896-12-30", "1896-12-31"],
         "importance": "31"
      }
      }, 
    {
      "type": "Feature",
      "geometry": {
        "type": "Point",
        "coordinates": [16.339722, 48.192222]
      },
      "properties": {
         "id": "pmb77",
         "title": "Raimund-Theater",
         "lat": "48.192222",
         "lon": "16.339722",
         "timestamp": ["1896-12-19"],
         "importance": "1"
      }
      }, 
    {
      "type": "Feature",
      "geometry": {
        "type": "Point",
        "coordinates": [16.383445, 48.201636]
      },
      "properties": {
         "id": "pmb199403",
         "title": "Reisnerstraße 13",
         "lat": "48.201636",
         "lon": "16.383445",
         "timestamp": ["1896-12-30"],
         "importance": "1"
      }
      }, 
    {
      "type": "Feature",
      "geometry": {
        "type": "Point",
        "coordinates": [16.379094, 48.207431]
      },
      "properties": {
         "id": "pmb199550",
         "title": "Stubenbastei 1",
         "lat": "48.207431",
         "lon": "16.379094",
         "timestamp": ["1896-12-01"],
         "importance": "1"
      }
      }, 
    {
      "type": "Feature",
      "geometry": {
        "type": "Point",
        "coordinates": [16.363787, 48.21202]
      },
      "properties": {
         "id": "pmb194828",
         "title": "Teinfaltstraße 2",
         "lat": "48.21202",
         "lon": "16.363787",
         "timestamp": ["1896-12-27"],
         "importance": "1"
      }
      }, 
    {
      "type": "Feature",
      "geometry": {
        "type": "Point",
        "coordinates": [16.366558, 48.202739]
      },
      "properties": {
         "id": "pmb199947",
         "title": "Opernring 13",
         "lat": "48.202739",
         "lon": "16.366558",
         "timestamp": ["1896-12-11"],
         "importance": "1"
      }
      }, 
    {
      "type": "Feature",
      "geometry": {
        "type": "Point",
        "coordinates": [16.372424, 48.197427]
      },
      "properties": {
         "id": "pmb199953",
         "title": "Gußhausstraße 17",
         "lat": "48.197427",
         "lon": "16.372424",
         "timestamp": ["1896-12-12"],
         "importance": "1"
      }
      }, 
    {
      "type": "Feature",
      "geometry": {
        "type": "Point",
        "coordinates": [16.341943, 48.229531]
      },
      "properties": {
         "id": "pmb199992",
         "title": "Weimarer Straße 35",
         "lat": "48.229531",
         "lon": "16.341943",
         "timestamp": ["1896-12-27"],
         "importance": "1"
      }
      }
  ]
}