{
  "type": "FeatureCollection",
  "features": [
    {
      "type": "Feature", 
      "geometry": {
        "type": "LineString", 
        "coordinates": [
            [13.39108, 52.50319], 
            [13.40993, 52.517146], 
            [13.382222, 52.524444], 
            [13.389865, 52.516823], 
            [13.38832, 52.51699]
          ]
      },
      "properties": {
        "name": "30. Januar 1896"
      }
    },
    {
      "type": "Feature",
      "geometry": {
        "type": "Point",
        "coordinates": [
          13.38832, 52.51699
        ]
      },
      "properties": {
        "title": "Unter den Linden",
        "timestamp": ["1896-01-30"],
        "pmb": "https://pmb.acdh.oeaw.ac.at/entity//", 
        "wikipedia": "https://de.wikipedia.org/wiki/Unter_den_Linden"
      }
      },
    {
      "type": "Feature",
      "geometry": {
        "type": "Point",
        "coordinates": [
          13.382222, 52.524444
        ]
      },
      "properties": {
        "title": "Deutsches Theater Berlin",
        "timestamp": ["1896-01-30"],
        "pmb": "https://pmb.acdh.oeaw.ac.at/entity//"
      }
      },
    {
      "type": "Feature",
      "geometry": {
        "type": "Point",
        "coordinates": [
          13.40993, 52.517146
        ]
      },
      "properties": {
        "title": "Bischofstraße",
        "timestamp": ["1896-01-30"],
        "pmb": "https://pmb.acdh.oeaw.ac.at/entity//"
      }
      },
    {
      "type": "Feature",
      "geometry": {
        "type": "Point",
        "coordinates": [
          13.39108, 52.50319
        ]
      },
      "properties": {
        "title": "Friedrichstraße",
        "timestamp": ["1896-01-30"],
        "pmb": "https://pmb.acdh.oeaw.ac.at/entity//"
      }
      },
    {
      "type": "Feature",
      "geometry": {
        "type": "Point",
        "coordinates": [
          13.389865, 52.516823
        ]
      },
      "properties": {
        "title": "Hotel Westminster",
        "timestamp": ["1896-01-30"],
        "pmb": "https://pmb.acdh.oeaw.ac.at/entity//"
      }
      }
  ]
}