{
  "type": "FeatureCollection",
  "features": [
    {
      "type": "Feature",
      "geometry": {
        "type": "Point",
        "coordinates": [16.3691, 48.203]
      },
      "properties": {
         "id": "pmb15",
         "title": "Oper",
         "lat": "48.203",
         "lon": "16.3691",
         "timestamp": ["1896-11-19"],
         "importance": "1"
      }
      }, 
    {
      "type": "Feature",
      "geometry": {
        "type": "Point",
        "coordinates": [16.351111, 48.209583]
      },
      "properties": {
         "id": "pmb40",
         "title": "Theater in der Josefstadt",
         "lat": "48.209583",
         "lon": "16.351111",
         "timestamp": ["1896-11-17"],
         "importance": "1"
      }
      }, 
    {
      "type": "Feature",
      "geometry": {
        "type": "Point",
        "coordinates": [16.366111, 48.209167]
      },
      "properties": {
         "id": "pmb4",
         "title": "Bösendorfer-Saal",
         "lat": "48.209167",
         "lon": "16.366111",
         "timestamp": ["1896-11-30"],
         "importance": "1"
      }
      }, 
    {
      "type": "Feature",
      "geometry": {
        "type": "Point",
        "coordinates": [16.373056, 48.208333]
      },
      "properties": {
         "id": "pmb50",
         "title": "Wien",
         "lat": "48.208333",
         "lon": "16.373056",
         "timestamp": ["1896-11-13", "1896-11-16", "1896-11-17", "1896-11-19", "1896-11-21", "1896-11-22", "1896-11-24", "1896-11-27", "1896-11-29"],
         "importance": "9"
      }
      }, 
    {
      "type": "Feature",
      "geometry": {
        "type": "Point",
        "coordinates": [16.361139, 48.210333]
      },
      "properties": {
         "id": "pmb14",
         "title": "Burgtheater",
         "lat": "48.210333",
         "lon": "16.361139",
         "timestamp": ["1896-11-13", "1896-11-21"],
         "importance": "2"
      }
      }, 
    {
      "type": "Feature",
      "geometry": {
        "type": "Point",
        "coordinates": [16.3734013, 48.2098832]
      },
      "properties": {
         "id": "pmb42749",
         "title": "Stefanskeller",
         "lat": "48.2098832",
         "lon": "16.3734013",
         "timestamp": ["1896-11-27"],
         "importance": "1"
      }
      }, 
    {
      "type": "Feature",
      "geometry": {
        "type": "Point",
        "coordinates": [13.41053, 52.52437]
      },
      "properties": {
         "id": "pmb168",
         "title": "Berlin",
         "lat": "52.52437",
         "lon": "13.41053",
         "timestamp": ["1896-11-09"],
         "importance": "1"
      }
      }, 
    {
      "type": "Feature",
      "geometry": {
        "type": "Point",
        "coordinates": [16.363548, 48.216542]
      },
      "properties": {
         "id": "pmb199530",
         "title": "Kolingasse 13",
         "lat": "48.216542",
         "lon": "16.363548",
         "timestamp": ["1896-11-24"],
         "importance": "1"
      }
      }, 
    {
      "type": "Feature",
      "geometry": {
        "type": "Point",
        "coordinates": [13.382222, 52.524444]
      },
      "properties": {
         "id": "pmb3",
         "title": "Deutsches Theater Berlin",
         "lat": "52.524444",
         "lon": "13.382222",
         "timestamp": ["1896-11-01", "1896-11-03", "1896-11-04", "1896-11-06"],
         "importance": "4"
      }
      }, 
    {
      "type": "Feature",
      "geometry": {
        "type": "Point",
        "coordinates": [13.329061, 52.505944]
      },
      "properties": {
         "id": "pmb692",
         "title": "Theater des Westens",
         "lat": "52.505944",
         "lon": "13.329061",
         "timestamp": ["1896-11-07"],
         "importance": "1"
      }
      }, 
    {
      "type": "Feature",
      "geometry": {
        "type": "Point",
        "coordinates": [13.41041, 52.50999]
      },
      "properties": {
         "id": "pmb686",
         "title": "Thalia-Theater Berlin",
         "lat": "52.50999",
         "lon": "13.41041",
         "timestamp": ["1896-11-06"],
         "importance": "1"
      }
      }, 
    {
      "type": "Feature",
      "geometry": {
        "type": "Point",
        "coordinates": [16.375924, 48.208656]
      },
      "properties": {
         "id": "pmb190427",
         "title": "Wollzeile 15 (»Berthahof«)",
         "lat": "48.208656",
         "lon": "16.375924",
         "timestamp": ["1896-11-14", "1896-11-22"],
         "importance": "2"
      }
      }, 
    {
      "type": "Feature",
      "geometry": {
        "type": "Point",
        "coordinates": [16.339722, 48.192222]
      },
      "properties": {
         "id": "pmb77",
         "title": "Raimund-Theater",
         "lat": "48.192222",
         "lon": "16.339722",
         "timestamp": ["1896-11-29"],
         "importance": "1"
      }
      }, 
    {
      "type": "Feature",
      "geometry": {
        "type": "Point",
        "coordinates": [16.35736, 48.21533]
      },
      "properties": {
         "id": "pmb168934",
         "title": "Frankgasse 1",
         "lat": "48.21533",
         "lon": "16.35736",
         "timestamp": ["1896-11-13", "1896-11-14", "1896-11-17", "1896-11-22", "1896-11-26", "1896-11-30"],
         "importance": "6"
      }
      }, 
    {
      "type": "Feature",
      "geometry": {
        "type": "Point",
        "coordinates": [13.376389, 52.5225]
      },
      "properties": {
         "id": "pmb18",
         "title": "Lessing-Theater",
         "lat": "52.5225",
         "lon": "13.376389",
         "timestamp": ["1896-11-01"],
         "importance": "1"
      }
      }, 
    {
      "type": "Feature",
      "geometry": {
        "type": "Point",
        "coordinates": [13.383708, 52.516981]
      },
      "properties": {
         "id": "pmb199492",
         "title": "Restaurant Hiller",
         "lat": "52.516981",
         "lon": "13.383708",
         "timestamp": ["1896-11-03", "1896-11-08"],
         "importance": "2"
      }
      }, 
    {
      "type": "Feature",
      "geometry": {
        "type": "Point",
        "coordinates": [16.338015, 48.234046]
      },
      "properties": {
         "id": "pmb185644",
         "title": "Peregringasse 4",
         "lat": "48.234046",
         "lon": "16.338015",
         "timestamp": ["1896-11-15"],
         "importance": "1"
      }
      }, 
    {
      "type": "Feature",
      "geometry": {
        "type": "Point",
        "coordinates": [16.355751, 48.216066]
      },
      "properties": {
         "id": "pmb199370",
         "title": "Schwarzspanierstraße 4",
         "lat": "48.216066",
         "lon": "16.355751",
         "timestamp": ["1896-11-16"],
         "importance": "1"
      }
      }, 
    {
      "type": "Feature",
      "geometry": {
        "type": "Point",
        "coordinates": [13.389182, 52.513294]
      },
      "properties": {
         "id": "pmb199829",
         "title": "Weinstube Kempinski",
         "lat": "52.513294",
         "lon": "13.389182",
         "timestamp": ["1896-11-06"],
         "importance": "1"
      }
      }, 
    {
      "type": "Feature",
      "geometry": {
        "type": "Point",
        "coordinates": [17.03533, 51.10773]
      },
      "properties": {
         "id": "pmb677",
         "title": "Breslau",
         "lat": "51.10773",
         "lon": "17.03533",
         "timestamp": ["1896-11-03"],
         "importance": "1"
      }
      }, 
    {
      "type": "Feature",
      "geometry": {
        "type": "Point",
        "coordinates": [13.386111, 52.521667]
      },
      "properties": {
         "id": "pmb720",
         "title": "Neues Theater",
         "lat": "52.521667",
         "lon": "13.386111",
         "timestamp": ["1896-11-05"],
         "importance": "1"
      }
      }, 
    {
      "type": "Feature",
      "geometry": {
        "type": "Point",
        "coordinates": [13.393233, 52.512204]
      },
      "properties": {
         "id": "pmb199923",
         "title": "Café Schiller",
         "lat": "52.512204",
         "lon": "13.393233",
         "timestamp": ["1896-11-05"],
         "importance": "1"
      }
      }, 
    {
      "type": "Feature",
      "geometry": {
        "type": "Point",
        "coordinates": [16.3633523, 48.211807]
      },
      "properties": {
         "id": "pmb1106",
         "title": "Residenzhotel",
         "lat": "48.211807",
         "lon": "16.3633523",
         "timestamp": ["1896-11-19", "1896-11-25"],
         "importance": "2"
      }
      }, 
    {
      "type": "Feature",
      "geometry": {
        "type": "Point",
        "coordinates": [16.363787, 48.21202]
      },
      "properties": {
         "id": "pmb194828",
         "title": "Teinfaltstraße 2",
         "lat": "48.21202",
         "lon": "16.363787",
         "timestamp": ["1896-11-25"],
         "importance": "1"
      }
      }
  ]
}