{
  "type": "FeatureCollection",
  "features": [
    {
      "type": "Feature", 
      "geometry": {
        "type": "LineString", 
        "coordinates": [
            [13.26586, 52.48338], 
            [13.389865, 52.516823], 
            [13.41053, 52.52437], 
            [13.382222, 52.524444], 
            [13.299819, 52.520522]
          ]
      },
      "properties": {
        "name": "9. Februar 1896"
      }
    },
    {
      "type": "Feature",
      "geometry": {
        "type": "Point",
        "coordinates": [
          13.41053, 52.52437
        ]
      },
      "properties": {
        "title": "Berlin",
        "timestamp": ["1896-02-09"],
        "pmb": "https://pmb.acdh.oeaw.ac.at/entity//", 
        "wikipedia": "https://de.wikipedia.org/wiki/Berlin"
      }
      },
    {
      "type": "Feature",
      "geometry": {
        "type": "Point",
        "coordinates": [
          13.389865, 52.516823
        ]
      },
      "properties": {
        "title": "Hotel Westminster",
        "timestamp": ["1896-02-09"],
        "pmb": "https://pmb.acdh.oeaw.ac.at/entity//"
      }
      },
    {
      "type": "Feature",
      "geometry": {
        "type": "Point",
        "coordinates": [
          13.26586, 52.48338
        ]
      },
      "properties": {
        "title": "Grunewald",
        "timestamp": ["1896-02-09"],
        "pmb": "https://pmb.acdh.oeaw.ac.at/entity//", 
        "wikipedia": "https://de.wikipedia.org/wiki/Berlin-Grunewald"
      }
      },
    {
      "type": "Feature",
      "geometry": {
        "type": "Point",
        "coordinates": [
          13.382222, 52.524444
        ]
      },
      "properties": {
        "title": "Deutsches Theater Berlin",
        "timestamp": ["1896-02-09"],
        "pmb": "https://pmb.acdh.oeaw.ac.at/entity//"
      }
      },
    {
      "type": "Feature",
      "geometry": {
        "type": "Point",
        "coordinates": [
          13.299819, 52.520522
        ]
      },
      "properties": {
        "title": "Luisenplatz 2",
        "timestamp": ["1896-02-09"],
        "pmb": "https://pmb.acdh.oeaw.ac.at/entity//"
      }
      }
  ]
}