{
  "type": "FeatureCollection",
  "features": [
    {
      "type": "Feature", 
      "geometry": {
        "type": "LineString", 
        "coordinates": [
            [16.29204, 48.10917], 
            [16.402222, 48.214722], 
            [16.39467, 48.21699], 
            [16.373056, 48.208333], 
            [16.35736, 48.21533]
          ]
      },
      "properties": {
        "name": "26. April 1896"
      }
    },
    {
      "type": "Feature",
      "geometry": {
        "type": "Point",
        "coordinates": [
          16.373056, 48.208333
        ]
      },
      "properties": {
        "title": "Wien",
        "timestamp": ["1896-04-26"],
        "pmb": "https://pmb.acdh.oeaw.ac.at/entity//", 
        "wikipedia": "https://de.wikipedia.org/wiki/Wien"
      }
      },
    {
      "type": "Feature",
      "geometry": {
        "type": "Point",
        "coordinates": [
          16.39467, 48.21699
        ]
      },
      "properties": {
        "title": "Venedig in Wien",
        "timestamp": ["1896-04-26"],
        "pmb": "https://pmb.acdh.oeaw.ac.at/entity//", 
        "wikipedia": "https://de.wikipedia.org/wiki/Venedig_in_Wien", 
        "wiengeschichtewiki": "https://www.geschichtewiki.wien.gv.at/Venedig_in_Wien"
      }
      },
    {
      "type": "Feature",
      "geometry": {
        "type": "Point",
        "coordinates": [
          16.402222, 48.214722
        ]
      },
      "properties": {
        "title": "Wurstelprater",
        "timestamp": ["1896-04-26"],
        "pmb": "https://pmb.acdh.oeaw.ac.at/entity//", 
        "wikipedia": "https://de.wikipedia.org/wiki/Wurstelprater", 
        "wiengeschichtewiki": "https://www.geschichtewiki.wien.gv.at/Special:URIResolver/?curid=10997"
      }
      },
    {
      "type": "Feature",
      "geometry": {
        "type": "Point",
        "coordinates": [
          16.29204, 48.10917
        ]
      },
      "properties": {
        "title": "Brunn am Gebirge",
        "timestamp": ["1896-04-26"],
        "pmb": "https://pmb.acdh.oeaw.ac.at/entity//", 
        "wikipedia": "https://de.wikipedia.org/wiki/Brunn_am_Gebirge"
      }
      },
    {
      "type": "Feature",
      "geometry": {
        "type": "Point",
        "coordinates": [
          16.35736, 48.21533
        ]
      },
      "properties": {
        "title": "Frankgasse 1",
        "timestamp": ["1896-04-26"],
        "pmb": "https://pmb.acdh.oeaw.ac.at/entity//"
      }
      }
  ]
}