{
  "type": "FeatureCollection",
  "features": [
    {
      "type": "Feature", 
      "geometry": {
        "type": "LineString", 
        "coordinates": [
            [16.366111, 48.208258], 
            [16.371296264238, 48.202432234197], 
            [16.379094, 48.207431], 
            [16.36826, 48.21156], 
            [16.35736, 48.21533]
          ]
      },
      "properties": {
        "name": "11. März 1896"
      }
    },
    {
      "type": "Feature",
      "geometry": {
        "type": "Point",
        "coordinates": [
          16.366111, 48.208258
        ]
      },
      "properties": {
        "title": "Café Griensteidl",
        "timestamp": ["1896-03-11"],
        "pmb": "https://pmb.acdh.oeaw.ac.at/entity//", 
        "wikipedia": "https://de.wikipedia.org/wiki/Caf%C3%A9_Griensteidl"
      }
      },
    {
      "type": "Feature",
      "geometry": {
        "type": "Point",
        "coordinates": [
          16.36826, 48.21156
        ]
      },
      "properties": {
        "title": "Café Kugel",
        "timestamp": ["1896-03-11"],
        "pmb": "https://pmb.acdh.oeaw.ac.at/entity//", 
        "wiengeschichtewiki": "https://www.geschichtewiki.wien.gv.at/Caf%C3%A9_Kugel"
      }
      },
    {
      "type": "Feature",
      "geometry": {
        "type": "Point",
        "coordinates": [
          16.371296264238, 48.202432234197
        ]
      },
      "properties": {
        "title": "Ringstraße",
        "timestamp": ["1896-03-11"],
        "pmb": "https://pmb.acdh.oeaw.ac.at/entity//", 
        "wikipedia": "https://de.wikipedia.org/wiki/Wiener_Ringstra%C3%9Fe"
      }
      },
    {
      "type": "Feature",
      "geometry": {
        "type": "Point",
        "coordinates": [
          16.35736, 48.21533
        ]
      },
      "properties": {
        "title": "Frankgasse 1",
        "timestamp": ["1896-03-11"],
        "pmb": "https://pmb.acdh.oeaw.ac.at/entity//"
      }
      },
    {
      "type": "Feature",
      "geometry": {
        "type": "Point",
        "coordinates": [
          16.379094, 48.207431
        ]
      },
      "properties": {
        "title": "Stubenbastei 1",
        "timestamp": ["1896-03-11"],
        "pmb": "https://pmb.acdh.oeaw.ac.at/entity//"
      }
      }
  ]
}