{
  "type": "FeatureCollection",
  "features": [
    {
      "type": "Feature",
      "geometry": {
        "type": "Point",
        "coordinates": [16.384444, 48.215]
      },
      "properties": {
         "id": "pmb118",
         "title": "Carl-Theater",
         "lat": "48.215",
         "lon": "16.384444",
         "timestamp": ["1896-01-17", "1896-01-20"],
         "importance": "2"
      }
      }, 
    {
      "type": "Feature",
      "geometry": {
        "type": "Point",
        "coordinates": [16.373056, 48.208333]
      },
      "properties": {
         "id": "pmb50",
         "title": "Wien",
         "lat": "48.208333",
         "lon": "16.373056",
         "timestamp": ["1896-01-01", "1896-01-02", "1896-01-03", "1896-01-04", "1896-01-05", "1896-01-06", "1896-01-07", "1896-01-08", "1896-01-09", "1896-01-10", "1896-01-15", "1896-01-16", "1896-01-17", "1896-01-18", "1896-01-19", "1896-01-20", "1896-01-21", "1896-01-22", "1896-01-23", "1896-01-24", "1896-01-25", "1896-01-26", "1896-01-27", "1896-01-28", "1896-01-29"],
         "importance": "25"
      }
      }, 
    {
      "type": "Feature",
      "geometry": {
        "type": "Point",
        "coordinates": [8.68417, 50.11552]
      },
      "properties": {
         "id": "pmb146",
         "title": "Frankfurt am Main",
         "lat": "50.11552",
         "lon": "8.68417",
         "timestamp": ["1896-01-15"],
         "importance": "1"
      }
      }, 
    {
      "type": "Feature",
      "geometry": {
        "type": "Point",
        "coordinates": [16.361139, 48.210333]
      },
      "properties": {
         "id": "pmb14",
         "title": "Burgtheater",
         "lat": "48.210333",
         "lon": "16.361139",
         "timestamp": ["1896-01-02", "1896-01-04", "1896-01-23"],
         "importance": "3"
      }
      }, 
    {
      "type": "Feature",
      "geometry": {
        "type": "Point",
        "coordinates": [16.25, 48.26667]
      },
      "properties": {
         "id": "pmb473",
         "title": "Weidlingbach",
         "lat": "48.26667",
         "lon": "16.25",
         "timestamp": ["1896-01-25"],
         "importance": "1"
      }
      }, 
    {
      "type": "Feature",
      "geometry": {
        "type": "Point",
        "coordinates": [16.3589854, 48.2139714]
      },
      "properties": {
         "id": "pmb104",
         "title": "Café Arkaden",
         "lat": "48.2139714",
         "lon": "16.3589854",
         "timestamp": ["1896-01-22"],
         "importance": "1"
      }
      }, 
    {
      "type": "Feature",
      "geometry": {
        "type": "Point",
        "coordinates": [13.382222, 52.524444]
      },
      "properties": {
         "id": "pmb3",
         "title": "Deutsches Theater Berlin",
         "lat": "52.524444",
         "lon": "13.382222",
         "timestamp": ["1896-01-30", "1896-01-31"],
         "importance": "2"
      }
      }, 
    {
      "type": "Feature",
      "geometry": {
        "type": "Point",
        "coordinates": [16.369953, 48.194906]
      },
      "properties": {
         "id": "pmb184870",
         "title": "Hotel Victoria [Wien]",
         "lat": "48.194906",
         "lon": "16.369953",
         "timestamp": ["1896-01-06"],
         "importance": "1"
      }
      }, 
    {
      "type": "Feature",
      "geometry": {
        "type": "Point",
        "coordinates": [16.366111, 48.208258]
      },
      "properties": {
         "id": "pmb34",
         "title": "Café Griensteidl",
         "lat": "48.208258",
         "lon": "16.366111",
         "timestamp": ["1896-01-28"],
         "importance": "1"
      }
      }, 
    {
      "type": "Feature",
      "geometry": {
        "type": "Point",
        "coordinates": [16.27616, 48.30997]
      },
      "properties": {
         "id": "pmb8062",
         "title": "Kierling",
         "lat": "48.30997",
         "lon": "16.27616",
         "timestamp": ["1896-01-25"],
         "importance": "1"
      }
      }, 
    {
      "type": "Feature",
      "geometry": {
        "type": "Point",
        "coordinates": [16.209444, 48.327778]
      },
      "properties": {
         "id": "pmb1246",
         "title": "St. Andrä-Wördern",
         "lat": "48.327778",
         "lon": "16.209444",
         "timestamp": ["1896-01-25"],
         "importance": "1"
      }
      }, 
    {
      "type": "Feature",
      "geometry": {
        "type": "Point",
        "coordinates": [16.339722, 48.192222]
      },
      "properties": {
         "id": "pmb77",
         "title": "Raimund-Theater",
         "lat": "48.192222",
         "lon": "16.339722",
         "timestamp": ["1896-01-25"],
         "importance": "1"
      }
      }, 
    {
      "type": "Feature",
      "geometry": {
        "type": "Point",
        "coordinates": [16.35736, 48.21533]
      },
      "properties": {
         "id": "pmb168934",
         "title": "Frankgasse 1",
         "lat": "48.21533",
         "lon": "16.35736",
         "timestamp": ["1896-01-01", "1896-01-04", "1896-01-07", "1896-01-08", "1896-01-09", "1896-01-15", "1896-01-18", "1896-01-20", "1896-01-21", "1896-01-22", "1896-01-23", "1896-01-27", "1896-01-29"],
         "importance": "13"
      }
      }, 
    {
      "type": "Feature",
      "geometry": {
        "type": "Point",
        "coordinates": [16.359134, 48.213768]
      },
      "properties": {
         "id": "pmb34210",
         "title": "Café Kaiserhof (Inh. Johann Wortner)",
         "lat": "48.213768",
         "lon": "16.359134",
         "timestamp": ["1896-01-14"],
         "importance": "1"
      }
      }, 
    {
      "type": "Feature",
      "geometry": {
        "type": "Point",
        "coordinates": [16.359115820865, 48.21529247001]
      },
      "properties": {
         "id": "pmb526",
         "title": "Votivkirche",
         "lat": "48.21529247001",
         "lon": "16.359115820865",
         "timestamp": ["1896-01-06"],
         "importance": "1"
      }
      }, 
    {
      "type": "Feature",
      "geometry": {
        "type": "Point",
        "coordinates": [16.359721, 48.216481]
      },
      "properties": {
         "id": "pmb184975",
         "title": "Alt Pilsenetzer Bierhalle",
         "lat": "48.216481",
         "lon": "16.359721",
         "timestamp": ["1896-01-18"],
         "importance": "1"
      }
      }, 
    {
      "type": "Feature",
      "geometry": {
        "type": "Point",
        "coordinates": [16.370721, 48.212551]
      },
      "properties": {
         "id": "pmb168687",
         "title": "[Salvatorgasse 11, Absteigequartier III Marie Reinhard und Arthur Schnitzler]",
         "lat": "48.212551",
         "lon": "16.370721",
         "timestamp": ["1896-01-01", "1896-01-05", "1896-01-16", "1896-01-19", "1896-01-24", "1896-01-26"],
         "importance": "6"
      }
      }, 
    {
      "type": "Feature",
      "geometry": {
        "type": "Point",
        "coordinates": [16.376082, 48.201716]
      },
      "properties": {
         "id": "pmb199455",
         "title": "Kantgasse 6",
         "lat": "48.201716",
         "lon": "16.376082",
         "timestamp": ["1896-01-06"],
         "importance": "1"
      }
      }, 
    {
      "type": "Feature",
      "geometry": {
        "type": "Point",
        "coordinates": [8.67556, 50.11]
      },
      "properties": {
         "id": "pmb199460",
         "title": "Frankfurter Hof",
         "lat": "50.11",
         "lon": "8.67556",
         "timestamp": ["1896-01-10", "1896-01-11", "1896-01-12", "1896-01-13"],
         "importance": "4"
      }
      }, 
    {
      "type": "Feature",
      "geometry": {
        "type": "Point",
        "coordinates": [8.67417, 50.1081]
      },
      "properties": {
         "id": "pmb199463",
         "title": "Frankfurter Stadttheater",
         "lat": "50.1081",
         "lon": "8.67417",
         "timestamp": ["1896-01-11", "1896-01-12"],
         "importance": "2"
      }
      }, 
    {
      "type": "Feature",
      "geometry": {
        "type": "Point",
        "coordinates": [6.958333333333333, 50.94138888888889]
      },
      "properties": {
         "id": "pmb199468",
         "title": "Kölner Dom",
         "lat": "50.94138888888889",
         "lon": "6.958333333333333",
         "timestamp": ["1896-01-13"],
         "importance": "1"
      }
      }, 
    {
      "type": "Feature",
      "geometry": {
        "type": "Point",
        "coordinates": [6.951649, 50.936904]
      },
      "properties": {
         "id": "pmb92349",
         "title": "Kreuzgasse",
         "lat": "50.936904",
         "lon": "6.951649",
         "timestamp": ["1896-01-13"],
         "importance": "1"
      }
      }, 
    {
      "type": "Feature",
      "geometry": {
        "type": "Point",
        "coordinates": [8.6775, 50.111111]
      },
      "properties": {
         "id": "pmb324",
         "title": "Goethe-Haus",
         "lat": "50.111111",
         "lon": "8.6775",
         "timestamp": ["1896-01-14"],
         "importance": "1"
      }
      }, 
    {
      "type": "Feature",
      "geometry": {
        "type": "Point",
        "coordinates": [8.670434, 50.115178]
      },
      "properties": {
         "id": "pmb190402",
         "title": "Hotel Imperial [Frankfurt am Main]",
         "lat": "50.115178",
         "lon": "8.670434",
         "timestamp": ["1896-01-14"],
         "importance": "1"
      }
      }, 
    {
      "type": "Feature",
      "geometry": {
        "type": "Point",
        "coordinates": [8.675932, 50.112966]
      },
      "properties": {
         "id": "pmb199473",
         "title": "Restauration zum Kaiserhof [Frankfurt am Main]",
         "lat": "50.112966",
         "lon": "8.675932",
         "timestamp": ["1896-01-14"],
         "importance": "1"
      }
      }, 
    {
      "type": "Feature",
      "geometry": {
        "type": "Point",
        "coordinates": [16.23333, 48.26667]
      },
      "properties": {
         "id": "pmb289",
         "title": "Steinriegl",
         "lat": "48.26667",
         "lon": "16.23333",
         "timestamp": ["1896-01-25"],
         "importance": "1"
      }
      }, 
    {
      "type": "Feature",
      "geometry": {
        "type": "Point",
        "coordinates": [16.14492, 48.30198]
      },
      "properties": {
         "id": "pmb34354",
         "title": "Königstetten",
         "lat": "48.30198",
         "lon": "16.14492",
         "timestamp": ["1896-01-25"],
         "importance": "1"
      }
      }, 
    {
      "type": "Feature",
      "geometry": {
        "type": "Point",
        "coordinates": [13.389865, 52.516823]
      },
      "properties": {
         "id": "pmb41234",
         "title": "Hotel Westminster",
         "lat": "52.516823",
         "lon": "13.389865",
         "timestamp": ["1896-01-30", "1896-01-31"],
         "importance": "2"
      }
      }, 
    {
      "type": "Feature",
      "geometry": {
        "type": "Point",
        "coordinates": [13.40993, 52.517146]
      },
      "properties": {
         "id": "pmb92167",
         "title": "Bischofstraße",
         "lat": "52.517146",
         "lon": "13.40993",
         "timestamp": ["1896-01-30"],
         "importance": "1"
      }
      }, 
    {
      "type": "Feature",
      "geometry": {
        "type": "Point",
        "coordinates": [13.39108, 52.50319]
      },
      "properties": {
         "id": "pmb482",
         "title": "Friedrichstraße",
         "lat": "52.50319",
         "lon": "13.39108",
         "timestamp": ["1896-01-30"],
         "importance": "1"
      }
      }, 
    {
      "type": "Feature",
      "geometry": {
        "type": "Point",
        "coordinates": [13.376984, 52.509241]
      },
      "properties": {
         "id": "pmb88",
         "title": "Palasthotel Berlin",
         "lat": "52.509241",
         "lon": "13.376984",
         "timestamp": ["1896-01-31"],
         "importance": "1"
      }
      }, 
    {
      "type": "Feature",
      "geometry": {
        "type": "Point",
        "coordinates": [13.386944, 52.515833]
      },
      "properties": {
         "id": "pmb201039",
         "title": "Berliner Metropol Theater",
         "lat": "52.515833",
         "lon": "13.386944",
         "timestamp": ["1896-01-31"],
         "importance": "1"
      }
      }
  ]
}