{
  "type": "FeatureCollection",
  "features": [
    {
      "type": "Feature", 
      "geometry": {
        "type": "LineString", 
        "coordinates": [
            [2.20289, 48.84598], 
            [2.19311, 48.82358], 
            [2.340682, 48.876305], 
            [2.3377777777778, 48.881944444444], 
            [2.05732, 48.86954]
          ]
      },
      "properties": {
        "name": "23. Mai 1897"
      }
    },
    {
      "type": "Feature",
      "geometry": {
        "type": "Point",
        "coordinates": [
          2.340682, 48.876305
        ]
      },
      "properties": {
        "title": "rue de Maubeuge",
        "timestamp": ["1897-05-23"],
        "pmb": "https://pmb.acdh.oeaw.ac.at/entity//"
      }
      },
    {
      "type": "Feature",
      "geometry": {
        "type": "Point",
        "coordinates": [
          2.3377777777778, 48.881944444444
        ]
      },
      "properties": {
        "title": "Café de la Nouvelle Athènes",
        "timestamp": ["1897-05-23"],
        "pmb": "https://pmb.acdh.oeaw.ac.at/entity//", 
        "wikipedia": "https://de.wikipedia.org/wiki/Caf%C3%A9_de_la_Nouvelle_Ath%C3%A8nes"
      }
      },
    {
      "type": "Feature",
      "geometry": {
        "type": "Point",
        "coordinates": [
          2.19311, 48.82358
        ]
      },
      "properties": {
        "title": "Ville-d'Avray",
        "timestamp": ["1897-05-23"],
        "pmb": "https://pmb.acdh.oeaw.ac.at/entity//", 
        "wikipedia": "https://de.wikipedia.org/wiki/Ville-d%E2%80%99Avray"
      }
      },
    {
      "type": "Feature",
      "geometry": {
        "type": "Point",
        "coordinates": [
          2.20289, 48.84598
        ]
      },
      "properties": {
        "title": "Saint-Cloud",
        "timestamp": ["1897-05-23"],
        "pmb": "https://pmb.acdh.oeaw.ac.at/entity//", 
        "wikipedia": "https://de.wikipedia.org/wiki/Saint-Cloud"
      }
      },
    {
      "type": "Feature",
      "geometry": {
        "type": "Point",
        "coordinates": [
          2.05732, 48.86954
        ]
      },
      "properties": {
        "title": "L'Étang-la-Ville",
        "timestamp": ["1897-05-23"],
        "pmb": "https://pmb.acdh.oeaw.ac.at/entity//"
      }
      }
  ]
}