{
  "type": "FeatureCollection",
  "features": [
    {
      "type": "Feature", 
      "geometry": {
        "type": "LineString", 
        "coordinates": [
            [16.277425, 48.14917], 
            [16.356285, 48.204516], 
            [16.374167, 48.213056], 
            [16.358208, 48.214879], 
            [16.35736, 48.21533]
          ]
      },
      "properties": {
        "name": "18. September 1897"
      }
    },
    {
      "type": "Feature",
      "geometry": {
        "type": "Point",
        "coordinates": [
          16.374167, 48.213056
        ]
      },
      "properties": {
        "title": "Hotel Metropole [Wien]",
        "timestamp": ["1897-09-18"],
        "pmb": "https://pmb.acdh.oeaw.ac.at/entity//", 
        "wikipedia": "https://de.wikipedia.org/wiki/Hotel_M%C3%A9tropole"
      }
      },
    {
      "type": "Feature",
      "geometry": {
        "type": "Point",
        "coordinates": [
          16.356285, 48.204516
        ]
      },
      "properties": {
        "title": "Hotel Höller",
        "timestamp": ["1897-09-18"],
        "pmb": "https://pmb.acdh.oeaw.ac.at/entity//"
      }
      },
    {
      "type": "Feature",
      "geometry": {
        "type": "Point",
        "coordinates": [
          16.277425, 48.14917
        ]
      },
      "properties": {
        "title": "Endresstraße 68",
        "timestamp": ["1897-09-18"],
        "pmb": "https://pmb.acdh.oeaw.ac.at/entity//"
      }
      },
    {
      "type": "Feature",
      "geometry": {
        "type": "Point",
        "coordinates": [
          16.35736, 48.21533
        ]
      },
      "properties": {
        "title": "Frankgasse 1",
        "timestamp": ["1897-09-18"],
        "pmb": "https://pmb.acdh.oeaw.ac.at/entity//"
      }
      },
    {
      "type": "Feature",
      "geometry": {
        "type": "Point",
        "coordinates": [
          16.358208, 48.214879
        ]
      },
      "properties": {
        "title": "Rooseveltplatz 2",
        "timestamp": ["1897-09-18"],
        "pmb": "https://pmb.acdh.oeaw.ac.at/entity//"
      }
      }
  ]
}