{
  "type": "FeatureCollection",
  "features": [
    {
      "type": "Feature", 
      "geometry": {
        "type": "LineString", 
        "coordinates": [
            [16.35736, 48.21533], 
            [16.372564182283, 48.201265597319], 
            [16.37312, 48.20122], 
            [16.37778, 48.22583], 
            [16.363548, 48.216542], 
            [16.338015, 48.234046]
          ]
      },
      "properties": {
        "name": "5. April 1897"
      }
    },
    {
      "type": "Feature",
      "geometry": {
        "type": "Point",
        "coordinates": [
          16.338015, 48.234046
        ]
      },
      "properties": {
        "title": "Peregringasse 4",
        "timestamp": ["1897-04-05"],
        "pmb": "https://pmb.acdh.oeaw.ac.at/entity//"
      }
      },
    {
      "type": "Feature",
      "geometry": {
        "type": "Point",
        "coordinates": [
          16.363548, 48.216542
        ]
      },
      "properties": {
        "title": "Kolingasse 13",
        "timestamp": ["1897-04-05"],
        "pmb": "https://pmb.acdh.oeaw.ac.at/entity//"
      }
      },
    {
      "type": "Feature",
      "geometry": {
        "type": "Point",
        "coordinates": [
          16.35736, 48.21533
        ]
      },
      "properties": {
        "title": "Frankgasse 1",
        "timestamp": ["1897-04-05"],
        "pmb": "https://pmb.acdh.oeaw.ac.at/entity//"
      }
      },
    {
      "type": "Feature",
      "geometry": {
        "type": "Point",
        "coordinates": [
          16.37312, 48.20122
        ]
      },
      "properties": {
        "title": "Hotel Imperial",
        "timestamp": ["1897-04-05"],
        "pmb": "https://pmb.acdh.oeaw.ac.at/entity//"
      }
      },
    {
      "type": "Feature",
      "geometry": {
        "type": "Point",
        "coordinates": [
          16.372564182283, 48.201265597319
        ]
      },
      "properties": {
        "title": "Musikverein",
        "timestamp": ["1897-04-05"],
        "pmb": "https://pmb.acdh.oeaw.ac.at/entity//"
      }
      },
    {
      "type": "Feature",
      "geometry": {
        "type": "Point",
        "coordinates": [
          16.37778, 48.22583
        ]
      },
      "properties": {
        "title": "Augarten",
        "timestamp": ["1897-04-05"],
        "pmb": "https://pmb.acdh.oeaw.ac.at/entity//", 
        "wikipedia": "https://de.wikipedia.org/wiki/Augarten"
      }
      }
  ]
}