{
  "type": "FeatureCollection",
  "features": [
    {
      "type": "Feature", 
      "geometry": {
        "type": "LineString", 
        "coordinates": [
            [2.47458, 48.82538], 
            [2.48255, 48.83669], 
            [2.340682, 48.876305], 
            [2.337878, 48.871813], 
            [2.3488, 48.85341]
          ]
      },
      "properties": {
        "name": "22. Mai 1897"
      }
    },
    {
      "type": "Feature",
      "geometry": {
        "type": "Point",
        "coordinates": [
          2.3488, 48.85341
        ]
      },
      "properties": {
        "title": "Paris",
        "timestamp": ["1897-05-22"],
        "pmb": "https://pmb.acdh.oeaw.ac.at/entity//", 
        "wikipedia": "https://de.wikipedia.org/wiki/Paris"
      }
      },
    {
      "type": "Feature",
      "geometry": {
        "type": "Point",
        "coordinates": [
          2.340682, 48.876305
        ]
      },
      "properties": {
        "title": "rue de Maubeuge",
        "timestamp": ["1897-05-22"],
        "pmb": "https://pmb.acdh.oeaw.ac.at/entity//"
      }
      },
    {
      "type": "Feature",
      "geometry": {
        "type": "Point",
        "coordinates": [
          2.47458, 48.82538
        ]
      },
      "properties": {
        "title": "Joinville-le-Pont",
        "timestamp": ["1897-05-22"],
        "pmb": "https://pmb.acdh.oeaw.ac.at/entity//"
      }
      },
    {
      "type": "Feature",
      "geometry": {
        "type": "Point",
        "coordinates": [
          2.337878, 48.871813
        ]
      },
      "properties": {
        "title": "Pousset",
        "timestamp": ["1897-05-22"],
        "pmb": "https://pmb.acdh.oeaw.ac.at/entity//"
      }
      },
    {
      "type": "Feature",
      "geometry": {
        "type": "Point",
        "coordinates": [
          2.48255, 48.83669
        ]
      },
      "properties": {
        "title": "Nogent-sur-Marne",
        "timestamp": ["1897-05-22"],
        "pmb": "https://pmb.acdh.oeaw.ac.at/entity//"
      }
      }
  ]
}