{
  "type": "FeatureCollection",
  "features": [
    {
      "type": "Feature", 
      "geometry": {
        "type": "LineString", 
        "coordinates": [
            [16.277425, 48.14917], 
            [16.375135, 48.204532], 
            [16.373056, 48.208333], 
            [16.364926, 48.21363], 
            [16.358208, 48.214879], 
            [16.35736, 48.21533]
          ]
      },
      "properties": {
        "name": "14. September 1897"
      }
    },
    {
      "type": "Feature",
      "geometry": {
        "type": "Point",
        "coordinates": [
          16.373056, 48.208333
        ]
      },
      "properties": {
        "title": "Wien",
        "timestamp": ["1897-09-14"],
        "pmb": "https://pmb.acdh.oeaw.ac.at/entity//", 
        "wikipedia": "https://de.wikipedia.org/wiki/Wien"
      }
      },
    {
      "type": "Feature",
      "geometry": {
        "type": "Point",
        "coordinates": [
          16.358208, 48.214879
        ]
      },
      "properties": {
        "title": "Rooseveltplatz 2",
        "timestamp": ["1897-09-14"],
        "pmb": "https://pmb.acdh.oeaw.ac.at/entity//"
      }
      },
    {
      "type": "Feature",
      "geometry": {
        "type": "Point",
        "coordinates": [
          16.277425, 48.14917
        ]
      },
      "properties": {
        "title": "Endresstraße 68",
        "timestamp": ["1897-09-14"],
        "pmb": "https://pmb.acdh.oeaw.ac.at/entity//"
      }
      },
    {
      "type": "Feature",
      "geometry": {
        "type": "Point",
        "coordinates": [
          16.364926, 48.21363
        ]
      },
      "properties": {
        "title": "Helferstorferstraße",
        "timestamp": ["1897-09-14"],
        "pmb": "https://pmb.acdh.oeaw.ac.at/entity//"
      }
      },
    {
      "type": "Feature",
      "geometry": {
        "type": "Point",
        "coordinates": [
          16.375135, 48.204532
        ]
      },
      "properties": {
        "title": "Schellinggasse 6",
        "timestamp": ["1897-09-14"],
        "pmb": "https://pmb.acdh.oeaw.ac.at/entity//"
      }
      },
    {
      "type": "Feature",
      "geometry": {
        "type": "Point",
        "coordinates": [
          16.35736, 48.21533
        ]
      },
      "properties": {
        "title": "Frankgasse 1",
        "timestamp": ["1897-09-14"],
        "pmb": "https://pmb.acdh.oeaw.ac.at/entity//"
      }
      }
  ]
}