{
  "type": "FeatureCollection",
  "features": [
    {
      "type": "Feature", 
      "geometry": {
        "type": "LineString", 
        "coordinates": [
            [2.336389, 48.8625], 
            [2.333277777777778, 48.85680555555555], 
            [2.338927, 48.850022], 
            [2.3488, 48.85341], 
            [2.3444, 48.8925], 
            [2.340682, 48.876305]
          ]
      },
      "properties": {
        "name": "11. Mai 1897"
      }
    },
    {
      "type": "Feature",
      "geometry": {
        "type": "Point",
        "coordinates": [
          2.3488, 48.85341
        ]
      },
      "properties": {
        "title": "Paris",
        "timestamp": ["1897-05-11"],
        "pmb": "https://pmb.acdh.oeaw.ac.at/entity//", 
        "wikipedia": "https://de.wikipedia.org/wiki/Paris"
      }
      },
    {
      "type": "Feature",
      "geometry": {
        "type": "Point",
        "coordinates": [
          2.340682, 48.876305
        ]
      },
      "properties": {
        "title": "rue de Maubeuge",
        "timestamp": ["1897-05-11"],
        "pmb": "https://pmb.acdh.oeaw.ac.at/entity//"
      }
      },
    {
      "type": "Feature",
      "geometry": {
        "type": "Point",
        "coordinates": [
          2.336389, 48.8625
        ]
      },
      "properties": {
        "title": "Musée du Louvre",
        "timestamp": ["1897-05-11"],
        "pmb": "https://pmb.acdh.oeaw.ac.at/entity//"
      }
      },
    {
      "type": "Feature",
      "geometry": {
        "type": "Point",
        "coordinates": [
          2.338927, 48.850022
        ]
      },
      "properties": {
        "title": "Odéon",
        "timestamp": ["1897-05-11"],
        "pmb": "https://pmb.acdh.oeaw.ac.at/entity//", 
        "wikipedia": "https://de.wikipedia.org/wiki/Od%C3%A9on_%E2%80%93_Th%C3%A9%C3%A2tre_de_l%E2%80%99Europe"
      }
      },
    {
      "type": "Feature",
      "geometry": {
        "type": "Point",
        "coordinates": [
          2.3444, 48.8925
        ]
      },
      "properties": {
        "title": "18. arrondissement [Buttes-Montmartre]",
        "timestamp": ["1897-05-11"],
        "pmb": "https://pmb.acdh.oeaw.ac.at/entity//"
      }
      },
    {
      "type": "Feature",
      "geometry": {
        "type": "Point",
        "coordinates": [
          2.333277777777778, 48.85680555555555
        ]
      },
      "properties": {
        "title": "Beaux-Arts de Paris",
        "timestamp": ["1897-05-11"],
        "pmb": "https://pmb.acdh.oeaw.ac.at/entity//", 
        "wikipedia": "https://de.wikipedia.org/wiki/%C3%89cole_nationale_sup%C3%A9rieure_des_beaux-arts_de_Paris"
      }
      }
  ]
}