{
  "type": "FeatureCollection",
  "features": [
    {
      "type": "Feature",
      "geometry": {
        "type": "Point",
        "coordinates": [16.375, 48.205139]
      },
      "properties": {
         "id": "pmb19",
         "title": "Ronacher",
         "lat": "48.205139",
         "lon": "16.375",
         "timestamp": ["1897-11-13"],
         "importance": "1"
      }
      }, 
    {
      "type": "Feature",
      "geometry": {
        "type": "Point",
        "coordinates": [16.372564182283, 48.201265597319]
      },
      "properties": {
         "id": "pmb516",
         "title": "Musikverein",
         "lat": "48.201265597319",
         "lon": "16.372564182283",
         "timestamp": ["1897-11-05", "1897-11-14"],
         "importance": "2"
      }
      }, 
    {
      "type": "Feature",
      "geometry": {
        "type": "Point",
        "coordinates": [16.3691, 48.203]
      },
      "properties": {
         "id": "pmb15",
         "title": "Oper",
         "lat": "48.203",
         "lon": "16.3691",
         "timestamp": ["1897-11-17"],
         "importance": "1"
      }
      }, 
    {
      "type": "Feature",
      "geometry": {
        "type": "Point",
        "coordinates": [16.351111, 48.209583]
      },
      "properties": {
         "id": "pmb40",
         "title": "Theater in der Josefstadt",
         "lat": "48.209583",
         "lon": "16.351111",
         "timestamp": ["1897-11-19"],
         "importance": "1"
      }
      }, 
    {
      "type": "Feature",
      "geometry": {
        "type": "Point",
        "coordinates": [16.384444, 48.215]
      },
      "properties": {
         "id": "pmb118",
         "title": "Carl-Theater",
         "lat": "48.215",
         "lon": "16.384444",
         "timestamp": ["1897-11-03"],
         "importance": "1"
      }
      }, 
    {
      "type": "Feature",
      "geometry": {
        "type": "Point",
        "coordinates": [16.373056, 48.208333]
      },
      "properties": {
         "id": "pmb50",
         "title": "Wien",
         "lat": "48.208333",
         "lon": "16.373056",
         "timestamp": ["1897-11-01", "1897-11-02", "1897-11-03", "1897-11-04", "1897-11-05", "1897-11-06", "1897-11-07", "1897-11-08", "1897-11-09", "1897-11-10", "1897-11-11", "1897-11-12", "1897-11-13", "1897-11-14", "1897-11-15", "1897-11-16", "1897-11-17", "1897-11-18", "1897-11-19", "1897-11-20", "1897-11-21", "1897-11-22", "1897-11-23", "1897-11-28", "1897-11-29", "1897-11-30"],
         "importance": "26"
      }
      }, 
    {
      "type": "Feature",
      "geometry": {
        "type": "Point",
        "coordinates": [16.361139, 48.210333]
      },
      "properties": {
         "id": "pmb14",
         "title": "Burgtheater",
         "lat": "48.210333",
         "lon": "16.361139",
         "timestamp": ["1897-11-18", "1897-11-23"],
         "importance": "2"
      }
      }, 
    {
      "type": "Feature",
      "geometry": {
        "type": "Point",
        "coordinates": [16.378011, 48.205565]
      },
      "properties": {
         "id": "pmb182754",
         "title": "Gartenbausäle",
         "lat": "48.205565",
         "lon": "16.378011",
         "timestamp": ["1897-11-06"],
         "importance": "1"
      }
      }, 
    {
      "type": "Feature",
      "geometry": {
        "type": "Point",
        "coordinates": [16.37778, 48.22583]
      },
      "properties": {
         "id": "pmb124",
         "title": "Augarten",
         "lat": "48.22583",
         "lon": "16.37778",
         "timestamp": ["1897-11-05", "1897-11-17", "1897-11-19"],
         "importance": "3"
      }
      }, 
    {
      "type": "Feature",
      "geometry": {
        "type": "Point",
        "coordinates": [16.3589854, 48.2139714]
      },
      "properties": {
         "id": "pmb104",
         "title": "Café Arkaden",
         "lat": "48.2139714",
         "lon": "16.3589854",
         "timestamp": ["1897-11-21"],
         "importance": "1"
      }
      }, 
    {
      "type": "Feature",
      "geometry": {
        "type": "Point",
        "coordinates": [16.3566, 48.205142]
      },
      "properties": {
         "id": "pmb20",
         "title": "Volkstheater",
         "lat": "48.205142",
         "lon": "16.3566",
         "timestamp": ["1897-11-20"],
         "importance": "1"
      }
      }, 
    {
      "type": "Feature",
      "geometry": {
        "type": "Point",
        "coordinates": [16.35736, 48.21533]
      },
      "properties": {
         "id": "pmb168934",
         "title": "Frankgasse 1",
         "lat": "48.21533",
         "lon": "16.35736",
         "timestamp": ["1897-11-05", "1897-11-06", "1897-11-07", "1897-11-09", "1897-11-10", "1897-11-11", "1897-11-16", "1897-11-17", "1897-11-18", "1897-11-19", "1897-11-20", "1897-11-30"],
         "importance": "12"
      }
      }, 
    {
      "type": "Feature",
      "geometry": {
        "type": "Point",
        "coordinates": [14.432778, 50.080556]
      },
      "properties": {
         "id": "pmb91",
         "title": "Neues Deutsches Theater",
         "lat": "50.080556",
         "lon": "14.432778",
         "timestamp": ["1897-11-24", "1897-11-25", "1897-11-26", "1897-11-27"],
         "importance": "4"
      }
      }, 
    {
      "type": "Feature",
      "geometry": {
        "type": "Point",
        "coordinates": [16.369693, 48.204446]
      },
      "properties": {
         "id": "pmb199375",
         "title": "Maysedergasse 4",
         "lat": "48.204446",
         "lon": "16.369693",
         "timestamp": ["1897-11-01", "1897-11-02", "1897-11-03", "1897-11-04", "1897-11-07", "1897-11-08", "1897-11-09", "1897-11-12", "1897-11-14", "1897-11-15", "1897-11-20", "1897-11-23", "1897-11-29"],
         "importance": "13"
      }
      }, 
    {
      "type": "Feature",
      "geometry": {
        "type": "Point",
        "coordinates": [16.338015, 48.234046]
      },
      "properties": {
         "id": "pmb185644",
         "title": "Peregringasse 4",
         "lat": "48.234046",
         "lon": "16.338015",
         "timestamp": ["1897-11-01", "1897-11-12", "1897-11-30"],
         "importance": "3"
      }
      }, 
    {
      "type": "Feature",
      "geometry": {
        "type": "Point",
        "coordinates": [16.3633523, 48.211807]
      },
      "properties": {
         "id": "pmb1106",
         "title": "Residenzhotel",
         "lat": "48.211807",
         "lon": "16.3633523",
         "timestamp": ["1897-11-18"],
         "importance": "1"
      }
      }, 
    {
      "type": "Feature",
      "geometry": {
        "type": "Point",
        "coordinates": [16.388742, 48.218665]
      },
      "properties": {
         "id": "pmb200410",
         "title": "Heinestraße 36",
         "lat": "48.218665",
         "lon": "16.388742",
         "timestamp": ["1897-11-04", "1897-11-15", "1897-11-22"],
         "importance": "3"
      }
      }, 
    {
      "type": "Feature",
      "geometry": {
        "type": "Point",
        "coordinates": [16.370101, 48.207941]
      },
      "properties": {
         "id": "pmb200436",
         "title": "Dorotheergasse 3",
         "lat": "48.207941",
         "lon": "16.370101",
         "timestamp": ["1897-11-22"],
         "importance": "1"
      }
      }, 
    {
      "type": "Feature",
      "geometry": {
        "type": "Point",
        "coordinates": [14.432579456179662, 50.08397195903547]
      },
      "properties": {
         "id": "pmb57778",
         "title": "Opletalova",
         "lat": "50.08397195903547",
         "lon": "14.432579456179662",
         "timestamp": ["1897-11-24", "1897-11-25", "1897-11-28"],
         "importance": "3"
      }
      }, 
    {
      "type": "Feature",
      "geometry": {
        "type": "Point",
        "coordinates": [14.42729, 50.08687]
      },
      "properties": {
         "id": "pmb118612",
         "title": "Deutsches Haus [Prag]",
         "lat": "50.08687",
         "lon": "14.42729",
         "timestamp": ["1897-11-24", "1897-11-25"],
         "importance": "2"
      }
      }, 
    {
      "type": "Feature",
      "geometry": {
        "type": "Point",
        "coordinates": [14.431532, 50.08585]
      },
      "properties": {
         "id": "pmb200472",
         "title": "Concordia Prag",
         "lat": "50.08585",
         "lon": "14.431532",
         "timestamp": ["1897-11-27"],
         "importance": "1"
      }
      }
  ]
}