{
  "type": "FeatureCollection",
  "features": [
    {
      "type": "Feature", 
      "geometry": {
        "type": "LineString", 
        "coordinates": [
            [16.361139, 48.210333], 
            [16.369693, 48.204446], 
            [16.373056, 48.208333], 
            [16.388742, 48.218665], 
            [16.35736, 48.21533]
          ]
      },
      "properties": {
        "name": "24. März 1898"
      }
    },
    {
      "type": "Feature",
      "geometry": {
        "type": "Point",
        "coordinates": [
          16.373056, 48.208333
        ]
      },
      "properties": {
        "title": "Wien",
        "timestamp": ["1898-03-24"],
        "pmb": "https://pmb.acdh.oeaw.ac.at/entity//", 
        "wikipedia": "https://de.wikipedia.org/wiki/Wien"
      }
      },
    {
      "type": "Feature",
      "geometry": {
        "type": "Point",
        "coordinates": [
          16.361139, 48.210333
        ]
      },
      "properties": {
        "title": "Burgtheater",
        "timestamp": ["1898-03-24"],
        "pmb": "https://pmb.acdh.oeaw.ac.at/entity//"
      }
      },
    {
      "type": "Feature",
      "geometry": {
        "type": "Point",
        "coordinates": [
          16.35736, 48.21533
        ]
      },
      "properties": {
        "title": "Frankgasse 1",
        "timestamp": ["1898-03-24"],
        "pmb": "https://pmb.acdh.oeaw.ac.at/entity//"
      }
      },
    {
      "type": "Feature",
      "geometry": {
        "type": "Point",
        "coordinates": [
          16.388742, 48.218665
        ]
      },
      "properties": {
        "title": "Heinestraße 36",
        "timestamp": ["1898-03-24"],
        "pmb": "https://pmb.acdh.oeaw.ac.at/entity//"
      }
      },
    {
      "type": "Feature",
      "geometry": {
        "type": "Point",
        "coordinates": [
          16.369693, 48.204446
        ]
      },
      "properties": {
        "title": "Maysedergasse 4",
        "timestamp": ["1898-03-24"],
        "pmb": "https://pmb.acdh.oeaw.ac.at/entity//"
      }
      }
  ]
}