{
  "type": "FeatureCollection",
  "features": [
    {
      "type": "Feature", 
      "geometry": {
        "type": "LineString", 
        "coordinates": [
            [16.339722, 48.192222], 
            [16.369693, 48.204446], 
            [16.377439, 48.208532], 
            [16.384444, 48.215], 
            [16.35736, 48.21533]
          ]
      },
      "properties": {
        "name": "1. Februar 1898"
      }
    },
    {
      "type": "Feature",
      "geometry": {
        "type": "Point",
        "coordinates": [
          16.339722, 48.192222
        ]
      },
      "properties": {
        "title": "Raimund-Theater",
        "timestamp": ["1898-02-01"],
        "pmb": "https://pmb.acdh.oeaw.ac.at/entity//"
      }
      },
    {
      "type": "Feature",
      "geometry": {
        "type": "Point",
        "coordinates": [
          16.377439, 48.208532
        ]
      },
      "properties": {
        "title": "Bäckerstraße 20",
        "timestamp": ["1898-02-01"],
        "pmb": "https://pmb.acdh.oeaw.ac.at/entity//"
      }
      },
    {
      "type": "Feature",
      "geometry": {
        "type": "Point",
        "coordinates": [
          16.369693, 48.204446
        ]
      },
      "properties": {
        "title": "Maysedergasse 4",
        "timestamp": ["1898-02-01"],
        "pmb": "https://pmb.acdh.oeaw.ac.at/entity//"
      }
      },
    {
      "type": "Feature",
      "geometry": {
        "type": "Point",
        "coordinates": [
          16.384444, 48.215
        ]
      },
      "properties": {
        "title": "Carl-Theater",
        "timestamp": ["1898-02-01"],
        "pmb": "https://pmb.acdh.oeaw.ac.at/entity//", 
        "wikipedia": "https://de.wikipedia.org/wiki/Carltheater"
      }
      },
    {
      "type": "Feature",
      "geometry": {
        "type": "Point",
        "coordinates": [
          16.35736, 48.21533
        ]
      },
      "properties": {
        "title": "Frankgasse 1",
        "timestamp": ["1898-02-01"],
        "pmb": "https://pmb.acdh.oeaw.ac.at/entity//"
      }
      }
  ]
}