{
  "type": "FeatureCollection",
  "features": [
    {
      "type": "Feature",
      "geometry": {
        "type": "Point",
        "coordinates": [16.375, 48.205139]
      },
      "properties": {
         "id": "pmb19",
         "title": "Ronacher",
         "lat": "48.205139",
         "lon": "16.375",
         "timestamp": ["1898-02-18"],
         "importance": "1"
      }
      }, 
    {
      "type": "Feature",
      "geometry": {
        "type": "Point",
        "coordinates": [16.373056, 48.208333]
      },
      "properties": {
         "id": "pmb50",
         "title": "Wien",
         "lat": "48.208333",
         "lon": "16.373056",
         "timestamp": ["1898-02-01", "1898-02-02", "1898-02-03", "1898-02-04", "1898-02-05", "1898-02-06", "1898-02-07", "1898-02-13", "1898-02-14", "1898-02-15", "1898-02-16", "1898-02-17", "1898-02-18", "1898-02-19", "1898-02-20", "1898-02-21", "1898-02-22", "1898-02-23", "1898-02-24", "1898-02-25", "1898-02-26", "1898-02-27", "1898-02-28"],
         "importance": "23"
      }
      }, 
    {
      "type": "Feature",
      "geometry": {
        "type": "Point",
        "coordinates": [16.384444, 48.215]
      },
      "properties": {
         "id": "pmb118",
         "title": "Carl-Theater",
         "lat": "48.215",
         "lon": "16.384444",
         "timestamp": ["1898-02-01", "1898-02-03", "1898-02-04", "1898-02-05", "1898-02-06", "1898-02-14", "1898-02-25"],
         "importance": "7"
      }
      }, 
    {
      "type": "Feature",
      "geometry": {
        "type": "Point",
        "coordinates": [16.3642, 48.19941]
      },
      "properties": {
         "id": "pmb37",
         "title": "Theater an der Wien",
         "lat": "48.19941",
         "lon": "16.3642",
         "timestamp": ["1898-02-21"],
         "importance": "1"
      }
      }, 
    {
      "type": "Feature",
      "geometry": {
        "type": "Point",
        "coordinates": [16.361139, 48.210333]
      },
      "properties": {
         "id": "pmb14",
         "title": "Burgtheater",
         "lat": "48.210333",
         "lon": "16.361139",
         "timestamp": ["1898-02-02", "1898-02-13", "1898-02-17", "1898-02-26"],
         "importance": "4"
      }
      }, 
    {
      "type": "Feature",
      "geometry": {
        "type": "Point",
        "coordinates": [16.391263, 48.206662]
      },
      "properties": {
         "id": "pmb107",
         "title": "Sofiensäle",
         "lat": "48.206662",
         "lon": "16.391263",
         "timestamp": ["1898-02-14"],
         "importance": "1"
      }
      }, 
    {
      "type": "Feature",
      "geometry": {
        "type": "Point",
        "coordinates": [16.299116267833, 48.230916826952]
      },
      "properties": {
         "id": "pmb499",
         "title": "Dornbach",
         "lat": "48.230916826952",
         "lon": "16.299116267833",
         "timestamp": ["1898-02-21"],
         "importance": "1"
      }
      }, 
    {
      "type": "Feature",
      "geometry": {
        "type": "Point",
        "coordinates": [16.37778, 48.22583]
      },
      "properties": {
         "id": "pmb124",
         "title": "Augarten",
         "lat": "48.22583",
         "lon": "16.37778",
         "timestamp": ["1898-02-18", "1898-02-25"],
         "importance": "2"
      }
      }, 
    {
      "type": "Feature",
      "geometry": {
        "type": "Point",
        "coordinates": [13.04532, 47.80067]
      },
      "properties": {
         "id": "pmb30",
         "title": "Salzburg",
         "lat": "47.80067",
         "lon": "13.04532",
         "timestamp": ["1898-02-07", "1898-02-08", "1898-02-09", "1898-02-10", "1898-02-11", "1898-02-12", "1898-02-13"],
         "importance": "7"
      }
      }, 
    {
      "type": "Feature",
      "geometry": {
        "type": "Point",
        "coordinates": [13.1, 47.68333]
      },
      "properties": {
         "id": "pmb19527",
         "title": "Hallein",
         "lat": "47.68333",
         "lon": "13.1",
         "timestamp": ["1898-02-11"],
         "importance": "1"
      }
      }, 
    {
      "type": "Feature",
      "geometry": {
        "type": "Point",
        "coordinates": [16.369444, 48.203889]
      },
      "properties": {
         "id": "pmb29",
         "title": "Hotel Sacher",
         "lat": "48.203889",
         "lon": "16.369444",
         "timestamp": ["1898-02-02"],
         "importance": "1"
      }
      }, 
    {
      "type": "Feature",
      "geometry": {
        "type": "Point",
        "coordinates": [16.3566, 48.205142]
      },
      "properties": {
         "id": "pmb20",
         "title": "Volkstheater",
         "lat": "48.205142",
         "lon": "16.3566",
         "timestamp": ["1898-02-19", "1898-02-24"],
         "importance": "2"
      }
      }, 
    {
      "type": "Feature",
      "geometry": {
        "type": "Point",
        "coordinates": [13.06667, 47.8]
      },
      "properties": {
         "id": "pmb804",
         "title": "Parsch",
         "lat": "47.8",
         "lon": "13.06667",
         "timestamp": ["1898-02-11"],
         "importance": "1"
      }
      }, 
    {
      "type": "Feature",
      "geometry": {
        "type": "Point",
        "coordinates": [13.03333, 47.78333]
      },
      "properties": {
         "id": "pmb91137",
         "title": "Leopoldskron",
         "lat": "47.78333",
         "lon": "13.03333",
         "timestamp": ["1898-02-10"],
         "importance": "1"
      }
      }, 
    {
      "type": "Feature",
      "geometry": {
        "type": "Point",
        "coordinates": [15.8241, 47.64224]
      },
      "properties": {
         "id": "pmb189",
         "title": "Semmering",
         "lat": "47.64224",
         "lon": "15.8241",
         "timestamp": ["1898-02-23", "1898-02-24"],
         "importance": "2"
      }
      }, 
    {
      "type": "Feature",
      "geometry": {
        "type": "Point",
        "coordinates": [16.35736, 48.21533]
      },
      "properties": {
         "id": "pmb168934",
         "title": "Frankgasse 1",
         "lat": "48.21533",
         "lon": "16.35736",
         "timestamp": ["1898-02-01", "1898-02-02", "1898-02-03", "1898-02-04", "1898-02-05", "1898-02-06", "1898-02-07", "1898-02-13", "1898-02-14", "1898-02-15", "1898-02-16", "1898-02-17", "1898-02-18", "1898-02-19", "1898-02-20", "1898-02-21", "1898-02-22", "1898-02-23", "1898-02-24", "1898-02-25", "1898-02-26", "1898-02-27", "1898-02-28"],
         "importance": "23"
      }
      }, 
    {
      "type": "Feature",
      "geometry": {
        "type": "Point",
        "coordinates": [16.339722, 48.192222]
      },
      "properties": {
         "id": "pmb77",
         "title": "Raimund-Theater",
         "lat": "48.192222",
         "lon": "16.339722",
         "timestamp": ["1898-02-01"],
         "importance": "1"
      }
      }, 
    {
      "type": "Feature",
      "geometry": {
        "type": "Point",
        "coordinates": [16.377439, 48.208532]
      },
      "properties": {
         "id": "pmb199336",
         "title": "Bäckerstraße 20",
         "lat": "48.208532",
         "lon": "16.377439",
         "timestamp": ["1898-02-01"],
         "importance": "1"
      }
      }, 
    {
      "type": "Feature",
      "geometry": {
        "type": "Point",
        "coordinates": [16.369693, 48.204446]
      },
      "properties": {
         "id": "pmb199375",
         "title": "Maysedergasse 4",
         "lat": "48.204446",
         "lon": "16.369693",
         "timestamp": ["1898-02-01", "1898-02-04", "1898-02-05", "1898-02-07", "1898-02-15", "1898-02-17", "1898-02-18"],
         "importance": "7"
      }
      }, 
    {
      "type": "Feature",
      "geometry": {
        "type": "Point",
        "coordinates": [16.383445, 48.201636]
      },
      "properties": {
         "id": "pmb199403",
         "title": "Reisnerstraße 13",
         "lat": "48.201636",
         "lon": "16.383445",
         "timestamp": ["1898-02-16"],
         "importance": "1"
      }
      }, 
    {
      "type": "Feature",
      "geometry": {
        "type": "Point",
        "coordinates": [16.3633523, 48.211807]
      },
      "properties": {
         "id": "pmb1106",
         "title": "Residenzhotel",
         "lat": "48.211807",
         "lon": "16.3633523",
         "timestamp": ["1898-02-02"],
         "importance": "1"
      }
      }, 
    {
      "type": "Feature",
      "geometry": {
        "type": "Point",
        "coordinates": [16.388742, 48.218665]
      },
      "properties": {
         "id": "pmb200410",
         "title": "Heinestraße 36",
         "lat": "48.218665",
         "lon": "16.388742",
         "timestamp": ["1898-02-02", "1898-02-07", "1898-02-15", "1898-02-17", "1898-02-18", "1898-02-19", "1898-02-20", "1898-02-21", "1898-02-26", "1898-02-28"],
         "importance": "10"
      }
      }, 
    {
      "type": "Feature",
      "geometry": {
        "type": "Point",
        "coordinates": [16.370101, 48.207941]
      },
      "properties": {
         "id": "pmb200436",
         "title": "Dorotheergasse 3",
         "lat": "48.207941",
         "lon": "16.370101",
         "timestamp": ["1898-02-25"],
         "importance": "1"
      }
      }, 
    {
      "type": "Feature",
      "geometry": {
        "type": "Point",
        "coordinates": [16.3748, 48.20846]
      },
      "properties": {
         "id": "pmb42812",
         "title": "Café Scheuchenstuel",
         "lat": "48.20846",
         "lon": "16.3748",
         "timestamp": ["1898-02-04"],
         "importance": "1"
      }
      }, 
    {
      "type": "Feature",
      "geometry": {
        "type": "Point",
        "coordinates": [13.022095, 47.775522]
      },
      "properties": {
         "id": "pmb200660",
         "title": "Kuranstalt Marienbad",
         "lat": "47.775522",
         "lon": "13.022095",
         "timestamp": ["1898-02-10"],
         "importance": "1"
      }
      }
  ]
}