{
  "type": "FeatureCollection",
  "features": [
    {
      "type": "Feature", 
      "geometry": {
        "type": "LineString", 
        "coordinates": [
            [16.36743, 48.208786], 
            [16.369693, 48.204446], 
            [16.412923, 48.209044], 
            [16.388742, 48.218665], 
            [16.35736, 48.21533]
          ]
      },
      "properties": {
        "name": "22. März 1898"
      }
    },
    {
      "type": "Feature",
      "geometry": {
        "type": "Point",
        "coordinates": [
          16.36743, 48.208786
        ]
      },
      "properties": {
        "title": "Café Pucher",
        "timestamp": ["1898-03-22"],
        "pmb": "https://pmb.acdh.oeaw.ac.at/entity//"
      }
      },
    {
      "type": "Feature",
      "geometry": {
        "type": "Point",
        "coordinates": [
          16.369693, 48.204446
        ]
      },
      "properties": {
        "title": "Maysedergasse 4",
        "timestamp": ["1898-03-22"],
        "pmb": "https://pmb.acdh.oeaw.ac.at/entity//"
      }
      },
    {
      "type": "Feature",
      "geometry": {
        "type": "Point",
        "coordinates": [
          16.388742, 48.218665
        ]
      },
      "properties": {
        "title": "Heinestraße 36",
        "timestamp": ["1898-03-22"],
        "pmb": "https://pmb.acdh.oeaw.ac.at/entity//"
      }
      },
    {
      "type": "Feature",
      "geometry": {
        "type": "Point",
        "coordinates": [
          16.35736, 48.21533
        ]
      },
      "properties": {
        "title": "Frankgasse 1",
        "timestamp": ["1898-03-22"],
        "pmb": "https://pmb.acdh.oeaw.ac.at/entity//"
      }
      },
    {
      "type": "Feature",
      "geometry": {
        "type": "Point",
        "coordinates": [
          16.412923, 48.209044
        ]
      },
      "properties": {
        "title": "Krieau",
        "timestamp": ["1898-03-22"],
        "pmb": "https://pmb.acdh.oeaw.ac.at/entity//"
      }
      }
  ]
}