{
  "type": "FeatureCollection",
  "features": [
    {
      "type": "Feature", 
      "geometry": {
        "type": "LineString", 
        "coordinates": [
            [12.82727, 47.22729], 
            [13.140375, 47.119503], 
            [13.13467, 47.11547], 
            [15.28333, 47.41667], 
            [13.02265, 47.28075]
          ]
      },
      "properties": {
        "name": "20. Juli 1898"
      }
    },
    {
      "type": "Feature",
      "geometry": {
        "type": "Point",
        "coordinates": [
          12.82727, 47.22729
        ]
      },
      "properties": {
        "title": "Fusch an der Großglocknerstraße",
        "timestamp": ["1898-07-20"],
        "pmb": "https://pmb.acdh.oeaw.ac.at/entity//"
      }
      },
    {
      "type": "Feature",
      "geometry": {
        "type": "Point",
        "coordinates": [
          13.02265, 47.28075
        ]
      },
      "properties": {
        "title": "Lend",
        "timestamp": ["1898-07-20"],
        "pmb": "https://pmb.acdh.oeaw.ac.at/entity//"
      }
      },
    {
      "type": "Feature",
      "geometry": {
        "type": "Point",
        "coordinates": [
          13.13467, 47.11547
        ]
      },
      "properties": {
        "title": "Bad Gastein",
        "timestamp": ["1898-07-20"],
        "pmb": "https://pmb.acdh.oeaw.ac.at/entity//", 
        "wikipedia": "https://de.wikipedia.org/wiki/Bad_Gastein"
      }
      },
    {
      "type": "Feature",
      "geometry": {
        "type": "Point",
        "coordinates": [
          15.28333, 47.41667
        ]
      },
      "properties": {
        "title": "Bruck an der Mur",
        "timestamp": ["1898-07-20"],
        "pmb": "https://pmb.acdh.oeaw.ac.at/entity//", 
        "wikipedia": "https://de.wikipedia.org/wiki/Bruck_an_der_Mur"
      }
      },
    {
      "type": "Feature",
      "geometry": {
        "type": "Point",
        "coordinates": [
          13.140375, 47.119503
        ]
      },
      "properties": {
        "title": "Villa Dr. Wassing",
        "timestamp": ["1898-07-20"],
        "pmb": "https://pmb.acdh.oeaw.ac.at/entity//"
      }
      }
  ]
}