{
  "type": "FeatureCollection",
  "features": [
    {
      "type": "Feature", 
      "geometry": {
        "type": "LineString", 
        "coordinates": [
            [15.49145, 47.67556], 
            [15.56248, 47.54728], 
            [15.67877, 47.61131], 
            [15.8241, 47.64224], 
            [16.373056, 48.208333], 
            [16.35736, 48.21533]
          ]
      },
      "properties": {
        "name": "5. Juni 1898"
      }
    },
    {
      "type": "Feature",
      "geometry": {
        "type": "Point",
        "coordinates": [
          16.373056, 48.208333
        ]
      },
      "properties": {
        "title": "Wien",
        "timestamp": ["1898-06-05"],
        "pmb": "https://pmb.acdh.oeaw.ac.at/entity//", 
        "wikipedia": "https://de.wikipedia.org/wiki/Wien"
      }
      },
    {
      "type": "Feature",
      "geometry": {
        "type": "Point",
        "coordinates": [
          15.8241, 47.64224
        ]
      },
      "properties": {
        "title": "Semmering",
        "timestamp": ["1898-06-05"],
        "pmb": "https://pmb.acdh.oeaw.ac.at/entity//", 
        "wikipedia": "https://de.wikipedia.org/wiki/Semmering_(Nieder%C3%B6sterreich)"
      }
      },
    {
      "type": "Feature",
      "geometry": {
        "type": "Point",
        "coordinates": [
          15.67877, 47.61131
        ]
      },
      "properties": {
        "title": "Mürzzuschlag",
        "timestamp": ["1898-06-05"],
        "pmb": "https://pmb.acdh.oeaw.ac.at/entity//", 
        "wikipedia": "https://de.wikipedia.org/wiki/M%C3%BCrzzuschlag"
      }
      },
    {
      "type": "Feature",
      "geometry": {
        "type": "Point",
        "coordinates": [
          15.56248, 47.54728
        ]
      },
      "properties": {
        "title": "Krieglach",
        "timestamp": ["1898-06-05"],
        "pmb": "https://pmb.acdh.oeaw.ac.at/entity//"
      }
      },
    {
      "type": "Feature",
      "geometry": {
        "type": "Point",
        "coordinates": [
          15.49145, 47.67556
        ]
      },
      "properties": {
        "title": "Mürzsteg",
        "timestamp": ["1898-06-05"],
        "pmb": "https://pmb.acdh.oeaw.ac.at/entity//"
      }
      },
    {
      "type": "Feature",
      "geometry": {
        "type": "Point",
        "coordinates": [
          16.35736, 48.21533
        ]
      },
      "properties": {
        "title": "Frankgasse 1",
        "timestamp": ["1898-06-05"],
        "pmb": "https://pmb.acdh.oeaw.ac.at/entity//"
      }
      }
  ]
}