{
  "type": "FeatureCollection",
  "features": [
    {
      "type": "Feature", 
      "geometry": {
        "type": "LineString", 
        "coordinates": [
            [16.348055761094, 48.212122153542], 
            [16.347528, 48.211968], 
            [16.373056, 48.208333], 
            [16.495, 48.165833333333], 
            [16.35468, 48.27475], 
            [16.359721, 48.216481], 
            [16.35736, 48.21533]
          ]
      },
      "properties": {
        "name": "14. Mai 1898"
      }
    },
    {
      "type": "Feature",
      "geometry": {
        "type": "Point",
        "coordinates": [
          16.373056, 48.208333
        ]
      },
      "properties": {
        "title": "Wien",
        "timestamp": ["1898-05-14"],
        "pmb": "https://pmb.acdh.oeaw.ac.at/entity//", 
        "wikipedia": "https://de.wikipedia.org/wiki/Wien"
      }
      },
    {
      "type": "Feature",
      "geometry": {
        "type": "Point",
        "coordinates": [
          16.495, 48.165833333333
        ]
      },
      "properties": {
        "title": "Praterspitz",
        "timestamp": ["1898-05-14"],
        "pmb": "https://pmb.acdh.oeaw.ac.at/entity//"
      }
      },
    {
      "type": "Feature",
      "geometry": {
        "type": "Point",
        "coordinates": [
          16.359721, 48.216481
        ]
      },
      "properties": {
        "title": "Alt Pilsenetzer Bierhalle",
        "timestamp": ["1898-05-14"],
        "pmb": "https://pmb.acdh.oeaw.ac.at/entity//"
      }
      },
    {
      "type": "Feature",
      "geometry": {
        "type": "Point",
        "coordinates": [
          16.347528, 48.211968
        ]
      },
      "properties": {
        "title": "Tempel Florianigasse",
        "timestamp": ["1898-05-14"],
        "pmb": "https://pmb.acdh.oeaw.ac.at/entity//"
      }
      },
    {
      "type": "Feature",
      "geometry": {
        "type": "Point",
        "coordinates": [
          16.35736, 48.21533
        ]
      },
      "properties": {
        "title": "Frankgasse 1",
        "timestamp": ["1898-05-14"],
        "pmb": "https://pmb.acdh.oeaw.ac.at/entity//"
      }
      },
    {
      "type": "Feature",
      "geometry": {
        "type": "Point",
        "coordinates": [
          16.35468, 48.27475
        ]
      },
      "properties": {
        "title": "Kahlenbergerdorf",
        "timestamp": ["1898-05-14"],
        "pmb": "https://pmb.acdh.oeaw.ac.at/entity//"
      }
      },
    {
      "type": "Feature",
      "geometry": {
        "type": "Point",
        "coordinates": [
          16.348055761094, 48.212122153542
        ]
      },
      "properties": {
        "title": "Florianigasse",
        "timestamp": ["1898-05-14"],
        "pmb": "https://pmb.acdh.oeaw.ac.at/entity//"
      }
      }
  ]
}