{
  "type": "FeatureCollection",
  "features": [
    {
      "type": "Feature",
      "geometry": {
        "type": "Point",
        "coordinates": [16.373056, 48.208333]
      },
      "properties": {
         "id": "pmb50",
         "title": "Wien",
         "lat": "48.208333",
         "lon": "16.373056",
         "timestamp": ["1898-11-01", "1898-11-02", "1898-11-03", "1898-11-04", "1898-11-05", "1898-11-06", "1898-11-07", "1898-11-08", "1898-11-09", "1898-11-10", "1898-11-11", "1898-11-12", "1898-11-13", "1898-11-14", "1898-11-15", "1898-11-16", "1898-11-17", "1898-11-18", "1898-11-19", "1898-11-20", "1898-11-21", "1898-11-22", "1898-11-23", "1898-11-24", "1898-11-25", "1898-11-26", "1898-11-27", "1898-11-28", "1898-11-29", "1898-11-30"],
         "importance": "30"
      }
      }, 
    {
      "type": "Feature",
      "geometry": {
        "type": "Point",
        "coordinates": [16.3691, 48.203]
      },
      "properties": {
         "id": "pmb15",
         "title": "Oper",
         "lat": "48.203",
         "lon": "16.3691",
         "timestamp": ["1898-11-12"],
         "importance": "1"
      }
      }, 
    {
      "type": "Feature",
      "geometry": {
        "type": "Point",
        "coordinates": [16.384444, 48.215]
      },
      "properties": {
         "id": "pmb118",
         "title": "Carl-Theater",
         "lat": "48.215",
         "lon": "16.384444",
         "timestamp": ["1898-11-05", "1898-11-19"],
         "importance": "2"
      }
      }, 
    {
      "type": "Feature",
      "geometry": {
        "type": "Point",
        "coordinates": [16.361139, 48.210333]
      },
      "properties": {
         "id": "pmb14",
         "title": "Burgtheater",
         "lat": "48.210333",
         "lon": "16.361139",
         "timestamp": ["1898-11-10", "1898-11-11", "1898-11-12", "1898-11-14", "1898-11-16", "1898-11-17", "1898-11-19", "1898-11-22", "1898-11-26", "1898-11-28", "1898-11-29", "1898-11-30"],
         "importance": "12"
      }
      }, 
    {
      "type": "Feature",
      "geometry": {
        "type": "Point",
        "coordinates": [16.29101, 48.17547]
      },
      "properties": {
         "id": "pmb63",
         "title": "XIII., Hietzing",
         "lat": "48.17547",
         "lon": "16.29101",
         "timestamp": ["1898-11-10"],
         "importance": "1"
      }
      }, 
    {
      "type": "Feature",
      "geometry": {
        "type": "Point",
        "coordinates": [16.3566, 48.205142]
      },
      "properties": {
         "id": "pmb20",
         "title": "Volkstheater",
         "lat": "48.205142",
         "lon": "16.3566",
         "timestamp": ["1898-11-11"],
         "importance": "1"
      }
      }, 
    {
      "type": "Feature",
      "geometry": {
        "type": "Point",
        "coordinates": [16.36028, 48.217575]
      },
      "properties": {
         "id": "pmb34106",
         "title": "Zum silbernen Brunnen",
         "lat": "48.217575",
         "lon": "16.36028",
         "timestamp": ["1898-11-19"],
         "importance": "1"
      }
      }, 
    {
      "type": "Feature",
      "geometry": {
        "type": "Point",
        "coordinates": [16.370291, 48.208619]
      },
      "properties": {
         "id": "pmb49",
         "title": "Café Pfob",
         "lat": "48.208619",
         "lon": "16.370291",
         "timestamp": ["1898-11-30"],
         "importance": "1"
      }
      }, 
    {
      "type": "Feature",
      "geometry": {
        "type": "Point",
        "coordinates": [16.34706, 48.21126]
      },
      "properties": {
         "id": "pmb58",
         "title": "VIII., Josefstadt",
         "lat": "48.21126",
         "lon": "16.34706",
         "timestamp": ["1898-11-08", "1898-11-09"],
         "importance": "2"
      }
      }, 
    {
      "type": "Feature",
      "geometry": {
        "type": "Point",
        "coordinates": [16.380905, 48.198484]
      },
      "properties": {
         "id": "pmb192623",
         "title": "Salesianergasse 12",
         "lat": "48.198484",
         "lon": "16.380905",
         "timestamp": ["1898-11-27"],
         "importance": "1"
      }
      }, 
    {
      "type": "Feature",
      "geometry": {
        "type": "Point",
        "coordinates": [16.35736, 48.21533]
      },
      "properties": {
         "id": "pmb168934",
         "title": "Frankgasse 1",
         "lat": "48.21533",
         "lon": "16.35736",
         "timestamp": ["1898-11-01", "1898-11-02", "1898-11-03", "1898-11-04", "1898-11-05", "1898-11-06", "1898-11-07", "1898-11-08", "1898-11-09", "1898-11-10", "1898-11-11", "1898-11-12", "1898-11-13", "1898-11-14", "1898-11-15", "1898-11-16", "1898-11-17", "1898-11-18", "1898-11-19", "1898-11-20", "1898-11-21", "1898-11-22", "1898-11-23", "1898-11-24", "1898-11-25", "1898-11-26", "1898-11-27", "1898-11-28", "1898-11-29", "1898-11-30"],
         "importance": "30"
      }
      }, 
    {
      "type": "Feature",
      "geometry": {
        "type": "Point",
        "coordinates": [16.339722, 48.192222]
      },
      "properties": {
         "id": "pmb77",
         "title": "Raimund-Theater",
         "lat": "48.192222",
         "lon": "16.339722",
         "timestamp": ["1898-11-16", "1898-11-18", "1898-11-20"],
         "importance": "3"
      }
      }, 
    {
      "type": "Feature",
      "geometry": {
        "type": "Point",
        "coordinates": [16.369693, 48.204446]
      },
      "properties": {
         "id": "pmb199375",
         "title": "Maysedergasse 4",
         "lat": "48.204446",
         "lon": "16.369693",
         "timestamp": ["1898-11-10", "1898-11-12", "1898-11-13", "1898-11-18", "1898-11-22", "1898-11-26", "1898-11-30"],
         "importance": "7"
      }
      }, 
    {
      "type": "Feature",
      "geometry": {
        "type": "Point",
        "coordinates": [16.383445, 48.201636]
      },
      "properties": {
         "id": "pmb199403",
         "title": "Reisnerstraße 13",
         "lat": "48.201636",
         "lon": "16.383445",
         "timestamp": ["1898-11-18"],
         "importance": "1"
      }
      }, 
    {
      "type": "Feature",
      "geometry": {
        "type": "Point",
        "coordinates": [16.388742, 48.218665]
      },
      "properties": {
         "id": "pmb200410",
         "title": "Heinestraße 36",
         "lat": "48.218665",
         "lon": "16.388742",
         "timestamp": ["1898-11-01", "1898-11-17", "1898-11-29"],
         "importance": "3"
      }
      }, 
    {
      "type": "Feature",
      "geometry": {
        "type": "Point",
        "coordinates": [16.337413, 48.177818]
      },
      "properties": {
         "id": "pmb200699",
         "title": "Canalettogasse 3",
         "lat": "48.177818",
         "lon": "16.337413",
         "timestamp": ["1898-11-21"],
         "importance": "1"
      }
      }, 
    {
      "type": "Feature",
      "geometry": {
        "type": "Point",
        "coordinates": [16.366185, 48.208288]
      },
      "properties": {
         "id": "pmb190647",
         "title": "Café Griensteidl [neues, ab 1898]",
         "lat": "48.208288",
         "lon": "16.366185",
         "timestamp": ["1898-11-13"],
         "importance": "1"
      }
      }
  ]
}