{
  "type": "FeatureCollection",
  "features": [
    {
      "type": "Feature",
      "geometry": {
        "type": "Point",
        "coordinates": [16.373056, 48.208333]
      },
      "properties": {
         "id": "pmb50",
         "title": "Wien",
         "lat": "48.208333",
         "lon": "16.373056",
         "timestamp": ["1898-09-03", "1898-09-04", "1898-09-05", "1898-09-06", "1898-09-07", "1898-09-08", "1898-09-09", "1898-09-10", "1898-09-11", "1898-09-12", "1898-09-13", "1898-09-14", "1898-09-15", "1898-09-16", "1898-09-17", "1898-09-18", "1898-09-19", "1898-09-20", "1898-09-21", "1898-09-22", "1898-09-23", "1898-09-24", "1898-09-25", "1898-09-26", "1898-09-27", "1898-09-28", "1898-09-28", "1898-09-29", "1898-09-30"],
         "importance": "29"
      }
      }, 
    {
      "type": "Feature",
      "geometry": {
        "type": "Point",
        "coordinates": [16.3691, 48.203]
      },
      "properties": {
         "id": "pmb15",
         "title": "Oper",
         "lat": "48.203",
         "lon": "16.3691",
         "timestamp": ["1898-09-04", "1898-09-23"],
         "importance": "2"
      }
      }, 
    {
      "type": "Feature",
      "geometry": {
        "type": "Point",
        "coordinates": [16.361139, 48.210333]
      },
      "properties": {
         "id": "pmb14",
         "title": "Burgtheater",
         "lat": "48.210333",
         "lon": "16.361139",
         "timestamp": ["1898-09-05", "1898-09-08", "1898-09-20", "1898-09-21"],
         "importance": "4"
      }
      }, 
    {
      "type": "Feature",
      "geometry": {
        "type": "Point",
        "coordinates": [16.32522, 48.30521]
      },
      "properties": {
         "id": "pmb865",
         "title": "Klosterneuburg",
         "lat": "48.30521",
         "lon": "16.32522",
         "timestamp": ["1898-09-18", "1898-09-19"],
         "importance": "2"
      }
      }, 
    {
      "type": "Feature",
      "geometry": {
        "type": "Point",
        "coordinates": [11.389534, 47.272569]
      },
      "properties": {
         "id": "pmb867",
         "title": "Innsbruck",
         "lat": "47.272569",
         "lon": "11.389534",
         "timestamp": ["1898-09-02", "1898-09-03"],
         "importance": "2"
      }
      }, 
    {
      "type": "Feature",
      "geometry": {
        "type": "Point",
        "coordinates": [16.371614, 48.201589]
      },
      "properties": {
         "id": "pmb182664",
         "title": "Café zum Künstlerhaus",
         "lat": "48.201589",
         "lon": "16.371614",
         "timestamp": ["1898-09-26"],
         "importance": "1"
      }
      }, 
    {
      "type": "Feature",
      "geometry": {
        "type": "Point",
        "coordinates": [16.374618, 48.204074]
      },
      "properties": {
         "id": "pmb187186",
         "title": "Kaffehaus Ferdinand Gause",
         "lat": "48.204074",
         "lon": "16.374618",
         "timestamp": ["1898-09-26"],
         "importance": "1"
      }
      }, 
    {
      "type": "Feature",
      "geometry": {
        "type": "Point",
        "coordinates": [16.3566, 48.205142]
      },
      "properties": {
         "id": "pmb20",
         "title": "Volkstheater",
         "lat": "48.205142",
         "lon": "16.3566",
         "timestamp": ["1898-09-24"],
         "importance": "1"
      }
      }, 
    {
      "type": "Feature",
      "geometry": {
        "type": "Point",
        "coordinates": [16.361378, 48.203661]
      },
      "properties": {
         "id": "pmb47660",
         "title": "Kunsthistorisches Museum",
         "lat": "48.203661",
         "lon": "16.361378",
         "timestamp": ["1898-09-21"],
         "importance": "1"
      }
      }, 
    {
      "type": "Feature",
      "geometry": {
        "type": "Point",
        "coordinates": [16.26269, 48.24616]
      },
      "properties": {
         "id": "pmb456",
         "title": "Rohrerhütte",
         "lat": "48.24616",
         "lon": "16.26269",
         "timestamp": ["1898-09-11"],
         "importance": "1"
      }
      }, 
    {
      "type": "Feature",
      "geometry": {
        "type": "Point",
        "coordinates": [16.35736, 48.21533]
      },
      "properties": {
         "id": "pmb168934",
         "title": "Frankgasse 1",
         "lat": "48.21533",
         "lon": "16.35736",
         "timestamp": ["1898-09-03", "1898-09-04", "1898-09-05", "1898-09-06", "1898-09-07", "1898-09-08", "1898-09-09", "1898-09-10", "1898-09-11", "1898-09-12", "1898-09-13", "1898-09-14", "1898-09-15", "1898-09-16", "1898-09-17", "1898-09-18", "1898-09-19", "1898-09-20", "1898-09-21", "1898-09-22", "1898-09-23", "1898-09-24", "1898-09-25", "1898-09-26", "1898-09-27", "1898-09-28", "1898-09-29", "1898-09-30"],
         "importance": "28"
      }
      }, 
    {
      "type": "Feature",
      "geometry": {
        "type": "Point",
        "coordinates": [16.39467, 48.21699]
      },
      "properties": {
         "id": "pmb422",
         "title": "Venedig in Wien",
         "lat": "48.21699",
         "lon": "16.39467",
         "timestamp": ["1898-09-18"],
         "importance": "1"
      }
      }, 
    {
      "type": "Feature",
      "geometry": {
        "type": "Point",
        "coordinates": [16.359721, 48.216481]
      },
      "properties": {
         "id": "pmb184975",
         "title": "Alt Pilsenetzer Bierhalle",
         "lat": "48.216481",
         "lon": "16.359721",
         "timestamp": ["1898-09-06", "1898-09-10", "1898-09-26"],
         "importance": "3"
      }
      }, 
    {
      "type": "Feature",
      "geometry": {
        "type": "Point",
        "coordinates": [16.369693, 48.204446]
      },
      "properties": {
         "id": "pmb199375",
         "title": "Maysedergasse 4",
         "lat": "48.204446",
         "lon": "16.369693",
         "timestamp": ["1898-09-03", "1898-09-04", "1898-09-05", "1898-09-06", "1898-09-08", "1898-09-10", "1898-09-13", "1898-09-15", "1898-09-17", "1898-09-20", "1898-09-23", "1898-09-25", "1898-09-26", "1898-09-29"],
         "importance": "14"
      }
      }, 
    {
      "type": "Feature",
      "geometry": {
        "type": "Point",
        "coordinates": [16.388742, 48.218665]
      },
      "properties": {
         "id": "pmb200410",
         "title": "Heinestraße 36",
         "lat": "48.218665",
         "lon": "16.388742",
         "timestamp": ["1898-09-12", "1898-09-20", "1898-09-23", "1898-09-29", "1898-09-30"],
         "importance": "5"
      }
      }, 
    {
      "type": "Feature",
      "geometry": {
        "type": "Point",
        "coordinates": [16.370101, 48.207941]
      },
      "properties": {
         "id": "pmb200436",
         "title": "Dorotheergasse 3",
         "lat": "48.207941",
         "lon": "16.370101",
         "timestamp": ["1898-09-30"],
         "importance": "1"
      }
      }, 
    {
      "type": "Feature",
      "geometry": {
        "type": "Point",
        "coordinates": [9.15917, 45.19205]
      },
      "properties": {
         "id": "pmb41018",
         "title": "Pavia",
         "lat": "45.19205",
         "lon": "9.15917",
         "timestamp": ["1898-09-10"],
         "importance": "1"
      }
      }, 
    {
      "type": "Feature",
      "geometry": {
        "type": "Point",
        "coordinates": [11.88586, 45.40797]
      },
      "properties": {
         "id": "pmb899",
         "title": "Padua",
         "lat": "45.40797",
         "lon": "11.88586",
         "timestamp": ["1898-09-01"],
         "importance": "1"
      }
      }, 
    {
      "type": "Feature",
      "geometry": {
        "type": "Point",
        "coordinates": [10.98444, 45.4299]
      },
      "properties": {
         "id": "pmb900",
         "title": "Verona",
         "lat": "45.4299",
         "lon": "10.98444",
         "timestamp": ["1898-09-01", "1898-09-02"],
         "importance": "2"
      }
      }, 
    {
      "type": "Feature",
      "geometry": {
        "type": "Point",
        "coordinates": [10.994444444444, 45.438888888889]
      },
      "properties": {
         "id": "pmb201000",
         "title": "Verona Arena",
         "lat": "45.438888888889",
         "lon": "10.994444444444",
         "timestamp": ["1898-09-01"],
         "importance": "1"
      }
      }, 
    {
      "type": "Feature",
      "geometry": {
        "type": "Point",
        "coordinates": [16.25, 48.2]
      },
      "properties": {
         "id": "pmb49051",
         "title": "Mariabrunn",
         "lat": "48.2",
         "lon": "16.25",
         "timestamp": ["1898-09-11"],
         "importance": "1"
      }
      }, 
    {
      "type": "Feature",
      "geometry": {
        "type": "Point",
        "coordinates": [16.16793, 48.24514]
      },
      "properties": {
         "id": "pmb942",
         "title": "Mauerbach",
         "lat": "48.24514",
         "lon": "16.16793",
         "timestamp": ["1898-09-11", "1898-09-18"],
         "importance": "2"
      }
      }, 
    {
      "type": "Feature",
      "geometry": {
        "type": "Point",
        "coordinates": [16.40924, 48.21234]
      },
      "properties": {
         "id": "pmb201007",
         "title": "Jubiläumsausstellung 1898",
         "lat": "48.21234",
         "lon": "16.40924",
         "timestamp": ["1898-09-13", "1898-09-18"],
         "importance": "2"
      }
      }, 
    {
      "type": "Feature",
      "geometry": {
        "type": "Point",
        "coordinates": [16.361963, 48.211271]
      },
      "properties": {
         "id": "pmb194883",
         "title": "Löwenbräu-Bierhalle",
         "lat": "48.211271",
         "lon": "16.361963",
         "timestamp": ["1898-09-21"],
         "importance": "1"
      }
      }
  ]
}