{
  "type": "FeatureCollection",
  "features": [
    {
      "type": "Feature", 
      "geometry": {
        "type": "LineString", 
        "coordinates": [
            [13.609575, 47.706537], 
            [13.61893, 47.71109], 
            [11.57549, 48.13743], 
            [11.561467767769052, 48.13907960520144], 
            [11.575608, 48.131003]
          ]
      },
      "properties": {
        "name": "12. September 1899"
      }
    },
    {
      "type": "Feature",
      "geometry": {
        "type": "Point",
        "coordinates": [
          13.61893, 47.71109
        ]
      },
      "properties": {
        "title": "Bad Ischl",
        "timestamp": ["1899-09-12"],
        "pmb": "https://pmb.acdh.oeaw.ac.at/entity//", 
        "wikipedia": "https://de.wikipedia.org/wiki/Bad_Ischl"
      }
      },
    {
      "type": "Feature",
      "geometry": {
        "type": "Point",
        "coordinates": [
          13.609575, 47.706537
        ]
      },
      "properties": {
        "title": "Hotel und Pension Rudolfshöhe (Leopold Petter)",
        "timestamp": ["1899-09-12"],
        "pmb": "https://pmb.acdh.oeaw.ac.at/entity//"
      }
      },
    {
      "type": "Feature",
      "geometry": {
        "type": "Point",
        "coordinates": [
          11.57549, 48.13743
        ]
      },
      "properties": {
        "title": "München",
        "timestamp": ["1899-09-12"],
        "pmb": "https://pmb.acdh.oeaw.ac.at/entity//", 
        "wikipedia": "https://de.wikipedia.org/wiki/M%C3%BCnchen"
      }
      },
    {
      "type": "Feature",
      "geometry": {
        "type": "Point",
        "coordinates": [
          11.561467767769052, 48.13907960520144
        ]
      },
      "properties": {
        "title": "Hotel Rheinischer Hof München",
        "timestamp": ["1899-09-12"],
        "pmb": "https://pmb.acdh.oeaw.ac.at/entity//"
      }
      },
    {
      "type": "Feature",
      "geometry": {
        "type": "Point",
        "coordinates": [
          11.575608, 48.131003
        ]
      },
      "properties": {
        "title": "Staatstheater am Gärtnerplatz",
        "timestamp": ["1899-09-12"],
        "pmb": "https://pmb.acdh.oeaw.ac.at/entity//"
      }
      }
  ]
}