{
  "type": "FeatureCollection",
  "features": [
    {
      "type": "Feature",
      "geometry": {
        "type": "Point",
        "coordinates": [16.3957, 48.217566]
      },
      "properties": {
         "id": "pmb43280",
         "title": "Jantsch-Theater",
         "lat": "48.217566",
         "lon": "16.3957",
         "timestamp": ["1899-01-11"],
         "importance": "1"
      }
      }, 
    {
      "type": "Feature",
      "geometry": {
        "type": "Point",
        "coordinates": [16.373056, 48.208333]
      },
      "properties": {
         "id": "pmb50",
         "title": "Wien",
         "lat": "48.208333",
         "lon": "16.373056",
         "timestamp": ["1899-01-01", "1899-01-02", "1899-01-03", "1899-01-04", "1899-01-05", "1899-01-06", "1899-01-08", "1899-01-09", "1899-01-10", "1899-01-12", "1899-01-13", "1899-01-14", "1899-01-15", "1899-01-16", "1899-01-17", "1899-01-18", "1899-01-19", "1899-01-20", "1899-01-21", "1899-01-24", "1899-01-25", "1899-01-26", "1899-01-27", "1899-01-28", "1899-01-29", "1899-01-30", "1899-01-31"],
         "importance": "27"
      }
      }, 
    {
      "type": "Feature",
      "geometry": {
        "type": "Point",
        "coordinates": [16.361139, 48.210333]
      },
      "properties": {
         "id": "pmb14",
         "title": "Burgtheater",
         "lat": "48.210333",
         "lon": "16.361139",
         "timestamp": ["1899-01-04", "1899-01-10", "1899-01-13", "1899-01-14", "1899-01-19", "1899-01-24", "1899-01-26"],
         "importance": "7"
      }
      }, 
    {
      "type": "Feature",
      "geometry": {
        "type": "Point",
        "coordinates": [16.3734013, 48.2098832]
      },
      "properties": {
         "id": "pmb42749",
         "title": "Stefanskeller",
         "lat": "48.2098832",
         "lon": "16.3734013",
         "timestamp": ["1899-01-01"],
         "importance": "1"
      }
      }, 
    {
      "type": "Feature",
      "geometry": {
        "type": "Point",
        "coordinates": [15.93893, 47.67487]
      },
      "properties": {
         "id": "pmb50715",
         "title": "Gloggnitz",
         "lat": "47.67487",
         "lon": "15.93893",
         "timestamp": ["1899-01-23"],
         "importance": "1"
      }
      }, 
    {
      "type": "Feature",
      "geometry": {
        "type": "Point",
        "coordinates": [16.29101, 48.17547]
      },
      "properties": {
         "id": "pmb63",
         "title": "XIII., Hietzing",
         "lat": "48.17547",
         "lon": "16.29101",
         "timestamp": ["1899-01-07", "1899-01-22", "1899-01-23"],
         "importance": "3"
      }
      }, 
    {
      "type": "Feature",
      "geometry": {
        "type": "Point",
        "coordinates": [16.362245, 48.21079]
      },
      "properties": {
         "id": "pmb199958",
         "title": "Löwelstraße 14",
         "lat": "48.21079",
         "lon": "16.362245",
         "timestamp": ["1899-01-08", "1899-01-25"],
         "importance": "2"
      }
      }, 
    {
      "type": "Feature",
      "geometry": {
        "type": "Point",
        "coordinates": [16.37968, 48.213595]
      },
      "properties": {
         "id": "pmb92180",
         "title": "Budapest-Orpheum",
         "lat": "48.213595",
         "lon": "16.37968",
         "timestamp": ["1899-01-07"],
         "importance": "1"
      }
      }, 
    {
      "type": "Feature",
      "geometry": {
        "type": "Point",
        "coordinates": [16.37078, 48.207537]
      },
      "properties": {
         "id": "pmb190962",
         "title": "Matschakerhof",
         "lat": "48.207537",
         "lon": "16.37078",
         "timestamp": ["1899-01-16"],
         "importance": "1"
      }
      }, 
    {
      "type": "Feature",
      "geometry": {
        "type": "Point",
        "coordinates": [16.361378, 48.203661]
      },
      "properties": {
         "id": "pmb47660",
         "title": "Kunsthistorisches Museum",
         "lat": "48.203661",
         "lon": "16.361378",
         "timestamp": ["1899-01-11", "1899-01-17"],
         "importance": "2"
      }
      }, 
    {
      "type": "Feature",
      "geometry": {
        "type": "Point",
        "coordinates": [16.35736, 48.21533]
      },
      "properties": {
         "id": "pmb168934",
         "title": "Frankgasse 1",
         "lat": "48.21533",
         "lon": "16.35736",
         "timestamp": ["1899-01-02", "1899-01-11", "1899-01-13", "1899-01-14", "1899-01-16", "1899-01-17", "1899-01-18", "1899-01-20", "1899-01-24", "1899-01-27", "1899-01-30", "1899-01-31"],
         "importance": "12"
      }
      }, 
    {
      "type": "Feature",
      "geometry": {
        "type": "Point",
        "coordinates": [16.369693, 48.204446]
      },
      "properties": {
         "id": "pmb199375",
         "title": "Maysedergasse 4",
         "lat": "48.204446",
         "lon": "16.369693",
         "timestamp": ["1899-01-01", "1899-01-03", "1899-01-04", "1899-01-05", "1899-01-06", "1899-01-08", "1899-01-11", "1899-01-12", "1899-01-14", "1899-01-18", "1899-01-19", "1899-01-21", "1899-01-25", "1899-01-28", "1899-01-29"],
         "importance": "15"
      }
      }, 
    {
      "type": "Feature",
      "geometry": {
        "type": "Point",
        "coordinates": [16.388742, 48.218665]
      },
      "properties": {
         "id": "pmb200410",
         "title": "Heinestraße 36",
         "lat": "48.218665",
         "lon": "16.388742",
         "timestamp": ["1899-01-02", "1899-01-10"],
         "importance": "2"
      }
      }, 
    {
      "type": "Feature",
      "geometry": {
        "type": "Point",
        "coordinates": [16.366091, 48.214406]
      },
      "properties": {
         "id": "pmb201160",
         "title": "Wipplingerstraße 33",
         "lat": "48.214406",
         "lon": "16.366091",
         "timestamp": ["1899-01-18", "1899-01-31"],
         "importance": "2"
      }
      }
  ]
}