{
  "type": "FeatureCollection",
  "features": [
    {
      "type": "Feature",
      "geometry": {
        "type": "Point",
        "coordinates": [16.373056, 48.208333]
      },
      "properties": {
         "id": "pmb50",
         "title": "Wien",
         "lat": "48.208333",
         "lon": "16.373056",
         "timestamp": ["1899-11-01", "1899-11-02", "1899-11-03", "1899-11-04", "1899-11-05", "1899-11-06", "1899-11-07", "1899-11-08", "1899-11-09", "1899-11-10", "1899-11-11", "1899-11-12", "1899-11-13", "1899-11-14", "1899-11-15", "1899-11-16", "1899-11-17", "1899-11-18", "1899-11-19", "1899-11-20", "1899-11-21", "1899-11-22", "1899-11-23", "1899-11-24", "1899-11-25", "1899-11-26", "1899-11-27", "1899-11-28", "1899-11-29", "1899-11-30"],
         "importance": "30"
      }
      }, 
    {
      "type": "Feature",
      "geometry": {
        "type": "Point",
        "coordinates": [16.372564182283, 48.201265597319]
      },
      "properties": {
         "id": "pmb516",
         "title": "Musikverein",
         "lat": "48.201265597319",
         "lon": "16.372564182283",
         "timestamp": ["1899-11-14", "1899-11-21"],
         "importance": "2"
      }
      }, 
    {
      "type": "Feature",
      "geometry": {
        "type": "Point",
        "coordinates": [16.366111, 48.209167]
      },
      "properties": {
         "id": "pmb4",
         "title": "Bösendorfer-Saal",
         "lat": "48.209167",
         "lon": "16.366111",
         "timestamp": ["1899-11-24"],
         "importance": "1"
      }
      }, 
    {
      "type": "Feature",
      "geometry": {
        "type": "Point",
        "coordinates": [16.3642, 48.19941]
      },
      "properties": {
         "id": "pmb37",
         "title": "Theater an der Wien",
         "lat": "48.19941",
         "lon": "16.3642",
         "timestamp": ["1899-11-22"],
         "importance": "1"
      }
      }, 
    {
      "type": "Feature",
      "geometry": {
        "type": "Point",
        "coordinates": [16.361139, 48.210333]
      },
      "properties": {
         "id": "pmb14",
         "title": "Burgtheater",
         "lat": "48.210333",
         "lon": "16.361139",
         "timestamp": ["1899-11-05", "1899-11-06", "1899-11-25"],
         "importance": "3"
      }
      }, 
    {
      "type": "Feature",
      "geometry": {
        "type": "Point",
        "coordinates": [16.378011, 48.205565]
      },
      "properties": {
         "id": "pmb182754",
         "title": "Gartenbausäle",
         "lat": "48.205565",
         "lon": "16.378011",
         "timestamp": ["1899-11-11"],
         "importance": "1"
      }
      }, 
    {
      "type": "Feature",
      "geometry": {
        "type": "Point",
        "coordinates": [16.3538456, 48.2134031]
      },
      "properties": {
         "id": "pmb44",
         "title": "Riedhof",
         "lat": "48.2134031",
         "lon": "16.3538456",
         "timestamp": ["1899-11-02", "1899-11-25"],
         "importance": "2"
      }
      }, 
    {
      "type": "Feature",
      "geometry": {
        "type": "Point",
        "coordinates": [16.355191, 48.248422]
      },
      "properties": {
         "id": "pmb92292",
         "title": "Hohe Warte",
         "lat": "48.248422",
         "lon": "16.355191",
         "timestamp": ["1899-11-14"],
         "importance": "1"
      }
      }, 
    {
      "type": "Feature",
      "geometry": {
        "type": "Point",
        "coordinates": [16.36028, 48.217575]
      },
      "properties": {
         "id": "pmb34106",
         "title": "Zum silbernen Brunnen",
         "lat": "48.217575",
         "lon": "16.36028",
         "timestamp": ["1899-11-12"],
         "importance": "1"
      }
      }, 
    {
      "type": "Feature",
      "geometry": {
        "type": "Point",
        "coordinates": [16.371211, 48.206416]
      },
      "properties": {
         "id": "pmb96",
         "title": "Meissl & Schadn",
         "lat": "48.206416",
         "lon": "16.371211",
         "timestamp": ["1899-11-20"],
         "importance": "1"
      }
      }, 
    {
      "type": "Feature",
      "geometry": {
        "type": "Point",
        "coordinates": [16.300034240016, 48.246838181084]
      },
      "properties": {
         "id": "pmb169",
         "title": "Pötzleinsdorf",
         "lat": "48.246838181084",
         "lon": "16.300034240016",
         "timestamp": ["1899-11-15"],
         "importance": "1"
      }
      }, 
    {
      "type": "Feature",
      "geometry": {
        "type": "Point",
        "coordinates": [16.375924, 48.208656]
      },
      "properties": {
         "id": "pmb190427",
         "title": "Wollzeile 15 (»Berthahof«)",
         "lat": "48.208656",
         "lon": "16.375924",
         "timestamp": ["1899-11-01", "1899-11-05"],
         "importance": "2"
      }
      }, 
    {
      "type": "Feature",
      "geometry": {
        "type": "Point",
        "coordinates": [16.370064, 48.202791]
      },
      "properties": {
         "id": "pmb205",
         "title": "Hotel Bristol Wien",
         "lat": "48.202791",
         "lon": "16.370064",
         "timestamp": ["1899-11-19", "1899-11-24", "1899-11-29"],
         "importance": "3"
      }
      }, 
    {
      "type": "Feature",
      "geometry": {
        "type": "Point",
        "coordinates": [16.35736, 48.21533]
      },
      "properties": {
         "id": "pmb168934",
         "title": "Frankgasse 1",
         "lat": "48.21533",
         "lon": "16.35736",
         "timestamp": ["1899-11-01", "1899-11-02", "1899-11-03", "1899-11-04", "1899-11-05", "1899-11-06", "1899-11-07", "1899-11-08", "1899-11-09", "1899-11-10", "1899-11-11", "1899-11-12", "1899-11-13", "1899-11-14", "1899-11-15", "1899-11-16", "1899-11-17", "1899-11-18", "1899-11-19", "1899-11-20", "1899-11-21", "1899-11-22", "1899-11-23", "1899-11-24", "1899-11-25", "1899-11-26", "1899-11-27", "1899-11-28", "1899-11-29", "1899-11-30"],
         "importance": "30"
      }
      }, 
    {
      "type": "Feature",
      "geometry": {
        "type": "Point",
        "coordinates": [16.364463, 48.21696]
      },
      "properties": {
         "id": "pmb200377",
         "title": "Kolingasse 19",
         "lat": "48.21696",
         "lon": "16.364463",
         "timestamp": ["1899-11-04"],
         "importance": "1"
      }
      }, 
    {
      "type": "Feature",
      "geometry": {
        "type": "Point",
        "coordinates": [16.370101, 48.207941]
      },
      "properties": {
         "id": "pmb200436",
         "title": "Dorotheergasse 3",
         "lat": "48.207941",
         "lon": "16.370101",
         "timestamp": ["1899-11-03", "1899-11-10", "1899-11-24"],
         "importance": "3"
      }
      }, 
    {
      "type": "Feature",
      "geometry": {
        "type": "Point",
        "coordinates": [16.372443, 48.2014]
      },
      "properties": {
         "id": "pmb231889",
         "title": "Kärntnerring 14",
         "lat": "48.2014",
         "lon": "16.372443",
         "timestamp": ["1899-11-07", "1899-11-23"],
         "importance": "2"
      }
      }, 
    {
      "type": "Feature",
      "geometry": {
        "type": "Point",
        "coordinates": [16.36762, 48.213521]
      },
      "properties": {
         "id": "pmb207230",
         "title": "Wipplingerstraße 30",
         "lat": "48.213521",
         "lon": "16.36762",
         "timestamp": ["1899-11-29"],
         "importance": "1"
      }
      }
  ]
}