{
  "type": "FeatureCollection",
  "features": [
    {
      "type": "Feature",
      "geometry": {
        "type": "Point",
        "coordinates": [16.373056, 48.208333]
      },
      "properties": {
         "id": "pmb50",
         "title": "Wien",
         "lat": "48.208333",
         "lon": "16.373056",
         "timestamp": ["1899-06-01", "1899-06-02", "1899-06-03", "1899-06-04", "1899-06-05", "1899-06-06", "1899-06-07", "1899-06-08", "1899-06-09", "1899-06-10", "1899-06-11", "1899-06-12", "1899-06-13", "1899-06-14", "1899-06-15", "1899-06-16", "1899-06-17", "1899-06-18", "1899-06-19", "1899-06-20", "1899-06-21", "1899-06-22", "1899-06-28", "1899-06-29", "1899-06-30"],
         "importance": "25"
      }
      }, 
    {
      "type": "Feature",
      "geometry": {
        "type": "Point",
        "coordinates": [16.21359, 47.96533]
      },
      "properties": {
         "id": "pmb992",
         "title": "Bad Vöslau",
         "lat": "47.96533",
         "lon": "16.21359",
         "timestamp": ["1899-06-20"],
         "importance": "1"
      }
      }, 
    {
      "type": "Feature",
      "geometry": {
        "type": "Point",
        "coordinates": [16.361139, 48.210333]
      },
      "properties": {
         "id": "pmb14",
         "title": "Burgtheater",
         "lat": "48.210333",
         "lon": "16.361139",
         "timestamp": ["1899-06-14"],
         "importance": "1"
      }
      }, 
    {
      "type": "Feature",
      "geometry": {
        "type": "Point",
        "coordinates": [15.93893, 47.67487]
      },
      "properties": {
         "id": "pmb50715",
         "title": "Gloggnitz",
         "lat": "47.67487",
         "lon": "15.93893",
         "timestamp": ["1899-06-19", "1899-06-20"],
         "importance": "2"
      }
      }, 
    {
      "type": "Feature",
      "geometry": {
        "type": "Point",
        "coordinates": [16.29101, 48.17547]
      },
      "properties": {
         "id": "pmb63",
         "title": "XIII., Hietzing",
         "lat": "48.17547",
         "lon": "16.29101",
         "timestamp": ["1899-06-01", "1899-06-04", "1899-06-12"],
         "importance": "3"
      }
      }, 
    {
      "type": "Feature",
      "geometry": {
        "type": "Point",
        "coordinates": [16.355191, 48.248422]
      },
      "properties": {
         "id": "pmb92292",
         "title": "Hohe Warte",
         "lat": "48.248422",
         "lon": "16.355191",
         "timestamp": ["1899-06-05"],
         "importance": "1"
      }
      }, 
    {
      "type": "Feature",
      "geometry": {
        "type": "Point",
        "coordinates": [19.04045, 47.49835]
      },
      "properties": {
         "id": "pmb9867",
         "title": "Budapest",
         "lat": "47.49835",
         "lon": "19.04045",
         "timestamp": ["1899-06-28"],
         "importance": "1"
      }
      }, 
    {
      "type": "Feature",
      "geometry": {
        "type": "Point",
        "coordinates": [16.379576773014, 48.230065709671]
      },
      "properties": {
         "id": "pmb202",
         "title": "Nordwestbahnhof",
         "lat": "48.230065709671",
         "lon": "16.379576773014",
         "timestamp": ["1899-06-09"],
         "importance": "1"
      }
      }, 
    {
      "type": "Feature",
      "geometry": {
        "type": "Point",
        "coordinates": [16.365211, 48.189213]
      },
      "properties": {
         "id": "pmb185540",
         "title": "Gasthof zum Hirschen, Leopold Wallner",
         "lat": "48.189213",
         "lon": "16.365211",
         "timestamp": ["1899-06-18"],
         "importance": "1"
      }
      }, 
    {
      "type": "Feature",
      "geometry": {
        "type": "Point",
        "coordinates": [16.3067984, 48.1806202]
      },
      "properties": {
         "id": "pmb92518",
         "title": "Schlosspark Schönbrunn",
         "lat": "48.1806202",
         "lon": "16.3067984",
         "timestamp": ["1899-06-04"],
         "importance": "1"
      }
      }, 
    {
      "type": "Feature",
      "geometry": {
        "type": "Point",
        "coordinates": [16.371296264238, 48.202432234197]
      },
      "properties": {
         "id": "pmb112",
         "title": "Ringstraße",
         "lat": "48.202432234197",
         "lon": "16.371296264238",
         "timestamp": ["1899-06-01"],
         "importance": "1"
      }
      }, 
    {
      "type": "Feature",
      "geometry": {
        "type": "Point",
        "coordinates": [16.401694, 48.213944]
      },
      "properties": {
         "id": "pmb47",
         "title": "Schweizerhaus",
         "lat": "48.213944",
         "lon": "16.401694",
         "timestamp": ["1899-06-21"],
         "importance": "1"
      }
      }, 
    {
      "type": "Feature",
      "geometry": {
        "type": "Point",
        "coordinates": [16.41667, 48.41667]
      },
      "properties": {
         "id": "pmb92111",
         "title": "Würnitz",
         "lat": "48.41667",
         "lon": "16.41667",
         "timestamp": ["1899-06-16", "1899-06-17", "1899-06-30"],
         "importance": "3"
      }
      }, 
    {
      "type": "Feature",
      "geometry": {
        "type": "Point",
        "coordinates": [16.4432591235, 48.4417834564]
      },
      "properties": {
         "id": "pmb92745",
         "title": "Drechslermühle",
         "lat": "48.4417834564",
         "lon": "16.4432591235",
         "timestamp": ["1899-06-30"],
         "importance": "1"
      }
      }, 
    {
      "type": "Feature",
      "geometry": {
        "type": "Point",
        "coordinates": [16.47809, 48.41992]
      },
      "properties": {
         "id": "pmb91687",
         "title": "Schleinbach",
         "lat": "48.41992",
         "lon": "16.47809",
         "timestamp": ["1899-06-16"],
         "importance": "1"
      }
      }, 
    {
      "type": "Feature",
      "geometry": {
        "type": "Point",
        "coordinates": [16.36143, 48.30432]
      },
      "properties": {
         "id": "pmb3802",
         "title": "Langenzersdorf",
         "lat": "48.30432",
         "lon": "16.36143",
         "timestamp": ["1899-06-17"],
         "importance": "1"
      }
      }, 
    {
      "type": "Feature",
      "geometry": {
        "type": "Point",
        "coordinates": [16.35736, 48.21533]
      },
      "properties": {
         "id": "pmb168934",
         "title": "Frankgasse 1",
         "lat": "48.21533",
         "lon": "16.35736",
         "timestamp": ["1899-06-01", "1899-06-02", "1899-06-03", "1899-06-04", "1899-06-05", "1899-06-06", "1899-06-07", "1899-06-08", "1899-06-09", "1899-06-10", "1899-06-11", "1899-06-12", "1899-06-13", "1899-06-14", "1899-06-15", "1899-06-16", "1899-06-17", "1899-06-18", "1899-06-19", "1899-06-20", "1899-06-21", "1899-06-22", "1899-06-28", "1899-06-29", "1899-06-30"],
         "importance": "25"
      }
      }, 
    {
      "type": "Feature",
      "geometry": {
        "type": "Point",
        "coordinates": [16.339722, 48.192222]
      },
      "properties": {
         "id": "pmb77",
         "title": "Raimund-Theater",
         "lat": "48.192222",
         "lon": "16.339722",
         "timestamp": ["1899-06-10"],
         "importance": "1"
      }
      }, 
    {
      "type": "Feature",
      "geometry": {
        "type": "Point",
        "coordinates": [15.73019, 47.77325]
      },
      "properties": {
         "id": "pmb90134",
         "title": "Singerin",
         "lat": "47.77325",
         "lon": "15.73019",
         "timestamp": ["1899-06-20"],
         "importance": "1"
      }
      }, 
    {
      "type": "Feature",
      "geometry": {
        "type": "Point",
        "coordinates": [15.889166666667, 47.875833333333]
      },
      "properties": {
         "id": "pmb1036",
         "title": "Gutenstein",
         "lat": "47.875833333333",
         "lon": "15.889166666667",
         "timestamp": ["1899-06-20"],
         "importance": "1"
      }
      }, 
    {
      "type": "Feature",
      "geometry": {
        "type": "Point",
        "coordinates": [16.19956, 48.11646]
      },
      "properties": {
         "id": "pmb4845",
         "title": "Kaltenleutgeben",
         "lat": "48.11646",
         "lon": "16.19956",
         "timestamp": ["1899-06-08", "1899-06-09", "1899-06-13"],
         "importance": "3"
      }
      }, 
    {
      "type": "Feature",
      "geometry": {
        "type": "Point",
        "coordinates": [16.369693, 48.204446]
      },
      "properties": {
         "id": "pmb199375",
         "title": "Maysedergasse 4",
         "lat": "48.204446",
         "lon": "16.369693",
         "timestamp": ["1899-06-13", "1899-06-29"],
         "importance": "2"
      }
      }, 
    {
      "type": "Feature",
      "geometry": {
        "type": "Point",
        "coordinates": [16.388742, 48.218665]
      },
      "properties": {
         "id": "pmb200410",
         "title": "Heinestraße 36",
         "lat": "48.218665",
         "lon": "16.388742",
         "timestamp": ["1899-06-01", "1899-06-03", "1899-06-13"],
         "importance": "3"
      }
      }, 
    {
      "type": "Feature",
      "geometry": {
        "type": "Point",
        "coordinates": [16.358208, 48.214879]
      },
      "properties": {
         "id": "pmb200335",
         "title": "Rooseveltplatz 2",
         "lat": "48.214879",
         "lon": "16.358208",
         "timestamp": ["1899-06-30"],
         "importance": "1"
      }
      }, 
    {
      "type": "Feature",
      "geometry": {
        "type": "Point",
        "coordinates": [16.341077, 48.23143]
      },
      "properties": {
         "id": "pmb200732",
         "title": "Cottagegasse 29",
         "lat": "48.23143",
         "lon": "16.341077",
         "timestamp": ["1899-06-15"],
         "importance": "1"
      }
      }, 
    {
      "type": "Feature",
      "geometry": {
        "type": "Point",
        "coordinates": [16.35688, 48.226418]
      },
      "properties": {
         "id": "pmb207089",
         "title": "Liechtensteinstraße 62",
         "lat": "48.226418",
         "lon": "16.35688",
         "timestamp": ["1899-06-02"],
         "importance": "1"
      }
      }, 
    {
      "type": "Feature",
      "geometry": {
        "type": "Point",
        "coordinates": [16.386141, 48.220335]
      },
      "properties": {
         "id": "pmb92320",
         "title": "Heinestraße",
         "lat": "48.220335",
         "lon": "16.386141",
         "timestamp": ["1899-06-13"],
         "importance": "1"
      }
      }, 
    {
      "type": "Feature",
      "geometry": {
        "type": "Point",
        "coordinates": [16.42482, 48.42927]
      },
      "properties": {
         "id": "pmb207101",
         "title": "Pfarrkirche Würnitz",
         "lat": "48.42927",
         "lon": "16.42482",
         "timestamp": ["1899-06-16"],
         "importance": "1"
      }
      }, 
    {
      "type": "Feature",
      "geometry": {
        "type": "Point",
        "coordinates": [15.80915, 47.69255]
      },
      "properties": {
         "id": "pmb470",
         "title": "Edlach",
         "lat": "47.69255",
         "lon": "15.80915",
         "timestamp": ["1899-06-19", "1899-06-20"],
         "importance": "2"
      }
      }, 
    {
      "type": "Feature",
      "geometry": {
        "type": "Point",
        "coordinates": [16.369149, 48.212316]
      },
      "properties": {
         "id": "pmb207112",
         "title": "Färbergasse 10",
         "lat": "48.212316",
         "lon": "16.369149",
         "timestamp": ["1899-06-21"],
         "importance": "1"
      }
      }, 
    {
      "type": "Feature",
      "geometry": {
        "type": "Point",
        "coordinates": [18.40073, 45.6799]
      },
      "properties": {
         "id": "pmb90320",
         "title": "Belišće",
         "lat": "45.6799",
         "lon": "18.40073",
         "timestamp": ["1899-06-23", "1899-06-24", "1899-06-25"],
         "importance": "3"
      }
      }, 
    {
      "type": "Feature",
      "geometry": {
        "type": "Point",
        "coordinates": [18.407959606710985, 45.687781447014075]
      },
      "properties": {
         "id": "pmb207119",
         "title": "Palast Gutman-Gelse",
         "lat": "45.687781447014075",
         "lon": "18.407959606710985",
         "timestamp": ["1899-06-23", "1899-06-24", "1899-06-25", "1899-06-26"],
         "importance": "4"
      }
      }, 
    {
      "type": "Feature",
      "geometry": {
        "type": "Point",
        "coordinates": [17.88472, 45.54]
      },
      "properties": {
         "id": "pmb42960",
         "title": "Orahovica",
         "lat": "45.54",
         "lon": "17.88472",
         "timestamp": ["1899-06-25", "1899-06-26", "1899-06-27"],
         "importance": "3"
      }
      }
  ]
}