{
  "type": "FeatureCollection",
  "features": [
    {
      "type": "Feature",
      "geometry": {
        "type": "Point",
        "coordinates": [16.373056, 48.208333]
      },
      "properties": {
         "id": "pmb50",
         "title": "Wien",
         "lat": "48.208333",
         "lon": "16.373056",
         "timestamp": ["1900-05-01", "1900-05-02", "1900-05-03", "1900-05-04", "1900-05-05", "1900-05-06", "1900-05-07", "1900-05-08", "1900-05-09", "1900-05-10", "1900-05-11", "1900-05-12", "1900-05-13", "1900-05-14", "1900-05-15", "1900-05-16", "1900-05-17", "1900-05-18", "1900-05-19", "1900-05-20", "1900-05-21", "1900-05-22", "1900-05-23", "1900-05-24", "1900-05-27", "1900-05-28", "1900-05-29", "1900-05-30"],
         "importance": "28"
      }
      }, 
    {
      "type": "Feature",
      "geometry": {
        "type": "Point",
        "coordinates": [16.430054, 48.194558]
      },
      "properties": {
         "id": "pmb8",
         "title": "Prater",
         "lat": "48.194558",
         "lon": "16.430054",
         "timestamp": ["1900-05-03", "1900-05-05", "1900-05-08", "1900-05-10", "1900-05-22", "1900-05-30"],
         "importance": "6"
      }
      }, 
    {
      "type": "Feature",
      "geometry": {
        "type": "Point",
        "coordinates": [16.299116267833, 48.230916826952]
      },
      "properties": {
         "id": "pmb499",
         "title": "Dornbach",
         "lat": "48.230916826952",
         "lon": "16.299116267833",
         "timestamp": ["1900-05-06"],
         "importance": "1"
      }
      }, 
    {
      "type": "Feature",
      "geometry": {
        "type": "Point",
        "coordinates": [16.3538456, 48.2134031]
      },
      "properties": {
         "id": "pmb44",
         "title": "Riedhof",
         "lat": "48.2134031",
         "lon": "16.3538456",
         "timestamp": ["1900-05-14"],
         "importance": "1"
      }
      }, 
    {
      "type": "Feature",
      "geometry": {
        "type": "Point",
        "coordinates": [16.29101, 48.17547]
      },
      "properties": {
         "id": "pmb63",
         "title": "XIII., Hietzing",
         "lat": "48.17547",
         "lon": "16.29101",
         "timestamp": ["1900-05-23"],
         "importance": "1"
      }
      }, 
    {
      "type": "Feature",
      "geometry": {
        "type": "Point",
        "coordinates": [16.371667, 48.200556]
      },
      "properties": {
         "id": "pmb21",
         "title": "Künstlerhaus",
         "lat": "48.200556",
         "lon": "16.371667",
         "timestamp": ["1900-05-09"],
         "importance": "1"
      }
      }, 
    {
      "type": "Feature",
      "geometry": {
        "type": "Point",
        "coordinates": [16.38091, 48.19156]
      },
      "properties": {
         "id": "pmb90328",
         "title": "Schloss Belvedere",
         "lat": "48.19156",
         "lon": "16.38091",
         "timestamp": ["1900-05-07"],
         "importance": "1"
      }
      }, 
    {
      "type": "Feature",
      "geometry": {
        "type": "Point",
        "coordinates": [16.337778, 48.196667]
      },
      "properties": {
         "id": "pmb184918",
         "title": "Westbahnhof",
         "lat": "48.196667",
         "lon": "16.337778",
         "timestamp": ["1900-05-21"],
         "importance": "1"
      }
      }, 
    {
      "type": "Feature",
      "geometry": {
        "type": "Point",
        "coordinates": [16.3566, 48.205142]
      },
      "properties": {
         "id": "pmb20",
         "title": "Volkstheater",
         "lat": "48.205142",
         "lon": "16.3566",
         "timestamp": ["1900-05-09", "1900-05-10", "1900-05-14", "1900-05-17", "1900-05-22"],
         "importance": "5"
      }
      }, 
    {
      "type": "Feature",
      "geometry": {
        "type": "Point",
        "coordinates": [16.3067984, 48.1806202]
      },
      "properties": {
         "id": "pmb92518",
         "title": "Schlosspark Schönbrunn",
         "lat": "48.1806202",
         "lon": "16.3067984",
         "timestamp": ["1900-05-12"],
         "importance": "1"
      }
      }, 
    {
      "type": "Feature",
      "geometry": {
        "type": "Point",
        "coordinates": [16.361378, 48.203661]
      },
      "properties": {
         "id": "pmb47660",
         "title": "Kunsthistorisches Museum",
         "lat": "48.203661",
         "lon": "16.361378",
         "timestamp": ["1900-05-11"],
         "importance": "1"
      }
      }, 
    {
      "type": "Feature",
      "geometry": {
        "type": "Point",
        "coordinates": [16.43138888888889, 48.155833333333334]
      },
      "properties": {
         "id": "pmb192349",
         "title": "Israelitischer Friedhof",
         "lat": "48.155833333333334",
         "lon": "16.43138888888889",
         "timestamp": ["1900-05-02"],
         "importance": "1"
      }
      }, 
    {
      "type": "Feature",
      "geometry": {
        "type": "Point",
        "coordinates": [16.26269, 48.24616]
      },
      "properties": {
         "id": "pmb456",
         "title": "Rohrerhütte",
         "lat": "48.24616",
         "lon": "16.26269",
         "timestamp": ["1900-05-01"],
         "importance": "1"
      }
      }, 
    {
      "type": "Feature",
      "geometry": {
        "type": "Point",
        "coordinates": [16.35736, 48.21533]
      },
      "properties": {
         "id": "pmb168934",
         "title": "Frankgasse 1",
         "lat": "48.21533",
         "lon": "16.35736",
         "timestamp": ["1900-05-01", "1900-05-02", "1900-05-03", "1900-05-04", "1900-05-05", "1900-05-06", "1900-05-07", "1900-05-08", "1900-05-09", "1900-05-10", "1900-05-11", "1900-05-12", "1900-05-13", "1900-05-14", "1900-05-15", "1900-05-16", "1900-05-17", "1900-05-18", "1900-05-19", "1900-05-20", "1900-05-21", "1900-05-22", "1900-05-23", "1900-05-24", "1900-05-27", "1900-05-28", "1900-05-29", "1900-05-30"],
         "importance": "28"
      }
      }, 
    {
      "type": "Feature",
      "geometry": {
        "type": "Point",
        "coordinates": [15.8634, 47.69209]
      },
      "properties": {
         "id": "pmb948",
         "title": "Payerbach",
         "lat": "47.69209",
         "lon": "15.8634",
         "timestamp": ["1900-05-27"],
         "importance": "1"
      }
      }, 
    {
      "type": "Feature",
      "geometry": {
        "type": "Point",
        "coordinates": [15.33186, 48.22737]
      },
      "properties": {
         "id": "pmb91223",
         "title": "Melk",
         "lat": "48.22737",
         "lon": "15.33186",
         "timestamp": ["1900-05-30", "1900-05-31"],
         "importance": "2"
      }
      }, 
    {
      "type": "Feature",
      "geometry": {
        "type": "Point",
        "coordinates": [15.61415, 48.40921]
      },
      "properties": {
         "id": "pmb36545",
         "title": "Krems",
         "lat": "48.40921",
         "lon": "15.61415",
         "timestamp": ["1900-05-31"],
         "importance": "1"
      }
      }, 
    {
      "type": "Feature",
      "geometry": {
        "type": "Point",
        "coordinates": [16.39467, 48.21699]
      },
      "properties": {
         "id": "pmb422",
         "title": "Venedig in Wien",
         "lat": "48.21699",
         "lon": "16.39467",
         "timestamp": ["1900-05-29"],
         "importance": "1"
      }
      }, 
    {
      "type": "Feature",
      "geometry": {
        "type": "Point",
        "coordinates": [16.39347, 48.21854]
      },
      "properties": {
         "id": "pmb185914",
         "title": "Zirkus Busch",
         "lat": "48.21854",
         "lon": "16.39347",
         "timestamp": ["1900-05-05"],
         "importance": "1"
      }
      }, 
    {
      "type": "Feature",
      "geometry": {
        "type": "Point",
        "coordinates": [16.368017, 48.21548]
      },
      "properties": {
         "id": "pmb207344",
         "title": "Neutorgasse 15",
         "lat": "48.21548",
         "lon": "16.368017",
         "timestamp": ["1900-05-13"],
         "importance": "1"
      }
      }, 
    {
      "type": "Feature",
      "geometry": {
        "type": "Point",
        "coordinates": [16.370621, 48.197905]
      },
      "properties": {
         "id": "pmb209647",
         "title": "Karlsgasse 5",
         "lat": "48.197905",
         "lon": "16.370621",
         "timestamp": ["1900-05-07"],
         "importance": "1"
      }
      }, 
    {
      "type": "Feature",
      "geometry": {
        "type": "Point",
        "coordinates": [16.23036, 48.246719]
      },
      "properties": {
         "id": "pmb539",
         "title": "Sophienalpe",
         "lat": "48.246719",
         "lon": "16.23036",
         "timestamp": ["1900-05-01", "1900-05-06"],
         "importance": "2"
      }
      }, 
    {
      "type": "Feature",
      "geometry": {
        "type": "Point",
        "coordinates": [16.345709, 48.206949]
      },
      "properties": {
         "id": "pmb211290",
         "title": "Lerchenfelderstraße 71",
         "lat": "48.206949",
         "lon": "16.345709",
         "timestamp": ["1900-05-01"],
         "importance": "1"
      }
      }, 
    {
      "type": "Feature",
      "geometry": {
        "type": "Point",
        "coordinates": [15.91352, 47.78709]
      },
      "properties": {
         "id": "pmb6636",
         "title": "Puchberg am Schneeberg",
         "lat": "47.78709",
         "lon": "15.91352",
         "timestamp": ["1900-05-24", "1900-05-25", "1900-05-26", "1900-05-27"],
         "importance": "4"
      }
      }, 
    {
      "type": "Feature",
      "geometry": {
        "type": "Point",
        "coordinates": [15.83333, 47.75]
      },
      "properties": {
         "id": "pmb90051",
         "title": "Baumgartnerhaus",
         "lat": "47.75",
         "lon": "15.83333",
         "timestamp": ["1900-05-27"],
         "importance": "1"
      }
      }, 
    {
      "type": "Feature",
      "geometry": {
        "type": "Point",
        "coordinates": [15.33123, 48.22843]
      },
      "properties": {
         "id": "pmb211423",
         "title": "Stift Melk",
         "lat": "48.22843",
         "lon": "15.33123",
         "timestamp": ["1900-05-31"],
         "importance": "1"
      }
      }
  ]
}