{
  "type": "FeatureCollection",
  "features": [
    {
      "type": "Feature",
      "geometry": {
        "type": "Point",
        "coordinates": [16.373056, 48.208333]
      },
      "properties": {
         "id": "pmb50",
         "title": "Wien",
         "lat": "48.208333",
         "lon": "16.373056",
         "timestamp": ["1900-04-08", "1900-04-09", "1900-04-10", "1900-04-11", "1900-04-12", "1900-04-13", "1900-04-14", "1900-04-15", "1900-04-16", "1900-04-17", "1900-04-18", "1900-04-19", "1900-04-20", "1900-04-21", "1900-04-22", "1900-04-23", "1900-04-24", "1900-04-25", "1900-04-26", "1900-04-27", "1900-04-28", "1900-04-29", "1900-04-30"],
         "importance": "23"
      }
      }, 
    {
      "type": "Feature",
      "geometry": {
        "type": "Point",
        "coordinates": [16.384444, 48.215]
      },
      "properties": {
         "id": "pmb118",
         "title": "Carl-Theater",
         "lat": "48.215",
         "lon": "16.384444",
         "timestamp": ["1900-04-21"],
         "importance": "1"
      }
      }, 
    {
      "type": "Feature",
      "geometry": {
        "type": "Point",
        "coordinates": [16.430054, 48.194558]
      },
      "properties": {
         "id": "pmb8",
         "title": "Prater",
         "lat": "48.194558",
         "lon": "16.430054",
         "timestamp": ["1900-04-16", "1900-04-23"],
         "importance": "2"
      }
      }, 
    {
      "type": "Feature",
      "geometry": {
        "type": "Point",
        "coordinates": [16.3538456, 48.2134031]
      },
      "properties": {
         "id": "pmb44",
         "title": "Riedhof",
         "lat": "48.2134031",
         "lon": "16.3538456",
         "timestamp": ["1900-04-19", "1900-04-22", "1900-04-25"],
         "importance": "3"
      }
      }, 
    {
      "type": "Feature",
      "geometry": {
        "type": "Point",
        "coordinates": [14.30515, 45.33771]
      },
      "properties": {
         "id": "pmb38096",
         "title": "Opatija",
         "lat": "45.33771",
         "lon": "14.30515",
         "timestamp": ["1900-04-04", "1900-04-05", "1900-04-06", "1900-04-07"],
         "importance": "4"
      }
      }, 
    {
      "type": "Feature",
      "geometry": {
        "type": "Point",
        "coordinates": [16.3566, 48.205142]
      },
      "properties": {
         "id": "pmb20",
         "title": "Volkstheater",
         "lat": "48.205142",
         "lon": "16.3566",
         "timestamp": ["1900-04-08", "1900-04-10"],
         "importance": "2"
      }
      }, 
    {
      "type": "Feature",
      "geometry": {
        "type": "Point",
        "coordinates": [16.3067984, 48.1806202]
      },
      "properties": {
         "id": "pmb92518",
         "title": "Schlosspark Schönbrunn",
         "lat": "48.1806202",
         "lon": "16.3067984",
         "timestamp": ["1900-04-25"],
         "importance": "1"
      }
      }, 
    {
      "type": "Feature",
      "geometry": {
        "type": "Point",
        "coordinates": [16.26269, 48.24616]
      },
      "properties": {
         "id": "pmb456",
         "title": "Rohrerhütte",
         "lat": "48.24616",
         "lon": "16.26269",
         "timestamp": ["1900-04-29"],
         "importance": "1"
      }
      }, 
    {
      "type": "Feature",
      "geometry": {
        "type": "Point",
        "coordinates": [16.35736, 48.21533]
      },
      "properties": {
         "id": "pmb168934",
         "title": "Frankgasse 1",
         "lat": "48.21533",
         "lon": "16.35736",
         "timestamp": ["1900-04-08", "1900-04-09", "1900-04-10", "1900-04-11", "1900-04-12", "1900-04-13", "1900-04-14", "1900-04-15", "1900-04-16", "1900-04-17", "1900-04-18", "1900-04-19", "1900-04-20", "1900-04-21", "1900-04-22", "1900-04-23", "1900-04-24", "1900-04-25", "1900-04-26", "1900-04-27", "1900-04-28", "1900-04-29", "1900-04-30"],
         "importance": "23"
      }
      }, 
    {
      "type": "Feature",
      "geometry": {
        "type": "Point",
        "coordinates": [16.339722, 48.192222]
      },
      "properties": {
         "id": "pmb77",
         "title": "Raimund-Theater",
         "lat": "48.192222",
         "lon": "16.339722",
         "timestamp": ["1900-04-28"],
         "importance": "1"
      }
      }, 
    {
      "type": "Feature",
      "geometry": {
        "type": "Point",
        "coordinates": [16.37971, 48.2129]
      },
      "properties": {
         "id": "pmb446",
         "title": "Hotel Continental [Wien]",
         "lat": "48.2129",
         "lon": "16.37971",
         "timestamp": ["1900-04-15"],
         "importance": "1"
      }
      }, 
    {
      "type": "Feature",
      "geometry": {
        "type": "Point",
        "coordinates": [16.34364, 48.21573]
      },
      "properties": {
         "id": "pmb168801",
         "title": "?? [Hebragasse, Absteigequartier Leopoldine Müller und Arthur Schnitzler]",
         "lat": "48.21573",
         "lon": "16.34364",
         "timestamp": ["1900-04-19", "1900-04-20"],
         "importance": "2"
      }
      }, 
    {
      "type": "Feature",
      "geometry": {
        "type": "Point",
        "coordinates": [16.368017, 48.21548]
      },
      "properties": {
         "id": "pmb207344",
         "title": "Neutorgasse 15",
         "lat": "48.21548",
         "lon": "16.368017",
         "timestamp": ["1900-04-13", "1900-04-18", "1900-04-29"],
         "importance": "3"
      }
      }, 
    {
      "type": "Feature",
      "geometry": {
        "type": "Point",
        "coordinates": [16.433333, 43.5]
      },
      "properties": {
         "id": "pmb4231",
         "title": "Split",
         "lat": "43.5",
         "lon": "16.433333",
         "timestamp": ["1900-04-03"],
         "importance": "1"
      }
      }, 
    {
      "type": "Feature",
      "geometry": {
        "type": "Point",
        "coordinates": [18.09216, 42.64807]
      },
      "properties": {
         "id": "pmb682",
         "title": "Dubrovnik",
         "lat": "42.64807",
         "lon": "18.09216",
         "timestamp": ["1900-04-01", "1900-04-02"],
         "importance": "2"
      }
      }, 
    {
      "type": "Feature",
      "geometry": {
        "type": "Point",
        "coordinates": [18.110555555555557, 42.65]
      },
      "properties": {
         "id": "pmb190389",
         "title": "Fort Imperial",
         "lat": "42.65",
         "lon": "18.110555555555557",
         "timestamp": ["1900-04-01"],
         "importance": "1"
      }
      }, 
    {
      "type": "Feature",
      "geometry": {
        "type": "Point",
        "coordinates": [16.5, 43.5]
      },
      "properties": {
         "id": "pmb453",
         "title": "Solin",
         "lat": "43.5",
         "lon": "16.5",
         "timestamp": ["1900-04-03"],
         "importance": "1"
      }
      }, 
    {
      "type": "Feature",
      "geometry": {
        "type": "Point",
        "coordinates": [16.370621, 48.197905]
      },
      "properties": {
         "id": "pmb209647",
         "title": "Karlsgasse 5",
         "lat": "48.197905",
         "lon": "16.370621",
         "timestamp": ["1900-04-17", "1900-04-18", "1900-04-19", "1900-04-21", "1900-04-24", "1900-04-26"],
         "importance": "6"
      }
      }, 
    {
      "type": "Feature",
      "geometry": {
        "type": "Point",
        "coordinates": [16.23036, 48.246719]
      },
      "properties": {
         "id": "pmb539",
         "title": "Sophienalpe",
         "lat": "48.246719",
         "lon": "16.23036",
         "timestamp": ["1900-04-29"],
         "importance": "1"
      }
      }
  ]
}