{
  "type": "FeatureCollection",
  "features": [
    {
      "type": "Feature", 
      "geometry": {
        "type": "LineString", 
        "coordinates": [
            [16.35736, 48.21533], 
            [16.375924, 48.208656], 
            [16.3855, 48.21682], 
            [16.37547, 48.2644], 
            [16.33306, 48.25]
          ]
      },
      "properties": {
        "name": "15. September 1900"
      }
    },
    {
      "type": "Feature",
      "geometry": {
        "type": "Point",
        "coordinates": [
          16.3855, 48.21682
        ]
      },
      "properties": {
        "title": "Rotensterngasse 31",
        "timestamp": ["1900-09-15"],
        "pmb": "https://pmb.acdh.oeaw.ac.at/entity//"
      }
      },
    {
      "type": "Feature",
      "geometry": {
        "type": "Point",
        "coordinates": [
          16.375924, 48.208656
        ]
      },
      "properties": {
        "title": "Wollzeile 15 (»Berthahof«)",
        "timestamp": ["1900-09-15"],
        "pmb": "https://pmb.acdh.oeaw.ac.at/entity//"
      }
      },
    {
      "type": "Feature",
      "geometry": {
        "type": "Point",
        "coordinates": [
          16.35736, 48.21533
        ]
      },
      "properties": {
        "title": "Frankgasse 1",
        "timestamp": ["1900-09-15"],
        "pmb": "https://pmb.acdh.oeaw.ac.at/entity//"
      }
      },
    {
      "type": "Feature",
      "geometry": {
        "type": "Point",
        "coordinates": [
          16.33306, 48.25
        ]
      },
      "properties": {
        "title": "XIX., Döbling",
        "timestamp": ["1900-09-15"],
        "pmb": "https://pmb.acdh.oeaw.ac.at/entity//", 
        "wikipedia": "https://de.wikipedia.org/wiki/D%C3%B6bling"
      }
      },
    {
      "type": "Feature",
      "geometry": {
        "type": "Point",
        "coordinates": [
          16.37547, 48.2644
        ]
      },
      "properties": {
        "title": "Neue Donau",
        "timestamp": ["1900-09-15"],
        "pmb": "https://pmb.acdh.oeaw.ac.at/entity//"
      }
      }
  ]
}