{
  "type": "FeatureCollection",
  "features": [
    {
      "type": "Feature",
      "geometry": {
        "type": "Point",
        "coordinates": [16.373056, 48.208333]
      },
      "properties": {
         "id": "pmb50",
         "title": "Wien",
         "lat": "48.208333",
         "lon": "16.373056",
         "timestamp": ["1900-07-23", "1900-07-24", "1900-07-25", "1900-07-26", "1900-07-27", "1900-07-28"],
         "importance": "6"
      }
      }, 
    {
      "type": "Feature",
      "geometry": {
        "type": "Point",
        "coordinates": [16.3538456, 48.2134031]
      },
      "properties": {
         "id": "pmb44",
         "title": "Riedhof",
         "lat": "48.2134031",
         "lon": "16.3538456",
         "timestamp": ["1900-07-03"],
         "importance": "1"
      }
      }, 
    {
      "type": "Feature",
      "geometry": {
        "type": "Point",
        "coordinates": [13.81667, 47.61667]
      },
      "properties": {
         "id": "pmb282",
         "title": "Grundlsee (Gemeinde)",
         "lat": "47.61667",
         "lon": "13.81667",
         "timestamp": ["1900-07-01"],
         "importance": "1"
      }
      }, 
    {
      "type": "Feature",
      "geometry": {
        "type": "Point",
        "coordinates": [14.63333, 47.6]
      },
      "properties": {
         "id": "pmb90797",
         "title": "Gstatterboden",
         "lat": "47.6",
         "lon": "14.63333",
         "timestamp": ["1900-07-04"],
         "importance": "1"
      }
      }, 
    {
      "type": "Feature",
      "geometry": {
        "type": "Point",
        "coordinates": [13.7682587, 47.6417738]
      },
      "properties": {
         "id": "pmb40256",
         "title": "Gasthaus Brunnthaler",
         "lat": "47.6417738",
         "lon": "13.7682587",
         "timestamp": ["1900-07-01", "1900-07-02"],
         "importance": "2"
      }
      }, 
    {
      "type": "Feature",
      "geometry": {
        "type": "Point",
        "coordinates": [14.47188, 47.56155]
      },
      "properties": {
         "id": "pmb49312",
         "title": "Admont",
         "lat": "47.56155",
         "lon": "14.47188",
         "timestamp": ["1900-07-03", "1900-07-04", "1900-07-06"],
         "importance": "3"
      }
      }, 
    {
      "type": "Feature",
      "geometry": {
        "type": "Point",
        "coordinates": [14.58333, 47.53333]
      },
      "properties": {
         "id": "pmb90960",
         "title": "Johnsbach",
         "lat": "47.53333",
         "lon": "14.58333",
         "timestamp": ["1900-07-04"],
         "importance": "1"
      }
      }, 
    {
      "type": "Feature",
      "geometry": {
        "type": "Point",
        "coordinates": [15.84453, 47.69852]
      },
      "properties": {
         "id": "pmb44982",
         "title": "Kurhaus Rudolfsbad",
         "lat": "47.69852",
         "lon": "15.84453",
         "timestamp": ["1900-07-05", "1900-07-06", "1900-07-07", "1900-07-08", "1900-07-09", "1900-07-10", "1900-07-11", "1900-07-12", "1900-07-13", "1900-07-14", "1900-07-15", "1900-07-16", "1900-07-17", "1900-07-18", "1900-07-19", "1900-07-20", "1900-07-21", "1900-07-22", "1900-07-23"],
         "importance": "19"
      }
      }, 
    {
      "type": "Feature",
      "geometry": {
        "type": "Point",
        "coordinates": [14.46216, 47.57502]
      },
      "properties": {
         "id": "pmb211439",
         "title": "Stift Admont",
         "lat": "47.57502",
         "lon": "14.46216",
         "timestamp": ["1900-07-05"],
         "importance": "1"
      }
      }, 
    {
      "type": "Feature",
      "geometry": {
        "type": "Point",
        "coordinates": [15.01784, 47.33839]
      },
      "properties": {
         "id": "pmb90087",
         "title": "Sankt Michael in Obersteiermark",
         "lat": "47.33839",
         "lon": "15.01784",
         "timestamp": ["1900-07-20", "1900-07-21"],
         "importance": "2"
      }
      }, 
    {
      "type": "Feature",
      "geometry": {
        "type": "Point",
        "coordinates": [13.78655, 47.61105]
      },
      "properties": {
         "id": "pmb49309",
         "title": "Gasthaus Post",
         "lat": "47.61105",
         "lon": "13.78655",
         "timestamp": ["1900-07-28", "1900-07-29", "1900-07-30", "1900-07-31"],
         "importance": "4"
      }
      }, 
    {
      "type": "Feature",
      "geometry": {
        "type": "Point",
        "coordinates": [13.8405, 47.5561]
      },
      "properties": {
         "id": "pmb90971",
         "title": "Pichl-Kainisch",
         "lat": "47.5561",
         "lon": "13.8405",
         "timestamp": ["1900-07-29", "1900-07-30"],
         "importance": "2"
      }
      }
  ]
}