{
  "type": "FeatureCollection",
  "features": [
    {
      "type": "Feature",
      "geometry": {
        "type": "Point",
        "coordinates": [15.84704, 47.70466]
      },
      "properties": {
         "id": "pmb796",
         "title": "Thalhof",
         "lat": "47.70466",
         "lon": "15.84704",
         "timestamp": ["1900-03-01"],
         "importance": "1"
      }
      }, 
    {
      "type": "Feature",
      "geometry": {
        "type": "Point",
        "coordinates": [16.375, 48.205139]
      },
      "properties": {
         "id": "pmb19",
         "title": "Ronacher",
         "lat": "48.205139",
         "lon": "16.375",
         "timestamp": ["1900-03-12", "1900-11-13"],
         "importance": "2"
      }
      }, 
    {
      "type": "Feature",
      "geometry": {
        "type": "Point",
        "coordinates": [16.372564182283, 48.201265597319]
      },
      "properties": {
         "id": "pmb516",
         "title": "Musikverein",
         "lat": "48.201265597319",
         "lon": "16.372564182283",
         "timestamp": ["1900-01-21", "1900-02-22", "1900-02-23"],
         "importance": "3"
      }
      }, 
    {
      "type": "Feature",
      "geometry": {
        "type": "Point",
        "coordinates": [16.3691, 48.203]
      },
      "properties": {
         "id": "pmb15",
         "title": "Oper",
         "lat": "48.203",
         "lon": "16.3691",
         "timestamp": ["1900-01-06", "1900-02-13", "1900-09-08", "1900-09-11", "1900-11-03"],
         "importance": "5"
      }
      }, 
    {
      "type": "Feature",
      "geometry": {
        "type": "Point",
        "coordinates": [16.351111, 48.209583]
      },
      "properties": {
         "id": "pmb40",
         "title": "Theater in der Josefstadt",
         "lat": "48.209583",
         "lon": "16.351111",
         "timestamp": ["1900-01-18", "1900-01-19", "1900-02-16", "1900-02-22"],
         "importance": "4"
      }
      }, 
    {
      "type": "Feature",
      "geometry": {
        "type": "Point",
        "coordinates": [16.384444, 48.215]
      },
      "properties": {
         "id": "pmb118",
         "title": "Carl-Theater",
         "lat": "48.215",
         "lon": "16.384444",
         "timestamp": ["1900-02-01", "1900-04-21"],
         "importance": "2"
      }
      }, 
    {
      "type": "Feature",
      "geometry": {
        "type": "Point",
        "coordinates": [16.366111, 48.209167]
      },
      "properties": {
         "id": "pmb4",
         "title": "Bösendorfer-Saal",
         "lat": "48.209167",
         "lon": "16.366111",
         "timestamp": ["1900-02-26", "1900-03-18"],
         "importance": "2"
      }
      }, 
    {
      "type": "Feature",
      "geometry": {
        "type": "Point",
        "coordinates": [16.3642, 48.19941]
      },
      "properties": {
         "id": "pmb37",
         "title": "Theater an der Wien",
         "lat": "48.19941",
         "lon": "16.3642",
         "timestamp": ["1900-01-16"],
         "importance": "1"
      }
      }, 
    {
      "type": "Feature",
      "geometry": {
        "type": "Point",
        "coordinates": [16.373056, 48.208333]
      },
      "properties": {
         "id": "pmb50",
         "title": "Wien",
         "lat": "48.208333",
         "lon": "16.373056",
         "timestamp": ["1900-01-01", "1900-01-02", "1900-01-03", "1900-01-04", "1900-01-05", "1900-01-06", "1900-01-07", "1900-01-08", "1900-01-09", "1900-01-10", "1900-01-11", "1900-01-12", "1900-01-13", "1900-01-14", "1900-01-15", "1900-01-16", "1900-01-17", "1900-01-18", "1900-01-19", "1900-01-20", "1900-01-21", "1900-01-22", "1900-01-23", "1900-01-24", "1900-01-25", "1900-01-26", "1900-01-27", "1900-01-28", "1900-01-29", "1900-01-30", "1900-01-31", "1900-02-01", "1900-02-02", "1900-02-03", "1900-02-04", "1900-02-05", "1900-02-06", "1900-02-07", "1900-02-08", "1900-02-09", "1900-02-10", "1900-02-11", "1900-02-12", "1900-02-13", "1900-02-14", "1900-02-15", "1900-02-16", "1900-02-17", "1900-02-18", "1900-02-19", "1900-02-20", "1900-02-21", "1900-02-22", "1900-02-23", "1900-02-24", "1900-02-25", "1900-02-26", "1900-02-27", "1900-03-06", "1900-03-07", "1900-03-08", "1900-03-09", "1900-03-10", "1900-03-11", "1900-03-12", "1900-03-13", "1900-03-14", "1900-03-15", "1900-03-16", "1900-03-17", "1900-03-18", "1900-03-19", "1900-03-20", "1900-03-21", "1900-03-22", "1900-03-23", "1900-03-24", "1900-03-25", "1900-03-26", "1900-03-27", "1900-04-08", "1900-04-09", "1900-04-10", "1900-04-11", "1900-04-12", "1900-04-13", "1900-04-14", "1900-04-15", "1900-04-16", "1900-04-17", "1900-04-18", "1900-04-19", "1900-04-20", "1900-04-21", "1900-04-22", "1900-04-23", "1900-04-24", "1900-04-25", "1900-04-26", "1900-04-27", "1900-04-28", "1900-04-29", "1900-04-30", "1900-05-01", "1900-05-02", "1900-05-03", "1900-05-04", "1900-05-05", "1900-05-06", "1900-05-07", "1900-05-08", "1900-05-09", "1900-05-10", "1900-05-11", "1900-05-12", "1900-05-13", "1900-05-14", "1900-05-15", "1900-05-16", "1900-05-17", "1900-05-18", "1900-05-19", "1900-05-20", "1900-05-21", "1900-05-22", "1900-05-23", "1900-05-27", "1900-05-28", "1900-05-29", "1900-06-02", "1900-06-03", "1900-06-04", "1900-06-05", "1900-06-06", "1900-06-07", "1900-06-08", "1900-06-09", "1900-06-10", "1900-06-11", "1900-06-15", "1900-06-16", "1900-06-17", "1900-06-18", "1900-06-19", "1900-06-20", "1900-06-21", "1900-06-22", "1900-06-23", "1900-06-24", "1900-06-25", "1900-06-26", "1900-06-27", "1900-06-28", "1900-07-23", "1900-07-24", "1900-07-25", "1900-07-26", "1900-07-27", "1900-07-28", "1900-09-01", "1900-09-02", "1900-09-03", "1900-09-04", "1900-09-05", "1900-09-06", "1900-09-07", "1900-09-08", "1900-09-09", "1900-09-10", "1900-09-11", "1900-09-12", "1900-09-13", "1900-09-14", "1900-09-15", "1900-09-16", "1900-09-17", "1900-09-18", "1900-09-19", "1900-09-20", "1900-09-21", "1900-09-22", "1900-09-23", "1900-09-24", "1900-09-25", "1900-09-26", "1900-09-27", "1900-09-28", "1900-09-29", "1900-09-30", "1900-10-01", "1900-10-02", "1900-10-03", "1900-10-04", "1900-10-05", "1900-10-06", "1900-10-07", "1900-10-08", "1900-10-09", "1900-10-10", "1900-10-11", "1900-10-12", "1900-10-15", "1900-10-18", "1900-10-22", "1900-10-23", "1900-10-24", "1900-10-25", "1900-10-26", "1900-10-27", "1900-10-28", "1900-10-29", "1900-10-30", "1900-10-31", "1900-11-01", "1900-11-02", "1900-11-03", "1900-11-04", "1900-11-05", "1900-11-06", "1900-11-07", "1900-11-08", "1900-11-09", "1900-11-10", "1900-11-11", "1900-11-12", "1900-11-13", "1900-11-14", "1900-11-15", "1900-11-16", "1900-11-17", "1900-11-18", "1900-11-19", "1900-11-20", "1900-11-21", "1900-11-22", "1900-12-02", "1900-12-03", "1900-12-04", "1900-12-05", "1900-12-06", "1900-12-07", "1900-12-08", "1900-12-09", "1900-12-10", "1900-12-11", "1900-12-12", "1900-12-13", "1900-12-14", "1900-12-15", "1900-12-16", "1900-12-17", "1900-12-18", "1900-12-19", "1900-12-20", "1900-12-21", "1900-12-22", "1900-12-23", "1900-12-24", "1900-12-25", "1900-12-26", "1900-12-27", "1900-12-28", "1900-12-29", "1900-12-30", "1900-12-31"],
         "importance": "265"
      }
      }, 
    {
      "type": "Feature",
      "geometry": {
        "type": "Point",
        "coordinates": [16.361139, 48.210333]
      },
      "properties": {
         "id": "pmb14",
         "title": "Burgtheater",
         "lat": "48.210333",
         "lon": "16.361139",
         "timestamp": ["1900-01-12", "1900-01-26", "1900-02-15", "1900-03-12", "1900-11-07", "1900-12-12"],
         "importance": "6"
      }
      }, 
    {
      "type": "Feature",
      "geometry": {
        "type": "Point",
        "coordinates": [16.299116267833, 48.230916826952]
      },
      "properties": {
         "id": "pmb499",
         "title": "Dornbach",
         "lat": "48.230916826952",
         "lon": "16.299116267833",
         "timestamp": ["1900-05-06"],
         "importance": "1"
      }
      }, 
    {
      "type": "Feature",
      "geometry": {
        "type": "Point",
        "coordinates": [16.420612, 48.233414]
      },
      "properties": {
         "id": "pmb182425",
         "title": "Zum Franz-Josefsland",
         "lat": "48.233414",
         "lon": "16.420612",
         "timestamp": ["1900-09-14"],
         "importance": "1"
      }
      }, 
    {
      "type": "Feature",
      "geometry": {
        "type": "Point",
        "coordinates": [16.37084, 48.210333]
      },
      "properties": {
         "id": "pmb2",
         "title": "Konservatorium der Gesellschaft der Musikfreunde",
         "lat": "48.210333",
         "lon": "16.37084",
         "timestamp": ["1900-12-21"],
         "importance": "1"
      }
      }, 
    {
      "type": "Feature",
      "geometry": {
        "type": "Point",
        "coordinates": [16.3538456, 48.2134031]
      },
      "properties": {
         "id": "pmb44",
         "title": "Riedhof",
         "lat": "48.2134031",
         "lon": "16.3538456",
         "timestamp": ["1900-01-26", "1900-03-19", "1900-04-19", "1900-04-22", "1900-04-25", "1900-05-14", "1900-06-09", "1900-06-14", "1900-06-16", "1900-07-03", "1900-10-18", "1900-10-29", "1900-11-05", "1900-11-10", "1900-12-03", "1900-12-25", "1900-12-29"],
         "importance": "17"
      }
      }, 
    {
      "type": "Feature",
      "geometry": {
        "type": "Point",
        "coordinates": [11.37706, 47.28433]
      },
      "properties": {
         "id": "pmb867",
         "title": "Innsbruck",
         "lat": "47.28433",
         "lon": "11.37706",
         "timestamp": ["1900-08-15", "1900-08-16", "1900-08-17"],
         "importance": "3"
      }
      }, 
    {
      "type": "Feature",
      "geometry": {
        "type": "Point",
        "coordinates": [12.79444, 47.32556]
      },
      "properties": {
         "id": "pmb40336",
         "title": "Zell am See",
         "lat": "47.32556",
         "lon": "12.79444",
         "timestamp": ["1900-08-13", "1900-08-15"],
         "importance": "2"
      }
      }, 
    {
      "type": "Feature",
      "geometry": {
        "type": "Point",
        "coordinates": [13.04532, 47.80067]
      },
      "properties": {
         "id": "pmb30",
         "title": "Salzburg",
         "lat": "47.80067",
         "lon": "13.04532",
         "timestamp": ["1900-08-10", "1900-08-12", "1900-08-13"],
         "importance": "3"
      }
      }, 
    {
      "type": "Feature",
      "geometry": {
        "type": "Point",
        "coordinates": [13.78243, 47.60998]
      },
      "properties": {
         "id": "pmb415",
         "title": "Bad Aussee",
         "lat": "47.60998",
         "lon": "13.78243",
         "timestamp": ["1900-06-29", "1900-08-08"],
         "importance": "2"
      }
      }, 
    {
      "type": "Feature",
      "geometry": {
        "type": "Point",
        "coordinates": [13.61893, 47.71109]
      },
      "properties": {
         "id": "pmb213",
         "title": "Bad Ischl",
         "lat": "47.71109",
         "lon": "13.61893",
         "timestamp": ["1900-06-28", "1900-06-29"],
         "importance": "2"
      }
      }, 
    {
      "type": "Feature",
      "geometry": {
        "type": "Point",
        "coordinates": [13.41053, 52.52437]
      },
      "properties": {
         "id": "pmb168",
         "title": "Berlin",
         "lat": "52.52437",
         "lon": "13.41053",
         "timestamp": ["1900-11-25"],
         "importance": "1"
      }
      }, 
    {
      "type": "Feature",
      "geometry": {
        "type": "Point",
        "coordinates": [13.81667, 47.61667]
      },
      "properties": {
         "id": "pmb282",
         "title": "Grundlsee (Gemeinde)",
         "lat": "47.61667",
         "lon": "13.81667",
         "timestamp": ["1900-07-01"],
         "importance": "1"
      }
      }, 
    {
      "type": "Feature",
      "geometry": {
        "type": "Point",
        "coordinates": [9.90126, 46.4955]
      },
      "properties": {
         "id": "pmb34946",
         "title": "Pontresina",
         "lat": "46.4955",
         "lon": "9.90126",
         "timestamp": ["1900-08-20", "1900-08-21", "1900-08-22", "1900-08-23", "1900-08-24", "1900-08-25"],
         "importance": "6"
      }
      }, 
    {
      "type": "Feature",
      "geometry": {
        "type": "Point",
        "coordinates": [9.84327, 46.49937]
      },
      "properties": {
         "id": "pmb1059",
         "title": "Sankt Moritz",
         "lat": "46.49937",
         "lon": "9.84327",
         "timestamp": ["1900-08-21", "1900-08-22"],
         "importance": "2"
      }
      }, 
    {
      "type": "Feature",
      "geometry": {
        "type": "Point",
        "coordinates": [10.08814, 46.30994]
      },
      "properties": {
         "id": "pmb90342",
         "title": "Bernina [Bezirk]",
         "lat": "46.30994",
         "lon": "10.08814",
         "timestamp": ["1900-08-25"],
         "importance": "1"
      }
      }, 
    {
      "type": "Feature",
      "geometry": {
        "type": "Point",
        "coordinates": [10.07889, 46.29313]
      },
      "properties": {
         "id": "pmb1046",
         "title": "Le Prese",
         "lat": "46.29313",
         "lon": "10.07889",
         "timestamp": ["1900-08-25", "1900-08-26"],
         "importance": "2"
      }
      }, 
    {
      "type": "Feature",
      "geometry": {
        "type": "Point",
        "coordinates": [10.31856, 46.32652]
      },
      "properties": {
         "id": "pmb90132",
         "title": "Bolladore",
         "lat": "46.32652",
         "lon": "10.31856",
         "timestamp": ["1900-08-26"],
         "importance": "1"
      }
      }, 
    {
      "type": "Feature",
      "geometry": {
        "type": "Point",
        "coordinates": [10.37008, 46.46717]
      },
      "properties": {
         "id": "pmb49343",
         "title": "Bormio",
         "lat": "46.46717",
         "lon": "10.37008",
         "timestamp": ["1900-08-26", "1900-08-27"],
         "importance": "2"
      }
      }, 
    {
      "type": "Feature",
      "geometry": {
        "type": "Point",
        "coordinates": [11.15953, 46.66817]
      },
      "properties": {
         "id": "pmb887",
         "title": "Meran",
         "lat": "46.66817",
         "lon": "11.15953",
         "timestamp": ["1900-08-28", "1900-08-29", "1900-08-30"],
         "importance": "3"
      }
      }, 
    {
      "type": "Feature",
      "geometry": {
        "type": "Point",
        "coordinates": [11.33982, 46.49067]
      },
      "properties": {
         "id": "pmb6937",
         "title": "Bozen",
         "lat": "46.49067",
         "lon": "11.33982",
         "timestamp": ["1900-08-30"],
         "importance": "1"
      }
      }, 
    {
      "type": "Feature",
      "geometry": {
        "type": "Point",
        "coordinates": [14.30515, 45.33771]
      },
      "properties": {
         "id": "pmb38096",
         "title": "Opatija",
         "lat": "45.33771",
         "lon": "14.30515",
         "timestamp": ["1900-04-04", "1900-04-05", "1900-04-06", "1900-04-07"],
         "importance": "4"
      }
      }, 
    {
      "type": "Feature",
      "geometry": {
        "type": "Point",
        "coordinates": [16.371667, 48.200556]
      },
      "properties": {
         "id": "pmb21",
         "title": "Künstlerhaus",
         "lat": "48.200556",
         "lon": "16.371667",
         "timestamp": ["1900-05-09", "1900-12-22"],
         "importance": "2"
      }
      }, 
    {
      "type": "Feature",
      "geometry": {
        "type": "Point",
        "coordinates": [11.29882, 46.4856]
      },
      "properties": {
         "id": "pmb91751",
         "title": "Ponte Adige",
         "lat": "46.4856",
         "lon": "11.29882",
         "timestamp": ["1900-08-30", "1900-08-31"],
         "importance": "2"
      }
      }, 
    {
      "type": "Feature",
      "geometry": {
        "type": "Point",
        "coordinates": [16.2353, 48.0096]
      },
      "properties": {
         "id": "pmb190818",
         "title": "Stadttheater Baden",
         "lat": "48.0096",
         "lon": "16.2353",
         "timestamp": ["1900-10-12", "1900-10-17"],
         "importance": "2"
      }
      }, 
    {
      "type": "Feature",
      "geometry": {
        "type": "Point",
        "coordinates": [16.38091, 48.19156]
      },
      "properties": {
         "id": "pmb90328",
         "title": "Schloss Belvedere",
         "lat": "48.19156",
         "lon": "16.38091",
         "timestamp": ["1900-05-07"],
         "importance": "1"
      }
      }, 
    {
      "type": "Feature",
      "geometry": {
        "type": "Point",
        "coordinates": [13.385556, 52.518889]
      },
      "properties": {
         "id": "pmb399",
         "title": "Hotel Continental [Berlin]",
         "lat": "52.518889",
         "lon": "13.385556",
         "timestamp": ["1900-11-28"],
         "importance": "1"
      }
      }, 
    {
      "type": "Feature",
      "geometry": {
        "type": "Point",
        "coordinates": [13.41536, 52.52041]
      },
      "properties": {
         "id": "pmb42626",
         "title": "Residenztheater Berlin",
         "lat": "52.52041",
         "lon": "13.41536",
         "timestamp": ["1900-11-24"],
         "importance": "1"
      }
      }, 
    {
      "type": "Feature",
      "geometry": {
        "type": "Point",
        "coordinates": [13.382222, 52.524444]
      },
      "properties": {
         "id": "pmb3",
         "title": "Deutsches Theater Berlin",
         "lat": "52.524444",
         "lon": "13.382222",
         "timestamp": ["1900-11-26"],
         "importance": "1"
      }
      }, 
    {
      "type": "Feature",
      "geometry": {
        "type": "Point",
        "coordinates": [13.329061, 52.505944]
      },
      "properties": {
         "id": "pmb692",
         "title": "Theater des Westens",
         "lat": "52.505944",
         "lon": "13.329061",
         "timestamp": ["1900-11-28"],
         "importance": "1"
      }
      }, 
    {
      "type": "Feature",
      "geometry": {
        "type": "Point",
        "coordinates": [16.337778, 48.196667]
      },
      "properties": {
         "id": "pmb184918",
         "title": "Westbahnhof",
         "lat": "48.196667",
         "lon": "16.337778",
         "timestamp": ["1900-05-21", "1900-06-12"],
         "importance": "2"
      }
      }, 
    {
      "type": "Feature",
      "geometry": {
        "type": "Point",
        "coordinates": [16.3672713, 48.1950553]
      },
      "properties": {
         "id": "pmb110",
         "title": "Kührer’s Restauration Zum rothen Rössel",
         "lat": "48.1950553",
         "lon": "16.3672713",
         "timestamp": ["1900-12-30"],
         "importance": "1"
      }
      }, 
    {
      "type": "Feature",
      "geometry": {
        "type": "Point",
        "coordinates": [16.369953, 48.194906]
      },
      "properties": {
         "id": "pmb184870",
         "title": "Hotel Victoria [Wien]",
         "lat": "48.194906",
         "lon": "16.369953",
         "timestamp": ["1900-02-06", "1900-02-10", "1900-12-13", "1900-12-14", "1900-12-31"],
         "importance": "5"
      }
      }, 
    {
      "type": "Feature",
      "geometry": {
        "type": "Point",
        "coordinates": [16.3566, 48.205142]
      },
      "properties": {
         "id": "pmb20",
         "title": "Volkstheater",
         "lat": "48.205142",
         "lon": "16.3566",
         "timestamp": ["1900-01-08", "1900-04-08", "1900-04-10", "1900-05-09", "1900-05-10", "1900-05-14", "1900-05-17", "1900-05-22", "1900-06-02", "1900-09-23", "1900-11-02"],
         "importance": "11"
      }
      }, 
    {
      "type": "Feature",
      "geometry": {
        "type": "Point",
        "coordinates": [16.3067984, 48.1806202]
      },
      "properties": {
         "id": "pmb92518",
         "title": "Schlosspark Schönbrunn",
         "lat": "48.1806202",
         "lon": "16.3067984",
         "timestamp": ["1900-04-25", "1900-05-12", "1900-10-28"],
         "importance": "3"
      }
      }, 
    {
      "type": "Feature",
      "geometry": {
        "type": "Point",
        "coordinates": [16.401694, 48.213944]
      },
      "properties": {
         "id": "pmb47",
         "title": "Schweizerhaus",
         "lat": "48.213944",
         "lon": "16.401694",
         "timestamp": ["1900-06-17", "1900-06-23", "1900-09-13", "1900-09-20"],
         "importance": "4"
      }
      }, 
    {
      "type": "Feature",
      "geometry": {
        "type": "Point",
        "coordinates": [16.402222, 48.214722]
      },
      "properties": {
         "id": "pmb685",
         "title": "Wurstelprater",
         "lat": "48.214722",
         "lon": "16.402222",
         "timestamp": ["1900-06-17"],
         "importance": "1"
      }
      }, 
    {
      "type": "Feature",
      "geometry": {
        "type": "Point",
        "coordinates": [16.36028, 48.217575]
      },
      "properties": {
         "id": "pmb34106",
         "title": "Zum silbernen Brunnen",
         "lat": "48.217575",
         "lon": "16.36028",
         "timestamp": ["1900-09-12"],
         "importance": "1"
      }
      }, 
    {
      "type": "Feature",
      "geometry": {
        "type": "Point",
        "coordinates": [16.360584, 48.194996]
      },
      "properties": {
         "id": "pmb38",
         "title": "Zur goldenen Glocke [5. Bezirk]",
         "lat": "48.194996",
         "lon": "16.360584",
         "timestamp": ["1900-06-21", "1900-12-19"],
         "importance": "2"
      }
      }, 
    {
      "type": "Feature",
      "geometry": {
        "type": "Point",
        "coordinates": [16.400807, 48.21528]
      },
      "properties": {
         "id": "pmb190716",
         "title": "Restaurant Zur schönen Schäferin (Inh. Peter Kaubek)",
         "lat": "48.21528",
         "lon": "16.400807",
         "timestamp": ["1900-09-16"],
         "importance": "1"
      }
      }, 
    {
      "type": "Feature",
      "geometry": {
        "type": "Point",
        "coordinates": [16.24809, 48.08611]
      },
      "properties": {
         "id": "pmb75",
         "title": "Hinterbrühl",
         "lat": "48.08611",
         "lon": "16.24809",
         "timestamp": ["1900-10-17"],
         "importance": "1"
      }
      }, 
    {
      "type": "Feature",
      "geometry": {
        "type": "Point",
        "coordinates": [16.361378, 48.203661]
      },
      "properties": {
         "id": "pmb47660",
         "title": "Kunsthistorisches Museum",
         "lat": "48.203661",
         "lon": "16.361378",
         "timestamp": ["1900-03-20", "1900-05-11", "1900-09-28"],
         "importance": "3"
      }
      }, 
    {
      "type": "Feature",
      "geometry": {
        "type": "Point",
        "coordinates": [16.43138888888889, 48.155833333333334]
      },
      "properties": {
         "id": "pmb192349",
         "title": "Israelitischer Friedhof",
         "lat": "48.155833333333334",
         "lon": "16.43138888888889",
         "timestamp": ["1900-05-02"],
         "importance": "1"
      }
      }, 
    {
      "type": "Feature",
      "geometry": {
        "type": "Point",
        "coordinates": [16.26269, 48.24616]
      },
      "properties": {
         "id": "pmb456",
         "title": "Rohrerhütte",
         "lat": "48.24616",
         "lon": "16.26269",
         "timestamp": ["1900-04-29", "1900-05-01", "1900-06-04", "1900-06-08", "1900-06-11", "1900-09-30"],
         "importance": "6"
      }
      }, 
    {
      "type": "Feature",
      "geometry": {
        "type": "Point",
        "coordinates": [16.375924, 48.208656]
      },
      "properties": {
         "id": "pmb190427",
         "title": "Wollzeile 15 (»Berthahof«)",
         "lat": "48.208656",
         "lon": "16.375924",
         "timestamp": ["1900-01-01", "1900-01-14", "1900-03-24", "1900-09-15", "1900-10-28", "1900-12-23"],
         "importance": "6"
      }
      }, 
    {
      "type": "Feature",
      "geometry": {
        "type": "Point",
        "coordinates": [16.339722, 48.192222]
      },
      "properties": {
         "id": "pmb77",
         "title": "Raimund-Theater",
         "lat": "48.192222",
         "lon": "16.339722",
         "timestamp": ["1900-01-31", "1900-02-07", "1900-04-28", "1900-09-04", "1900-12-22"],
         "importance": "5"
      }
      }, 
    {
      "type": "Feature",
      "geometry": {
        "type": "Point",
        "coordinates": [16.35736, 48.21533]
      },
      "properties": {
         "id": "pmb168934",
         "title": "Frankgasse 1",
         "lat": "48.21533",
         "lon": "16.35736",
         "timestamp": ["1900-04-28"],
         "importance": "1"
      }
      }, 
    {
      "type": "Feature",
      "geometry": {
        "type": "Point",
        "coordinates": [16.359134, 48.213768]
      },
      "properties": {
         "id": "pmb34210",
         "title": "Café Kaiserhof (Inh. Johann Wortner)",
         "lat": "48.213768",
         "lon": "16.359134",
         "timestamp": ["1900-02-11"],
         "importance": "1"
      }
      }, 
    {
      "type": "Feature",
      "geometry": {
        "type": "Point",
        "coordinates": [15.8634, 47.69209]
      },
      "properties": {
         "id": "pmb948",
         "title": "Payerbach",
         "lat": "47.69209",
         "lon": "15.8634",
         "timestamp": ["1900-05-27"],
         "importance": "1"
      }
      }, 
    {
      "type": "Feature",
      "geometry": {
        "type": "Point",
        "coordinates": [16.258056, 48.201667]
      },
      "properties": {
         "id": "pmb271",
         "title": "Hütteldorf",
         "lat": "48.201667",
         "lon": "16.258056",
         "timestamp": ["1900-10-09"],
         "importance": "1"
      }
      }, 
    {
      "type": "Feature",
      "geometry": {
        "type": "Point",
        "coordinates": [13.63333, 47.6]
      },
      "properties": {
         "id": "pmb65485",
         "title": "Steeg",
         "lat": "47.6",
         "lon": "13.63333",
         "timestamp": ["1900-06-29"],
         "importance": "1"
      }
      }, 
    {
      "type": "Feature",
      "geometry": {
        "type": "Point",
        "coordinates": [16.37971, 48.2129]
      },
      "properties": {
         "id": "pmb446",
         "title": "Hotel Continental [Wien]",
         "lat": "48.2129",
         "lon": "16.37971",
         "timestamp": ["1900-04-15"],
         "importance": "1"
      }
      }, 
    {
      "type": "Feature",
      "geometry": {
        "type": "Point",
        "coordinates": [15.33186, 48.22737]
      },
      "properties": {
         "id": "pmb91223",
         "title": "Melk",
         "lat": "48.22737",
         "lon": "15.33186",
         "timestamp": ["1900-05-30"],
         "importance": "1"
      }
      }, 
    {
      "type": "Feature",
      "geometry": {
        "type": "Point",
        "coordinates": [16.39467, 48.21699]
      },
      "properties": {
         "id": "pmb422",
         "title": "Venedig in Wien",
         "lat": "48.21699",
         "lon": "16.39467",
         "timestamp": ["1900-05-29", "1900-09-07"],
         "importance": "2"
      }
      }, 
    {
      "type": "Feature",
      "geometry": {
        "type": "Point",
        "coordinates": [16.391366725274, 48.21836158258]
      },
      "properties": {
         "id": "pmb530",
         "title": "Praterstern",
         "lat": "48.21836158258",
         "lon": "16.391366725274",
         "timestamp": ["1900-09-12"],
         "importance": "1"
      }
      }, 
    {
      "type": "Feature",
      "geometry": {
        "type": "Point",
        "coordinates": [13.385425, 52.51165]
      },
      "properties": {
         "id": "pmb400",
         "title": "Hotel Kaiserhof",
         "lat": "52.51165",
         "lon": "13.385425",
         "timestamp": ["1900-11-24"],
         "importance": "1"
      }
      }, 
    {
      "type": "Feature",
      "geometry": {
        "type": "Point",
        "coordinates": [16.382549, 48.21387]
      },
      "properties": {
         "id": "pmb199587",
         "title": "Praterstraße 21",
         "lat": "48.21387",
         "lon": "16.382549",
         "timestamp": ["1900-10-31"],
         "importance": "1"
      }
      }, 
    {
      "type": "Feature",
      "geometry": {
        "type": "Point",
        "coordinates": [16.39347, 48.21854]
      },
      "properties": {
         "id": "pmb185914",
         "title": "Zirkus Busch",
         "lat": "48.21854",
         "lon": "16.39347",
         "timestamp": ["1900-05-05"],
         "importance": "1"
      }
      }, 
    {
      "type": "Feature",
      "geometry": {
        "type": "Point",
        "coordinates": [16.369913, 48.208613]
      },
      "properties": {
         "id": "pmb39599",
         "title": "Graben",
         "lat": "48.208613",
         "lon": "16.369913",
         "timestamp": ["1900-02-18"],
         "importance": "1"
      }
      }, 
    {
      "type": "Feature",
      "geometry": {
        "type": "Point",
        "coordinates": [16.375135, 48.204532]
      },
      "properties": {
         "id": "pmb199692",
         "title": "Schellinggasse 6",
         "lat": "48.204532",
         "lon": "16.375135",
         "timestamp": ["1900-12-24"],
         "importance": "1"
      }
      }, 
    {
      "type": "Feature",
      "geometry": {
        "type": "Point",
        "coordinates": [16.395424, 48.21671]
      },
      "properties": {
         "id": "pmb199839",
         "title": "Petit Trianon [Venedig in Wien]",
         "lat": "48.21671",
         "lon": "16.395424",
         "timestamp": ["1900-06-06"],
         "importance": "1"
      }
      }, 
    {
      "type": "Feature",
      "geometry": {
        "type": "Point",
        "coordinates": [16.395968, 48.21277]
      },
      "properties": {
         "id": "pmb199854",
         "title": "Tiergarten am Schüttel",
         "lat": "48.21277",
         "lon": "16.395968",
         "timestamp": ["1900-09-21"],
         "importance": "1"
      }
      }, 
    {
      "type": "Feature",
      "geometry": {
        "type": "Point",
        "coordinates": [17.03533, 51.10773]
      },
      "properties": {
         "id": "pmb677",
         "title": "Breslau",
         "lat": "51.10773",
         "lon": "17.03533",
         "timestamp": ["1900-11-24"],
         "importance": "1"
      }
      }, 
    {
      "type": "Feature",
      "geometry": {
        "type": "Point",
        "coordinates": [16.3633523, 48.211807]
      },
      "properties": {
         "id": "pmb1106",
         "title": "Residenzhotel",
         "lat": "48.211807",
         "lon": "16.3633523",
         "timestamp": ["1900-12-15"],
         "importance": "1"
      }
      }, 
    {
      "type": "Feature",
      "geometry": {
        "type": "Point",
        "coordinates": [16.358208, 48.214879]
      },
      "properties": {
         "id": "pmb200335",
         "title": "Rooseveltplatz 2",
         "lat": "48.214879",
         "lon": "16.358208",
         "timestamp": ["1900-02-23"],
         "importance": "1"
      }
      }, 
    {
      "type": "Feature",
      "geometry": {
        "type": "Point",
        "coordinates": [16.364463, 48.21696]
      },
      "properties": {
         "id": "pmb200377",
         "title": "Kolingasse 19",
         "lat": "48.21696",
         "lon": "16.364463",
         "timestamp": ["1900-10-09"],
         "importance": "1"
      }
      }, 
    {
      "type": "Feature",
      "geometry": {
        "type": "Point",
        "coordinates": [16.370101, 48.207941]
      },
      "properties": {
         "id": "pmb200436",
         "title": "Dorotheergasse 3",
         "lat": "48.207941",
         "lon": "16.370101",
         "timestamp": ["1900-01-05", "1900-01-06", "1900-01-16"],
         "importance": "3"
      }
      }, 
    {
      "type": "Feature",
      "geometry": {
        "type": "Point",
        "coordinates": [16.495, 48.165833333333]
      },
      "properties": {
         "id": "pmb200745",
         "title": "Praterspitz",
         "lat": "48.165833333333",
         "lon": "16.495",
         "timestamp": ["1900-03-14"],
         "importance": "1"
      }
      }, 
    {
      "type": "Feature",
      "geometry": {
        "type": "Point",
        "coordinates": [16.341077, 48.23143]
      },
      "properties": {
         "id": "pmb200732",
         "title": "Cottagegasse 29",
         "lat": "48.23143",
         "lon": "16.341077",
         "timestamp": ["1900-03-20"],
         "importance": "1"
      }
      }, 
    {
      "type": "Feature",
      "geometry": {
        "type": "Point",
        "coordinates": [16.365508, 48.200364]
      },
      "properties": {
         "id": "pmb7",
         "title": "Secession",
         "lat": "48.200364",
         "lon": "16.365508",
         "timestamp": ["1900-01-27"],
         "importance": "1"
      }
      }, 
    {
      "type": "Feature",
      "geometry": {
        "type": "Point",
        "coordinates": [16.359758, 48.22265]
      },
      "properties": {
         "id": "pmb92249",
         "title": "Liechtenstein’sche Gemäldegalerie",
         "lat": "48.22265",
         "lon": "16.359758",
         "timestamp": ["1900-10-01"],
         "importance": "1"
      }
      }, 
    {
      "type": "Feature",
      "geometry": {
        "type": "Point",
        "coordinates": [13.21667, 47.41667]
      },
      "properties": {
         "id": "pmb41003",
         "title": "Bischofshofen",
         "lat": "47.41667",
         "lon": "13.21667",
         "timestamp": ["1900-08-10", "1900-08-11", "1900-08-12"],
         "importance": "3"
      }
      }, 
    {
      "type": "Feature",
      "geometry": {
        "type": "Point",
        "coordinates": [16.351339, 48.22327]
      },
      "properties": {
         "id": "pmb201129",
         "title": "Gewerbemuseum",
         "lat": "48.22327",
         "lon": "16.351339",
         "timestamp": ["1900-12-15"],
         "importance": "1"
      }
      }, 
    {
      "type": "Feature",
      "geometry": {
        "type": "Point",
        "coordinates": [16.357859, 48.215137]
      },
      "properties": {
         "id": "pmb201143",
         "title": "Rooseveltplatz 4–5",
         "lat": "48.215137",
         "lon": "16.357859",
         "timestamp": ["1900-02-04", "1900-02-05", "1900-02-12"],
         "importance": "3"
      }
      }, 
    {
      "type": "Feature",
      "geometry": {
        "type": "Point",
        "coordinates": [16.441111, 48.149444]
      },
      "properties": {
         "id": "pmb41376",
         "title": "Wiener Zentralfriedhof",
         "lat": "48.149444",
         "lon": "16.441111",
         "timestamp": ["1900-03-13", "1900-09-22", "1900-12-10"],
         "importance": "3"
      }
      }, 
    {
      "type": "Feature",
      "geometry": {
        "type": "Point",
        "coordinates": [16.366201, 48.210922]
      },
      "properties": {
         "id": "pmb207076",
         "title": "Strauchgasse 1",
         "lat": "48.210922",
         "lon": "16.366201",
         "timestamp": ["1900-01-02"],
         "importance": "1"
      }
      }, 
    {
      "type": "Feature",
      "geometry": {
        "type": "Point",
        "coordinates": [16.372443, 48.2014]
      },
      "properties": {
         "id": "pmb231889",
         "title": "Kärntnerring 14",
         "lat": "48.2014",
         "lon": "16.372443",
         "timestamp": ["1900-06-05"],
         "importance": "1"
      }
      }, 
    {
      "type": "Feature",
      "geometry": {
        "type": "Point",
        "coordinates": [16.37189, 48.21101]
      },
      "properties": {
         "id": "pmb168697",
         "title": "[Tuchlauben 22, Absteigequartier von Leopoldine Müller und Arthur Schnitzler]",
         "lat": "48.21101",
         "lon": "16.37189",
         "timestamp": ["1900-01-02", "1900-01-03", "1900-01-08", "1900-01-09", "1900-01-11", "1900-01-12", "1900-01-13", "1900-01-15", "1900-01-17", "1900-01-18", "1900-01-19", "1900-01-20", "1900-01-22", "1900-01-24", "1900-01-27"],
         "importance": "15"
      }
      }, 
    {
      "type": "Feature",
      "geometry": {
        "type": "Point",
        "coordinates": [16.34364, 48.21573]
      },
      "properties": {
         "id": "pmb168801",
         "title": "[Hebragasse, Absteigequartier Leopoldine Müller und Arthur Schnitzler]",
         "lat": "48.21573",
         "lon": "16.34364",
         "timestamp": ["1900-02-16", "1900-02-19"],
         "importance": "2"
      }
      }, 
    {
      "type": "Feature",
      "geometry": {
        "type": "Point",
        "coordinates": [15.707639, 47.605239]
      },
      "properties": {
         "id": "pmb714",
         "title": "Hotel Edlacherhof",
         "lat": "47.605239",
         "lon": "15.707639",
         "timestamp": ["1900-02-28", "1900-03-01", "1900-03-02", "1900-03-03", "1900-03-04", "1900-03-05"],
         "importance": "6"
      }
      }, 
    {
      "type": "Feature",
      "geometry": {
        "type": "Point",
        "coordinates": [16.368738, 48.213038]
      },
      "properties": {
         "id": "pmb207296",
         "title": "Tiefer Graben 23",
         "lat": "48.213038",
         "lon": "16.368738",
         "timestamp": ["1900-02-28"],
         "importance": "1"
      }
      }, 
    {
      "type": "Feature",
      "geometry": {
        "type": "Point",
        "coordinates": [15.79334, 47.73582]
      },
      "properties": {
         "id": "pmb207309",
         "title": "Wasserschloss Kaiserbrunn",
         "lat": "47.73582",
         "lon": "15.79334",
         "timestamp": ["1900-03-04"],
         "importance": "1"
      }
      }, 
    {
      "type": "Feature",
      "geometry": {
        "type": "Point",
        "coordinates": [16.37145, 48.20563]
      },
      "properties": {
         "id": "pmb144606",
         "title": "Hotel Erzherzog Karl [Wien]",
         "lat": "48.20563",
         "lon": "16.37145",
         "timestamp": ["1900-03-11"],
         "importance": "1"
      }
      }, 
    {
      "type": "Feature",
      "geometry": {
        "type": "Point",
        "coordinates": [16.364267, 48.212177]
      },
      "properties": {
         "id": "pmb207318",
         "title": "Schottenhof [1. Wiener Gemeindebezirk]",
         "lat": "48.212177",
         "lon": "16.364267",
         "timestamp": ["1900-03-15"],
         "importance": "1"
      }
      }, 
    {
      "type": "Feature",
      "geometry": {
        "type": "Point",
        "coordinates": [16.358541, 48.217654]
      },
      "properties": {
         "id": "pmb183224",
         "title": "Anatomisches Institut",
         "lat": "48.217654",
         "lon": "16.358541",
         "timestamp": ["1900-03-19"],
         "importance": "1"
      }
      }, 
    {
      "type": "Feature",
      "geometry": {
        "type": "Point",
        "coordinates": [16.368017, 48.21548]
      },
      "properties": {
         "id": "pmb207344",
         "title": "Neutorgasse 15",
         "lat": "48.21548",
         "lon": "16.368017",
         "timestamp": ["1900-03-22", "1900-04-13", "1900-04-18", "1900-04-29", "1900-05-13", "1900-06-07", "1900-06-14", "1900-10-07", "1900-10-24", "1900-10-26", "1900-11-14"],
         "importance": "11"
      }
      }, 
    {
      "type": "Feature",
      "geometry": {
        "type": "Point",
        "coordinates": [16.361545, 48.202247]
      },
      "properties": {
         "id": "pmb207349",
         "title": "Getreidemarkt 17",
         "lat": "48.202247",
         "lon": "16.361545",
         "timestamp": ["1900-03-24"],
         "importance": "1"
      }
      }, 
    {
      "type": "Feature",
      "geometry": {
        "type": "Point",
        "coordinates": [13.71261, 45.70258]
      },
      "properties": {
         "id": "pmb51692",
         "title": "Schloss Miramare",
         "lat": "45.70258",
         "lon": "13.71261",
         "timestamp": ["1900-03-28"],
         "importance": "1"
      }
      }, 
    {
      "type": "Feature",
      "geometry": {
        "type": "Point",
        "coordinates": [13.76667, 45.66667]
      },
      "properties": {
         "id": "pmb873",
         "title": "Triest",
         "lat": "45.66667",
         "lon": "13.76667",
         "timestamp": ["1900-03-29"],
         "importance": "1"
      }
      }, 
    {
      "type": "Feature",
      "geometry": {
        "type": "Point",
        "coordinates": [13.84806, 44.86833]
      },
      "properties": {
         "id": "pmb851",
         "title": "Pula",
         "lat": "44.86833",
         "lon": "13.84806",
         "timestamp": ["1900-03-29"],
         "importance": "1"
      }
      }, 
    {
      "type": "Feature",
      "geometry": {
        "type": "Point",
        "coordinates": [15.22514, 44.11578]
      },
      "properties": {
         "id": "pmb13076",
         "title": "Zadar",
         "lat": "44.11578",
         "lon": "15.22514",
         "timestamp": ["1900-03-29"],
         "importance": "1"
      }
      }, 
    {
      "type": "Feature",
      "geometry": {
        "type": "Point",
        "coordinates": [16.433333, 43.5]
      },
      "properties": {
         "id": "pmb4231",
         "title": "Split",
         "lat": "43.5",
         "lon": "16.433333",
         "timestamp": ["1900-03-29", "1900-04-03"],
         "importance": "2"
      }
      }, 
    {
      "type": "Feature",
      "geometry": {
        "type": "Point",
        "coordinates": [18.09216, 42.64807]
      },
      "properties": {
         "id": "pmb682",
         "title": "Dubrovnik",
         "lat": "42.64807",
         "lon": "18.09216",
         "timestamp": ["1900-03-30", "1900-03-31", "1900-04-02"],
         "importance": "3"
      }
      }, 
    {
      "type": "Feature",
      "geometry": {
        "type": "Point",
        "coordinates": [18.76825, 42.42067]
      },
      "properties": {
         "id": "pmb1073",
         "title": "Kotor",
         "lat": "42.42067",
         "lon": "18.76825",
         "timestamp": ["1900-03-30"],
         "importance": "1"
      }
      }, 
    {
      "type": "Feature",
      "geometry": {
        "type": "Point",
        "coordinates": [18.07833, 42.66778]
      },
      "properties": {
         "id": "pmb91401",
         "title": "Ombla",
         "lat": "42.66778",
         "lon": "18.07833",
         "timestamp": ["1900-03-31"],
         "importance": "1"
      }
      }, 
    {
      "type": "Feature",
      "geometry": {
        "type": "Point",
        "coordinates": [18.110555555555557, 42.65]
      },
      "properties": {
         "id": "pmb190389",
         "title": "Fort Imperial",
         "lat": "42.65",
         "lon": "18.110555555555557",
         "timestamp": ["1900-04-01"],
         "importance": "1"
      }
      }, 
    {
      "type": "Feature",
      "geometry": {
        "type": "Point",
        "coordinates": [16.370621, 48.197905]
      },
      "properties": {
         "id": "pmb209647",
         "title": "Karlsgasse 5",
         "lat": "48.197905",
         "lon": "16.370621",
         "timestamp": ["1900-04-17", "1900-04-18", "1900-04-19", "1900-04-21", "1900-04-24", "1900-04-26", "1900-05-07"],
         "importance": "7"
      }
      }, 
    {
      "type": "Feature",
      "geometry": {
        "type": "Point",
        "coordinates": [16.23036, 48.246719]
      },
      "properties": {
         "id": "pmb539",
         "title": "Sophienalpe",
         "lat": "48.246719",
         "lon": "16.23036",
         "timestamp": ["1900-04-29", "1900-05-01", "1900-05-06", "1900-09-30"],
         "importance": "4"
      }
      }, 
    {
      "type": "Feature",
      "geometry": {
        "type": "Point",
        "coordinates": [16.345709, 48.206949]
      },
      "properties": {
         "id": "pmb211290",
         "title": "Lerchenfelderstraße 71",
         "lat": "48.206949",
         "lon": "16.345709",
         "timestamp": ["1900-05-01"],
         "importance": "1"
      }
      }, 
    {
      "type": "Feature",
      "geometry": {
        "type": "Point",
        "coordinates": [15.91352, 47.78709]
      },
      "properties": {
         "id": "pmb6636",
         "title": "Puchberg am Schneeberg",
         "lat": "47.78709",
         "lon": "15.91352",
         "timestamp": ["1900-05-24", "1900-05-25", "1900-05-26", "1900-05-27"],
         "importance": "4"
      }
      }, 
    {
      "type": "Feature",
      "geometry": {
        "type": "Point",
        "coordinates": [15.83333, 47.75]
      },
      "properties": {
         "id": "pmb90051",
         "title": "Baumgartnerhaus",
         "lat": "47.75",
         "lon": "15.83333",
         "timestamp": ["1900-05-27"],
         "importance": "1"
      }
      }, 
    {
      "type": "Feature",
      "geometry": {
        "type": "Point",
        "coordinates": [15.33123, 48.22843]
      },
      "properties": {
         "id": "pmb211423",
         "title": "Stift Melk",
         "lat": "48.22843",
         "lon": "15.33123",
         "timestamp": ["1900-05-31"],
         "importance": "1"
      }
      }, 
    {
      "type": "Feature",
      "geometry": {
        "type": "Point",
        "coordinates": [16.297923, 48.183478]
      },
      "properties": {
         "id": "pmb211428",
         "title": "Wattmanngasse 11",
         "lat": "48.183478",
         "lon": "16.297923",
         "timestamp": ["1900-06-09", "1900-06-19"],
         "importance": "2"
      }
      }, 
    {
      "type": "Feature",
      "geometry": {
        "type": "Point",
        "coordinates": [14.77361, 47.96004]
      },
      "properties": {
         "id": "pmb2209",
         "title": "Waidhofen an der Ybbs",
         "lat": "47.96004",
         "lon": "14.77361",
         "timestamp": ["1900-06-12", "1900-06-13"],
         "importance": "2"
      }
      }, 
    {
      "type": "Feature",
      "geometry": {
        "type": "Point",
        "coordinates": [14.63333, 47.6]
      },
      "properties": {
         "id": "pmb90797",
         "title": "Gstatterboden",
         "lat": "47.6",
         "lon": "14.63333",
         "timestamp": ["1900-06-13", "1900-07-04"],
         "importance": "2"
      }
      }, 
    {
      "type": "Feature",
      "geometry": {
        "type": "Point",
        "coordinates": [16.338542, 48.217163]
      },
      "properties": {
         "id": "pmb211435",
         "title": "Café Hernals",
         "lat": "48.217163",
         "lon": "16.338542",
         "timestamp": ["1900-06-26"],
         "importance": "1"
      }
      }, 
    {
      "type": "Feature",
      "geometry": {
        "type": "Point",
        "coordinates": [13.7682587, 47.6417738]
      },
      "properties": {
         "id": "pmb40256",
         "title": "Gasthaus Brunnthaler",
         "lat": "47.6417738",
         "lon": "13.7682587",
         "timestamp": ["1900-06-29", "1900-06-30", "1900-07-01", "1900-07-02"],
         "importance": "4"
      }
      }, 
    {
      "type": "Feature",
      "geometry": {
        "type": "Point",
        "coordinates": [14.47188, 47.56155]
      },
      "properties": {
         "id": "pmb49312",
         "title": "Admont",
         "lat": "47.56155",
         "lon": "14.47188",
         "timestamp": ["1900-07-03", "1900-07-04", "1900-07-06"],
         "importance": "3"
      }
      }, 
    {
      "type": "Feature",
      "geometry": {
        "type": "Point",
        "coordinates": [14.58333, 47.53333]
      },
      "properties": {
         "id": "pmb90960",
         "title": "Johnsbach",
         "lat": "47.53333",
         "lon": "14.58333",
         "timestamp": ["1900-07-04"],
         "importance": "1"
      }
      }, 
    {
      "type": "Feature",
      "geometry": {
        "type": "Point",
        "coordinates": [15.84453, 47.69852]
      },
      "properties": {
         "id": "pmb44982",
         "title": "Kurhaus Rudolfsbad",
         "lat": "47.69852",
         "lon": "15.84453",
         "timestamp": ["1900-07-05", "1900-07-06", "1900-07-07", "1900-07-08", "1900-07-09", "1900-07-10", "1900-07-11", "1900-07-12", "1900-07-13", "1900-07-14", "1900-07-15", "1900-07-16", "1900-07-17", "1900-07-18", "1900-07-19", "1900-07-20", "1900-07-21", "1900-07-22", "1900-07-23"],
         "importance": "19"
      }
      }, 
    {
      "type": "Feature",
      "geometry": {
        "type": "Point",
        "coordinates": [14.46216, 47.57502]
      },
      "properties": {
         "id": "pmb211439",
         "title": "Stift Admont",
         "lat": "47.57502",
         "lon": "14.46216",
         "timestamp": ["1900-07-05"],
         "importance": "1"
      }
      }, 
    {
      "type": "Feature",
      "geometry": {
        "type": "Point",
        "coordinates": [15.01784, 47.33839]
      },
      "properties": {
         "id": "pmb90087",
         "title": "Sankt Michael in Obersteiermark",
         "lat": "47.33839",
         "lon": "15.01784",
         "timestamp": ["1900-07-20", "1900-07-21"],
         "importance": "2"
      }
      }, 
    {
      "type": "Feature",
      "geometry": {
        "type": "Point",
        "coordinates": [13.78655, 47.61105]
      },
      "properties": {
         "id": "pmb49309",
         "title": "Gasthaus Post",
         "lat": "47.61105",
         "lon": "13.78655",
         "timestamp": ["1900-07-28", "1900-07-29", "1900-07-30", "1900-07-31", "1900-08-01"],
         "importance": "5"
      }
      }, 
    {
      "type": "Feature",
      "geometry": {
        "type": "Point",
        "coordinates": [13.8405, 47.5561]
      },
      "properties": {
         "id": "pmb90971",
         "title": "Pichl-Kainisch",
         "lat": "47.5561",
         "lon": "13.8405",
         "timestamp": ["1900-07-29", "1900-07-30"],
         "importance": "2"
      }
      }, 
    {
      "type": "Feature",
      "geometry": {
        "type": "Point",
        "coordinates": [13.68553, 47.55782]
      },
      "properties": {
         "id": "pmb91381",
         "title": "Obertraun",
         "lat": "47.55782",
         "lon": "13.68553",
         "timestamp": ["1900-08-06"],
         "importance": "1"
      }
      }, 
    {
      "type": "Feature",
      "geometry": {
        "type": "Point",
        "coordinates": [12.726278, 47.216326]
      },
      "properties": {
         "id": "pmb40435",
         "title": "Alpenhaus Kesselfall",
         "lat": "47.216326",
         "lon": "12.726278",
         "timestamp": ["1900-08-13", "1900-08-14"],
         "importance": "2"
      }
      }, 
    {
      "type": "Feature",
      "geometry": {
        "type": "Point",
        "coordinates": [12.71667, 47.16667]
      },
      "properties": {
         "id": "pmb90148",
         "title": "Berghaus Moserboden",
         "lat": "47.16667",
         "lon": "12.71667",
         "timestamp": ["1900-08-14"],
         "importance": "1"
      }
      }, 
    {
      "type": "Feature",
      "geometry": {
        "type": "Point",
        "coordinates": [12.17487, 47.21799]
      },
      "properties": {
         "id": "pmb91073",
         "title": "Krimml",
         "lat": "47.21799",
         "lon": "12.17487",
         "timestamp": ["1900-08-14", "1900-08-15"],
         "importance": "2"
      }
      }, 
    {
      "type": "Feature",
      "geometry": {
        "type": "Point",
        "coordinates": [9.82255, 47.15476]
      },
      "properties": {
         "id": "pmb90366",
         "title": "Bludenz",
         "lat": "47.15476",
         "lon": "9.82255",
         "timestamp": ["1900-08-17"],
         "importance": "1"
      }
      }, 
    {
      "type": "Feature",
      "geometry": {
        "type": "Point",
        "coordinates": [9.91667, 47.06667]
      },
      "properties": {
         "id": "pmb38711",
         "title": "Schruns",
         "lat": "47.06667",
         "lon": "9.91667",
         "timestamp": ["1900-08-17", "1900-08-18"],
         "importance": "2"
      }
      }, 
    {
      "type": "Feature",
      "geometry": {
        "type": "Point",
        "coordinates": [9.91825, 46.96743]
      },
      "properties": {
         "id": "pmb90695",
         "title": "Gargellen",
         "lat": "46.96743",
         "lon": "9.91825",
         "timestamp": ["1900-08-18", "1900-08-19"],
         "importance": "2"
      }
      }, 
    {
      "type": "Feature",
      "geometry": {
        "type": "Point",
        "coordinates": [9.9079, 46.92495]
      },
      "properties": {
         "id": "pmb90119",
         "title": "Schlappiner Joch",
         "lat": "46.92495",
         "lon": "9.9079",
         "timestamp": ["1900-08-19"],
         "importance": "1"
      }
      }, 
    {
      "type": "Feature",
      "geometry": {
        "type": "Point",
        "coordinates": [9.87609, 46.88269]
      },
      "properties": {
         "id": "pmb38518",
         "title": "Klosters Dorf",
         "lat": "46.88269",
         "lon": "9.87609",
         "timestamp": ["1900-08-19"],
         "importance": "1"
      }
      }, 
    {
      "type": "Feature",
      "geometry": {
        "type": "Point",
        "coordinates": [9.94077, 46.45112]
      },
      "properties": {
         "id": "pmb91298",
         "title": "Morteratsch",
         "lat": "46.45112",
         "lon": "9.94077",
         "timestamp": ["1900-08-21"],
         "importance": "1"
      }
      }, 
    {
      "type": "Feature",
      "geometry": {
        "type": "Point",
        "coordinates": [10.453333, 46.528333]
      },
      "properties": {
         "id": "pmb41945",
         "title": "Stilfser Joch",
         "lat": "46.528333",
         "lon": "10.453333",
         "timestamp": ["1900-08-27"],
         "importance": "1"
      }
      }, 
    {
      "type": "Feature",
      "geometry": {
        "type": "Point",
        "coordinates": [10.50988, 46.5517]
      },
      "properties": {
         "id": "pmb91918",
         "title": "Trafoi",
         "lat": "46.5517",
         "lon": "10.50988",
         "timestamp": ["1900-08-27", "1900-08-28"],
         "importance": "2"
      }
      }, 
    {
      "type": "Feature",
      "geometry": {
        "type": "Point",
        "coordinates": [11.35888, 46.51754]
      },
      "properties": {
         "id": "pmb90090",
         "title": "Castel Roncolo",
         "lat": "46.51754",
         "lon": "11.35888",
         "timestamp": ["1900-08-31"],
         "importance": "1"
      }
      }, 
    {
      "type": "Feature",
      "geometry": {
        "type": "Point",
        "coordinates": [16.322222222222, 48.263611111111]
      },
      "properties": {
         "id": "pmb194903",
         "title": "Am Kobenzl",
         "lat": "48.263611111111",
         "lon": "16.322222222222",
         "timestamp": ["1900-09-09"],
         "importance": "1"
      }
      }, 
    {
      "type": "Feature",
      "geometry": {
        "type": "Point",
        "coordinates": [16.39592, 48.21693]
      },
      "properties": {
         "id": "pmb1035",
         "title": "Riesenrad",
         "lat": "48.21693",
         "lon": "16.39592",
         "timestamp": ["1900-09-13"],
         "importance": "1"
      }
      }, 
    {
      "type": "Feature",
      "geometry": {
        "type": "Point",
        "coordinates": [16.3855, 48.21682]
      },
      "properties": {
         "id": "pmb231146",
         "title": "Rotensterngasse 31",
         "lat": "48.21682",
         "lon": "16.3855",
         "timestamp": ["1900-09-15", "1900-09-20", "1900-09-21", "1900-09-22"],
         "importance": "4"
      }
      }, 
    {
      "type": "Feature",
      "geometry": {
        "type": "Point",
        "coordinates": [16.41575606941028, 48.20508551408161]
      },
      "properties": {
         "id": "pmb53159",
         "title": "Hauptallee",
         "lat": "48.20508551408161",
         "lon": "16.41575606941028",
         "timestamp": ["1900-09-20"],
         "importance": "1"
      }
      }, 
    {
      "type": "Feature",
      "geometry": {
        "type": "Point",
        "coordinates": [16.369532, 48.204466]
      },
      "properties": {
         "id": "pmb231011",
         "title": "Maysedergasse 6",
         "lat": "48.204466",
         "lon": "16.369532",
         "timestamp": ["1900-09-20"],
         "importance": "1"
      }
      }, 
    {
      "type": "Feature",
      "geometry": {
        "type": "Point",
        "coordinates": [16.401024, 48.214059]
      },
      "properties": {
         "id": "pmb231163",
         "title": "Hatschek’s Restauration",
         "lat": "48.214059",
         "lon": "16.401024",
         "timestamp": ["1900-09-29"],
         "importance": "1"
      }
      }, 
    {
      "type": "Feature",
      "geometry": {
        "type": "Point",
        "coordinates": [16.292851, 48.185508]
      },
      "properties": {
         "id": "pmb231173",
         "title": "Sanatorium Offer",
         "lat": "48.185508",
         "lon": "16.292851",
         "timestamp": ["1900-10-09"],
         "importance": "1"
      }
      }, 
    {
      "type": "Feature",
      "geometry": {
        "type": "Point",
        "coordinates": [16.238308, 48.010324]
      },
      "properties": {
         "id": "pmb34067",
         "title": "Julienhof",
         "lat": "48.010324",
         "lon": "16.238308",
         "timestamp": ["1900-10-12", "1900-10-13", "1900-10-14", "1900-10-15", "1900-10-16", "1900-10-17", "1900-10-18", "1900-10-19", "1900-10-20", "1900-10-21"],
         "importance": "10"
      }
      }, 
    {
      "type": "Feature",
      "geometry": {
        "type": "Point",
        "coordinates": [16.13566708, 48.0824079]
      },
      "properties": {
         "id": "pmb194940",
         "title": "Dornbach [Wienerwald]",
         "lat": "48.0824079",
         "lon": "16.13566708",
         "timestamp": ["1900-10-13"],
         "importance": "1"
      }
      }, 
    {
      "type": "Feature",
      "geometry": {
        "type": "Point",
        "coordinates": [16.20515, 48.01296111111111]
      },
      "properties": {
         "id": "pmb186454",
         "title": "Burgruine Rauhenstein",
         "lat": "48.01296111111111",
         "lon": "16.20515",
         "timestamp": ["1900-10-20"],
         "importance": "1"
      }
      }, 
    {
      "type": "Feature",
      "geometry": {
        "type": "Point",
        "coordinates": [17.0314915, 51.1052657]
      },
      "properties": {
         "id": "pmb125",
         "title": "Weinrestaurant Christian Hansen",
         "lat": "51.1052657",
         "lon": "17.0314915",
         "timestamp": ["1900-11-22", "1900-12-01"],
         "importance": "2"
      }
      }, 
    {
      "type": "Feature",
      "geometry": {
        "type": "Point",
        "coordinates": [17.0454, 51.10862]
      },
      "properties": {
         "id": "pmb525",
         "title": "Lobe-Theater",
         "lat": "51.10862",
         "lon": "17.0454",
         "timestamp": ["1900-11-22", "1900-11-23", "1900-11-29", "1900-11-30", "1900-12-01"],
         "importance": "5"
      }
      }, 
    {
      "type": "Feature",
      "geometry": {
        "type": "Point",
        "coordinates": [13.386111, 52.521667]
      },
      "properties": {
         "id": "pmb142557",
         "title": "Berliner Ensemble",
         "lat": "52.521667",
         "lon": "13.386111",
         "timestamp": ["1900-11-27"],
         "importance": "1"
      }
      }, 
    {
      "type": "Feature",
      "geometry": {
        "type": "Point",
        "coordinates": [17.030713, 51.106176]
      },
      "properties": {
         "id": "pmb145415",
         "title": "Hotel Monopol",
         "lat": "51.106176",
         "lon": "17.030713",
         "timestamp": ["1900-11-29", "1900-11-30", "1900-12-01", "1900-12-02"],
         "importance": "4"
      }
      }, 
    {
      "type": "Feature",
      "geometry": {
        "type": "Point",
        "coordinates": [16.380524, 48.201863]
      },
      "properties": {
         "id": "pmb231255",
         "title": "Am Heumarkt 13",
         "lat": "48.201863",
         "lon": "16.380524",
         "timestamp": ["1900-12-26"],
         "importance": "1"
      }
      }
  ]
}