{
  "type": "FeatureCollection",
  "features": [
    {
      "type": "Feature", 
      "geometry": {
        "type": "LineString", 
        "coordinates": [
            [11.51292, 46.62279], 
            [11.50771, 46.6134], 
            [11.53088, 46.59712], 
            [11.65598, 46.71503], 
            [11.63749, 46.73901]
          ]
      },
      "properties": {
        "name": "16. Juli 1901"
      }
    },
    {
      "type": "Feature",
      "geometry": {
        "type": "Point",
        "coordinates": [
          11.63749, 46.73901
        ]
      },
      "properties": {
        "title": "Vahrn",
        "timestamp": ["1901-07-16"],
        "pmb": "https://pmb.acdh.oeaw.ac.at/entity//"
      }
      },
    {
      "type": "Feature",
      "geometry": {
        "type": "Point",
        "coordinates": [
          11.65598, 46.71503
        ]
      },
      "properties": {
        "title": "Brixen",
        "timestamp": ["1901-07-16"],
        "pmb": "https://pmb.acdh.oeaw.ac.at/entity//"
      }
      },
    {
      "type": "Feature",
      "geometry": {
        "type": "Point",
        "coordinates": [
          11.53088, 46.59712
        ]
      },
      "properties": {
        "title": "Waidbruck",
        "timestamp": ["1901-07-16"],
        "pmb": "https://pmb.acdh.oeaw.ac.at/entity//"
      }
      },
    {
      "type": "Feature",
      "geometry": {
        "type": "Point",
        "coordinates": [
          11.51292, 46.62279
        ]
      },
      "properties": {
        "title": "Bad Dreikirchen",
        "timestamp": ["1901-07-16"],
        "pmb": "https://pmb.acdh.oeaw.ac.at/entity//"
      }
      },
    {
      "type": "Feature",
      "geometry": {
        "type": "Point",
        "coordinates": [
          11.50771, 46.6134
        ]
      },
      "properties": {
        "title": "Berghaus Briol",
        "timestamp": ["1901-07-16"],
        "pmb": "https://pmb.acdh.oeaw.ac.at/entity//"
      }
      }
  ]
}