{
  "type": "FeatureCollection",
  "features": [
    {
      "type": "Feature",
      "geometry": {
        "type": "Point",
        "coordinates": [16.384444, 48.215]
      },
      "properties": {
         "id": "pmb118",
         "title": "Carl-Theater",
         "lat": "48.215",
         "lon": "16.384444",
         "timestamp": ["1901-05-06"],
         "importance": "1"
      }
      }, 
    {
      "type": "Feature",
      "geometry": {
        "type": "Point",
        "coordinates": [16.373056, 48.208333]
      },
      "properties": {
         "id": "pmb50",
         "title": "Wien",
         "lat": "48.208333",
         "lon": "16.373056",
         "timestamp": ["1901-05-01", "1901-05-02", "1901-05-03", "1901-05-04", "1901-05-05", "1901-05-06", "1901-05-07", "1901-05-08", "1901-05-09", "1901-05-10", "1901-05-11", "1901-05-12", "1901-05-13", "1901-05-14", "1901-05-15", "1901-05-16", "1901-05-17", "1901-05-18", "1901-05-19", "1901-05-20", "1901-05-21", "1901-05-22", "1901-05-23", "1901-05-24", "1901-05-25", "1901-05-26", "1901-05-27", "1901-05-28"],
         "importance": "28"
      }
      }, 
    {
      "type": "Feature",
      "geometry": {
        "type": "Point",
        "coordinates": [16.361139, 48.210333]
      },
      "properties": {
         "id": "pmb14",
         "title": "Burgtheater",
         "lat": "48.210333",
         "lon": "16.361139",
         "timestamp": ["1901-05-12"],
         "importance": "1"
      }
      }, 
    {
      "type": "Feature",
      "geometry": {
        "type": "Point",
        "coordinates": [16.299116267833, 48.230916826952]
      },
      "properties": {
         "id": "pmb499",
         "title": "Dornbach",
         "lat": "48.230916826952",
         "lon": "16.299116267833",
         "timestamp": ["1901-05-05"],
         "importance": "1"
      }
      }, 
    {
      "type": "Feature",
      "geometry": {
        "type": "Point",
        "coordinates": [16.276509500872, 48.241960480337]
      },
      "properties": {
         "id": "pmb176",
         "title": "Schwarzenbergpark",
         "lat": "48.241960480337",
         "lon": "16.276509500872",
         "timestamp": ["1901-05-27", "1901-05-28"],
         "importance": "2"
      }
      }, 
    {
      "type": "Feature",
      "geometry": {
        "type": "Point",
        "coordinates": [16.24809, 48.08611]
      },
      "properties": {
         "id": "pmb75",
         "title": "Hinterbrühl",
         "lat": "48.08611",
         "lon": "16.24809",
         "timestamp": ["1901-05-29", "1901-05-30", "1901-05-31"],
         "importance": "3"
      }
      }, 
    {
      "type": "Feature",
      "geometry": {
        "type": "Point",
        "coordinates": [16.43138888888889, 48.155833333333334]
      },
      "properties": {
         "id": "pmb192349",
         "title": "Israelitischer Friedhof",
         "lat": "48.155833333333334",
         "lon": "16.43138888888889",
         "timestamp": ["1901-05-02"],
         "importance": "1"
      }
      }, 
    {
      "type": "Feature",
      "geometry": {
        "type": "Point",
        "coordinates": [16.26269, 48.24616]
      },
      "properties": {
         "id": "pmb456",
         "title": "Rohrerhütte",
         "lat": "48.24616",
         "lon": "16.26269",
         "timestamp": ["1901-05-15"],
         "importance": "1"
      }
      }, 
    {
      "type": "Feature",
      "geometry": {
        "type": "Point",
        "coordinates": [16.365508, 48.200364]
      },
      "properties": {
         "id": "pmb7",
         "title": "Secession",
         "lat": "48.200364",
         "lon": "16.365508",
         "timestamp": ["1901-05-06"],
         "importance": "1"
      }
      }, 
    {
      "type": "Feature",
      "geometry": {
        "type": "Point",
        "coordinates": [16.292851, 48.185508]
      },
      "properties": {
         "id": "pmb231173",
         "title": "Sanatorium Offer",
         "lat": "48.185508",
         "lon": "16.292851",
         "timestamp": ["1901-05-08"],
         "importance": "1"
      }
      }, 
    {
      "type": "Feature",
      "geometry": {
        "type": "Point",
        "coordinates": [16.2911, 48.2553]
      },
      "properties": {
         "id": "pmb242",
         "title": "Salmannsdorf",
         "lat": "48.2553",
         "lon": "16.2911",
         "timestamp": ["1901-05-05", "1901-05-14", "1901-05-15"],
         "importance": "3"
      }
      }, 
    {
      "type": "Feature",
      "geometry": {
        "type": "Point",
        "coordinates": [16.293147561818, 48.251927827778]
      },
      "properties": {
         "id": "pmb540",
         "title": "Hameau",
         "lat": "48.251927827778",
         "lon": "16.293147561818",
         "timestamp": ["1901-05-05"],
         "importance": "1"
      }
      }
  ]
}