{
  "type": "FeatureCollection",
  "features": [
    {
      "type": "Feature",
      "geometry": {
        "type": "Point",
        "coordinates": [16.384444, 48.215]
      },
      "properties": {
         "id": "pmb118",
         "title": "Carl-Theater",
         "lat": "48.215",
         "lon": "16.384444",
         "timestamp": ["1901-10-23"],
         "importance": "1"
      }
      }, 
    {
      "type": "Feature",
      "geometry": {
        "type": "Point",
        "coordinates": [16.373056, 48.208333]
      },
      "properties": {
         "id": "pmb50",
         "title": "Wien",
         "lat": "48.208333",
         "lon": "16.373056",
         "timestamp": ["1901-10-01", "1901-10-02", "1901-10-03", "1901-10-04", "1901-10-05", "1901-10-06", "1901-10-07", "1901-10-08", "1901-10-09", "1901-10-10", "1901-10-11", "1901-10-12", "1901-10-13", "1901-10-14", "1901-10-15", "1901-10-16", "1901-10-17", "1901-10-18", "1901-10-19", "1901-10-20", "1901-10-21", "1901-10-22", "1901-10-23", "1901-10-24", "1901-10-25", "1901-10-26", "1901-10-27", "1901-10-28", "1901-10-29", "1901-10-30", "1901-10-31"],
         "importance": "31"
      }
      }, 
    {
      "type": "Feature",
      "geometry": {
        "type": "Point",
        "coordinates": [16.361139, 48.210333]
      },
      "properties": {
         "id": "pmb14",
         "title": "Burgtheater",
         "lat": "48.210333",
         "lon": "16.361139",
         "timestamp": ["1901-10-15", "1901-10-30"],
         "importance": "2"
      }
      }, 
    {
      "type": "Feature",
      "geometry": {
        "type": "Point",
        "coordinates": [16.364351, 48.199478]
      },
      "properties": {
         "id": "pmb92603",
         "title": "Wiednertheater",
         "lat": "48.199478",
         "lon": "16.364351",
         "timestamp": ["1901-10-17"],
         "importance": "1"
      }
      }, 
    {
      "type": "Feature",
      "geometry": {
        "type": "Point",
        "coordinates": [16.3566, 48.205142]
      },
      "properties": {
         "id": "pmb20",
         "title": "Volkstheater",
         "lat": "48.205142",
         "lon": "16.3566",
         "timestamp": ["1901-10-05"],
         "importance": "1"
      }
      }, 
    {
      "type": "Feature",
      "geometry": {
        "type": "Point",
        "coordinates": [16.368913, 48.192766]
      },
      "properties": {
         "id": "pmb231273",
         "title": "Mayerhofgasse 12",
         "lat": "48.192766",
         "lon": "16.368913",
         "timestamp": ["1901-10-02"],
         "importance": "1"
      }
      }, 
    {
      "type": "Feature",
      "geometry": {
        "type": "Point",
        "coordinates": [16.400807, 48.21528]
      },
      "properties": {
         "id": "pmb190716",
         "title": "Restaurant Zur schönen Schäferin (Inh. Peter Kaubek)",
         "lat": "48.21528",
         "lon": "16.400807",
         "timestamp": ["1901-10-01"],
         "importance": "1"
      }
      }, 
    {
      "type": "Feature",
      "geometry": {
        "type": "Point",
        "coordinates": [16.359930555555554, 48.205130555555556]
      },
      "properties": {
         "id": "pmb192662",
         "title": "Naturhistorisches Museum",
         "lat": "48.205130555555556",
         "lon": "16.359930555555554",
         "timestamp": ["1901-10-06", "1901-10-13"],
         "importance": "2"
      }
      }, 
    {
      "type": "Feature",
      "geometry": {
        "type": "Point",
        "coordinates": [16.359758, 48.22265]
      },
      "properties": {
         "id": "pmb92249",
         "title": "Liechtenstein’sche Gemäldegalerie",
         "lat": "48.22265",
         "lon": "16.359758",
         "timestamp": ["1901-10-08"],
         "importance": "1"
      }
      }, 
    {
      "type": "Feature",
      "geometry": {
        "type": "Point",
        "coordinates": [16.441111, 48.149444]
      },
      "properties": {
         "id": "pmb41376",
         "title": "Wiener Zentralfriedhof",
         "lat": "48.149444",
         "lon": "16.441111",
         "timestamp": ["1901-10-28"],
         "importance": "1"
      }
      }, 
    {
      "type": "Feature",
      "geometry": {
        "type": "Point",
        "coordinates": [16.369532, 48.204466]
      },
      "properties": {
         "id": "pmb231011",
         "title": "Maysedergasse 6",
         "lat": "48.204466",
         "lon": "16.369532",
         "timestamp": ["1901-10-04"],
         "importance": "1"
      }
      }, 
    {
      "type": "Feature",
      "geometry": {
        "type": "Point",
        "coordinates": [16.371297, 48.204616]
      },
      "properties": {
         "id": "pmb183243",
         "title": "Annasaal",
         "lat": "48.204616",
         "lon": "16.371297",
         "timestamp": ["1901-10-06"],
         "importance": "1"
      }
      }, 
    {
      "type": "Feature",
      "geometry": {
        "type": "Point",
        "coordinates": [16.362746, 48.21997]
      },
      "properties": {
         "id": "pmb231653",
         "title": "Müllnergasse 3",
         "lat": "48.21997",
         "lon": "16.362746",
         "timestamp": ["1901-10-09"],
         "importance": "1"
      }
      }, 
    {
      "type": "Feature",
      "geometry": {
        "type": "Point",
        "coordinates": [16.353571, 48.239999]
      },
      "properties": {
         "id": "pmb231906",
         "title": "Dollinergasse 8",
         "lat": "48.239999",
         "lon": "16.353571",
         "timestamp": ["1901-10-10"],
         "importance": "1"
      }
      }, 
    {
      "type": "Feature",
      "geometry": {
        "type": "Point",
        "coordinates": [16.357905, 48.22297]
      },
      "properties": {
         "id": "pmb231667",
         "title": "Liechtensteinstraße 53, »Palais Kranz«",
         "lat": "48.22297",
         "lon": "16.357905",
         "timestamp": ["1901-10-20"],
         "importance": "1"
      }
      }, 
    {
      "type": "Feature",
      "geometry": {
        "type": "Point",
        "coordinates": [16.31268, 48.2629]
      },
      "properties": {
         "id": "pmb285",
         "title": "Am Himmel",
         "lat": "48.2629",
         "lon": "16.31268",
         "timestamp": ["1901-10-27"],
         "importance": "1"
      }
      }
  ]
}