{
  "type": "FeatureCollection",
  "features": [
    {
      "type": "Feature", 
      "geometry": {
        "type": "LineString", 
        "coordinates": [
            [16.1374028, 48.1008317], 
            [16.24924, 48.08736], 
            [16.23479, 48.0978], 
            [16.21011, 48.10583], 
            [16.19956, 48.11646]
          ]
      },
      "properties": {
        "name": "27. Juli 1902"
      }
    },
    {
      "type": "Feature",
      "geometry": {
        "type": "Point",
        "coordinates": [
          16.24924, 48.08736
        ]
      },
      "properties": {
        "title": "Hauptstraße 56",
        "timestamp": ["1902-07-27"],
        "pmb": "https://pmb.acdh.oeaw.ac.at/entity//"
      }
      },
    {
      "type": "Feature",
      "geometry": {
        "type": "Point",
        "coordinates": [
          16.21011, 48.10583
        ]
      },
      "properties": {
        "title": "Predigerstuhl",
        "timestamp": ["1902-07-27"],
        "pmb": "https://pmb.acdh.oeaw.ac.at/entity//"
      }
      },
    {
      "type": "Feature",
      "geometry": {
        "type": "Point",
        "coordinates": [
          16.19956, 48.11646
        ]
      },
      "properties": {
        "title": "Kaltenleutgeben",
        "timestamp": ["1902-07-27"],
        "pmb": "https://pmb.acdh.oeaw.ac.at/entity//", 
        "wikipedia": "https://de.wikipedia.org/wiki/Kaltenleutgeben"
      }
      },
    {
      "type": "Feature",
      "geometry": {
        "type": "Point",
        "coordinates": [
          16.23479, 48.0978
        ]
      },
      "properties": {
        "title": "Gießhübl",
        "timestamp": ["1902-07-27"],
        "pmb": "https://pmb.acdh.oeaw.ac.at/entity//"
      }
      },
    {
      "type": "Feature",
      "geometry": {
        "type": "Point",
        "coordinates": [
          16.1374028, 48.1008317
        ]
      },
      "properties": {
        "title": "Sulz im Wienerwald",
        "timestamp": ["1902-07-27"],
        "pmb": "https://pmb.acdh.oeaw.ac.at/entity//"
      }
      }
  ]
}