{
  "type": "FeatureCollection",
  "features": [
    {
      "type": "Feature",
      "geometry": {
        "type": "Point",
        "coordinates": [16.3691, 48.203]
      },
      "properties": {
         "id": "pmb15",
         "title": "Oper",
         "lat": "48.203",
         "lon": "16.3691",
         "timestamp": ["1902-05-21"],
         "importance": "1"
      }
      }, 
    {
      "type": "Feature",
      "geometry": {
        "type": "Point",
        "coordinates": [16.384444, 48.215]
      },
      "properties": {
         "id": "pmb118",
         "title": "Carl-Theater",
         "lat": "48.215",
         "lon": "16.384444",
         "timestamp": ["1902-05-06", "1902-05-10", "1902-05-26", "1902-05-31"],
         "importance": "4"
      }
      }, 
    {
      "type": "Feature",
      "geometry": {
        "type": "Point",
        "coordinates": [16.373056, 48.208333]
      },
      "properties": {
         "id": "pmb50",
         "title": "Wien",
         "lat": "48.208333",
         "lon": "16.373056",
         "timestamp": ["1902-05-01", "1902-05-02", "1902-05-03", "1902-05-04", "1902-05-05", "1902-05-06", "1902-05-07", "1902-05-08", "1902-05-09", "1902-05-10", "1902-05-11", "1902-05-12", "1902-05-13", "1902-05-14", "1902-05-15", "1902-05-16", "1902-05-17", "1902-05-18", "1902-05-19", "1902-05-22", "1902-05-24", "1902-05-25", "1902-05-26", "1902-05-27", "1902-05-28", "1902-05-30", "1902-05-31"],
         "importance": "27"
      }
      }, 
    {
      "type": "Feature",
      "geometry": {
        "type": "Point",
        "coordinates": [16.361139, 48.210333]
      },
      "properties": {
         "id": "pmb14",
         "title": "Burgtheater",
         "lat": "48.210333",
         "lon": "16.361139",
         "timestamp": ["1902-05-15"],
         "importance": "1"
      }
      }, 
    {
      "type": "Feature",
      "geometry": {
        "type": "Point",
        "coordinates": [16.355191, 48.248422]
      },
      "properties": {
         "id": "pmb92292",
         "title": "Hohe Warte",
         "lat": "48.248422",
         "lon": "16.355191",
         "timestamp": ["1902-05-21"],
         "importance": "1"
      }
      }, 
    {
      "type": "Feature",
      "geometry": {
        "type": "Point",
        "coordinates": [16.3672713, 48.1950553]
      },
      "properties": {
         "id": "pmb110",
         "title": "Kührer’s Restauration Zum rothen Rössel",
         "lat": "48.1950553",
         "lon": "16.3672713",
         "timestamp": ["1902-05-21"],
         "importance": "1"
      }
      }, 
    {
      "type": "Feature",
      "geometry": {
        "type": "Point",
        "coordinates": [16.3566, 48.205142]
      },
      "properties": {
         "id": "pmb20",
         "title": "Volkstheater",
         "lat": "48.205142",
         "lon": "16.3566",
         "timestamp": ["1902-05-07"],
         "importance": "1"
      }
      }, 
    {
      "type": "Feature",
      "geometry": {
        "type": "Point",
        "coordinates": [16.43138888888889, 48.155833333333334]
      },
      "properties": {
         "id": "pmb192349",
         "title": "Israelitischer Friedhof",
         "lat": "48.155833333333334",
         "lon": "16.43138888888889",
         "timestamp": ["1902-05-02"],
         "importance": "1"
      }
      }, 
    {
      "type": "Feature",
      "geometry": {
        "type": "Point",
        "coordinates": [16.377815, 48.21318]
      },
      "properties": {
         "id": "pmb185465",
         "title": "Tonello beim Dianabad",
         "lat": "48.21318",
         "lon": "16.377815",
         "timestamp": ["1902-05-10"],
         "importance": "1"
      }
      }, 
    {
      "type": "Feature",
      "geometry": {
        "type": "Point",
        "coordinates": [16.27, 48.0925]
      },
      "properties": {
         "id": "pmb91145",
         "title": "Burg Liechtenstein",
         "lat": "48.0925",
         "lon": "16.27",
         "timestamp": ["1902-05-19"],
         "importance": "1"
      }
      }, 
    {
      "type": "Feature",
      "geometry": {
        "type": "Point",
        "coordinates": [16.368738, 48.213038]
      },
      "properties": {
         "id": "pmb207296",
         "title": "Tiefer Graben 23",
         "lat": "48.213038",
         "lon": "16.368738",
         "timestamp": ["1902-05-15"],
         "importance": "1"
      }
      }, 
    {
      "type": "Feature",
      "geometry": {
        "type": "Point",
        "coordinates": [16.255556, 48.133611]
      },
      "properties": {
         "id": "pmb40297",
         "title": "Hofmannsthal-Schlössl",
         "lat": "48.133611",
         "lon": "16.255556",
         "timestamp": ["1902-05-01", "1902-05-18", "1902-05-30"],
         "importance": "3"
      }
      }, 
    {
      "type": "Feature",
      "geometry": {
        "type": "Point",
        "coordinates": [16.257741, 48.139276]
      },
      "properties": {
         "id": "pmb231810",
         "title": "Willergasse 2",
         "lat": "48.139276",
         "lon": "16.257741",
         "timestamp": ["1902-05-18", "1902-05-30"],
         "importance": "2"
      }
      }, 
    {
      "type": "Feature",
      "geometry": {
        "type": "Point",
        "coordinates": [16.24924, 48.08736]
      },
      "properties": {
         "id": "pmb145165",
         "title": "Hauptstraße 56",
         "lat": "48.08736",
         "lon": "16.24924",
         "timestamp": ["1902-05-01", "1902-05-03", "1902-05-04", "1902-05-05", "1902-05-08", "1902-05-09", "1902-05-11", "1902-05-14", "1902-05-15", "1902-05-16", "1902-05-17", "1902-05-19", "1902-05-20", "1902-05-21", "1902-05-24", "1902-05-25", "1902-05-28", "1902-05-29", "1902-05-30"],
         "importance": "19"
      }
      }, 
    {
      "type": "Feature",
      "geometry": {
        "type": "Point",
        "coordinates": [16.397985, 48.207773]
      },
      "properties": {
         "id": "pmb231967",
         "title": "Schüttelstraße 31",
         "lat": "48.207773",
         "lon": "16.397985",
         "timestamp": ["1902-05-13", "1902-05-31"],
         "importance": "2"
      }
      }, 
    {
      "type": "Feature",
      "geometry": {
        "type": "Point",
        "coordinates": [16.361349, 48.223406]
      },
      "properties": {
         "id": "pmb231945",
         "title": "Porzellangasse 45",
         "lat": "48.223406",
         "lon": "16.361349",
         "timestamp": ["1902-05-21"],
         "importance": "1"
      }
      }, 
    {
      "type": "Feature",
      "geometry": {
        "type": "Point",
        "coordinates": [16.383917, 48.193295]
      },
      "properties": {
         "id": "pmb92176",
         "title": "Botanischer Garten der Universität",
         "lat": "48.193295",
         "lon": "16.383917",
         "timestamp": ["1902-05-23"],
         "importance": "1"
      }
      }, 
    {
      "type": "Feature",
      "geometry": {
        "type": "Point",
        "coordinates": [16.35861, 48.251941]
      },
      "properties": {
         "id": "pmb92495",
         "title": "Rothschild-Gärten",
         "lat": "48.251941",
         "lon": "16.35861",
         "timestamp": ["1902-05-23"],
         "importance": "1"
      }
      }
  ]
}