{
  "type": "FeatureCollection",
  "features": [
    {
      "type": "Feature",
      "geometry": {
        "type": "Point",
        "coordinates": [16.373056, 48.208333]
      },
      "properties": {
         "id": "pmb50",
         "title": "Wien",
         "lat": "48.208333",
         "lon": "16.373056",
         "timestamp": ["1902-10-01", "1902-10-02", "1902-10-03", "1902-10-04", "1902-10-05", "1902-10-06", "1902-10-07", "1902-10-08", "1902-10-09", "1902-10-10", "1902-10-11", "1902-10-21", "1902-10-22", "1902-10-23", "1902-10-24", "1902-10-25", "1902-10-26", "1902-10-27", "1902-10-28", "1902-10-29", "1902-10-30", "1902-10-31"],
         "importance": "22"
      }
      }, 
    {
      "type": "Feature",
      "geometry": {
        "type": "Point",
        "coordinates": [13.41053, 52.52437]
      },
      "properties": {
         "id": "pmb168",
         "title": "Berlin",
         "lat": "52.52437",
         "lon": "13.41053",
         "timestamp": ["1902-10-12", "1902-10-13", "1902-10-14", "1902-10-15", "1902-10-16", "1902-10-17", "1902-10-18"],
         "importance": "7"
      }
      }, 
    {
      "type": "Feature",
      "geometry": {
        "type": "Point",
        "coordinates": [13.382222, 52.524444]
      },
      "properties": {
         "id": "pmb3",
         "title": "Deutsches Theater Berlin",
         "lat": "52.524444",
         "lon": "13.382222",
         "timestamp": ["1902-10-14"],
         "importance": "1"
      }
      }, 
    {
      "type": "Feature",
      "geometry": {
        "type": "Point",
        "coordinates": [16.35736, 48.21533]
      },
      "properties": {
         "id": "pmb168934",
         "title": "Frankgasse 1",
         "lat": "48.21533",
         "lon": "16.35736",
         "timestamp": ["1902-10-01", "1902-10-02", "1902-10-03", "1902-10-04", "1902-10-05", "1902-10-06", "1902-10-07", "1902-10-08", "1902-10-09", "1902-10-10", "1902-10-11", "1902-10-12", "1902-10-21", "1902-10-22", "1902-10-23", "1902-10-24", "1902-10-25", "1902-10-26", "1902-10-27", "1902-10-28", "1902-10-29", "1902-10-30", "1902-10-31"],
         "importance": "23"
      }
      }, 
    {
      "type": "Feature",
      "geometry": {
        "type": "Point",
        "coordinates": [16.339722, 48.192222]
      },
      "properties": {
         "id": "pmb77",
         "title": "Raimund-Theater",
         "lat": "48.192222",
         "lon": "16.339722",
         "timestamp": ["1902-10-28"],
         "importance": "1"
      }
      }, 
    {
      "type": "Feature",
      "geometry": {
        "type": "Point",
        "coordinates": [13.376984, 52.509241]
      },
      "properties": {
         "id": "pmb88",
         "title": "Palasthotel Berlin",
         "lat": "52.509241",
         "lon": "13.376984",
         "timestamp": ["1902-10-14"],
         "importance": "1"
      }
      }, 
    {
      "type": "Feature",
      "geometry": {
        "type": "Point",
        "coordinates": [13.385425, 52.51165]
      },
      "properties": {
         "id": "pmb400",
         "title": "Hotel Kaiserhof",
         "lat": "52.51165",
         "lon": "13.385425",
         "timestamp": ["1902-10-17"],
         "importance": "1"
      }
      }, 
    {
      "type": "Feature",
      "geometry": {
        "type": "Point",
        "coordinates": [13.273979, 52.482354]
      },
      "properties": {
         "id": "pmb232189",
         "title": "Wernerstraße 16",
         "lat": "52.482354",
         "lon": "13.273979",
         "timestamp": ["1902-10-16"],
         "importance": "1"
      }
      }, 
    {
      "type": "Feature",
      "geometry": {
        "type": "Point",
        "coordinates": [13.26586, 52.48338]
      },
      "properties": {
         "id": "pmb129",
         "title": "Grunewald",
         "lat": "52.48338",
         "lon": "13.26586",
         "timestamp": ["1902-10-16"],
         "importance": "1"
      }
      }, 
    {
      "type": "Feature",
      "geometry": {
        "type": "Point",
        "coordinates": [16.382549, 48.21387]
      },
      "properties": {
         "id": "pmb199587",
         "title": "Praterstraße 21",
         "lat": "48.21387",
         "lon": "16.382549",
         "timestamp": ["1902-10-10"],
         "importance": "1"
      }
      }, 
    {
      "type": "Feature",
      "geometry": {
        "type": "Point",
        "coordinates": [17.03533, 51.10773]
      },
      "properties": {
         "id": "pmb677",
         "title": "Breslau",
         "lat": "51.10773",
         "lon": "17.03533",
         "timestamp": ["1902-10-18", "1902-10-19", "1902-10-20"],
         "importance": "3"
      }
      }, 
    {
      "type": "Feature",
      "geometry": {
        "type": "Point",
        "coordinates": [16.33787, 48.19653]
      },
      "properties": {
         "id": "pmb438",
         "title": "Westbahnhof-Restaurant",
         "lat": "48.19653",
         "lon": "16.33787",
         "timestamp": ["1902-10-28"],
         "importance": "1"
      }
      }, 
    {
      "type": "Feature",
      "geometry": {
        "type": "Point",
        "coordinates": [16.441111, 48.149444]
      },
      "properties": {
         "id": "pmb41376",
         "title": "Wiener Zentralfriedhof",
         "lat": "48.149444",
         "lon": "16.441111",
         "timestamp": ["1902-10-05"],
         "importance": "1"
      }
      }, 
    {
      "type": "Feature",
      "geometry": {
        "type": "Point",
        "coordinates": [17.0314915, 51.1052657]
      },
      "properties": {
         "id": "pmb125",
         "title": "Weinrestaurant Christian Hansen",
         "lat": "51.1052657",
         "lon": "17.0314915",
         "timestamp": ["1902-10-20"],
         "importance": "1"
      }
      }, 
    {
      "type": "Feature",
      "geometry": {
        "type": "Point",
        "coordinates": [16.349593, 48.214365]
      },
      "properties": {
         "id": "pmb231623",
         "title": "Kochgasse 32",
         "lat": "48.214365",
         "lon": "16.349593",
         "timestamp": ["1902-10-29"],
         "importance": "1"
      }
      }, 
    {
      "type": "Feature",
      "geometry": {
        "type": "Point",
        "coordinates": [13.383456, 52.516152]
      },
      "properties": {
         "id": "pmb127",
         "title": "Hotel Bristol Berlin",
         "lat": "52.516152",
         "lon": "13.383456",
         "timestamp": ["1902-10-13", "1902-10-14", "1902-10-15", "1902-10-16", "1902-10-17", "1902-10-18"],
         "importance": "6"
      }
      }, 
    {
      "type": "Feature",
      "geometry": {
        "type": "Point",
        "coordinates": [16.283758, 48.1803]
      },
      "properties": {
         "id": "pmb232311",
         "title": "Münichreiterstraße 1",
         "lat": "48.1803",
         "lon": "16.283758",
         "timestamp": ["1902-10-23"],
         "importance": "1"
      }
      }, 
    {
      "type": "Feature",
      "geometry": {
        "type": "Point",
        "coordinates": [16.361349, 48.223406]
      },
      "properties": {
         "id": "pmb231945",
         "title": "Porzellangasse 45",
         "lat": "48.223406",
         "lon": "16.361349",
         "timestamp": ["1902-10-29"],
         "importance": "1"
      }
      }, 
    {
      "type": "Feature",
      "geometry": {
        "type": "Point",
        "coordinates": [16.335264, 48.228877]
      },
      "properties": {
         "id": "pmb232166",
         "title": "Gentzgasse 110",
         "lat": "48.228877",
         "lon": "16.335264",
         "timestamp": ["1902-10-02", "1902-10-03", "1902-10-06", "1902-10-09", "1902-10-11", "1902-10-12", "1902-10-21", "1902-10-22", "1902-10-23", "1902-10-25", "1902-10-26", "1902-10-31"],
         "importance": "12"
      }
      }, 
    {
      "type": "Feature",
      "geometry": {
        "type": "Point",
        "coordinates": [16.37693, 48.204251]
      },
      "properties": {
         "id": "pmb232172",
         "title": "Parkring 16",
         "lat": "48.204251",
         "lon": "16.37693",
         "timestamp": ["1902-10-08"],
         "importance": "1"
      }
      }, 
    {
      "type": "Feature",
      "geometry": {
        "type": "Point",
        "coordinates": [13.38911, 52.51742]
      },
      "properties": {
         "id": "pmb128",
         "title": "Schall und Rauch",
         "lat": "52.51742",
         "lon": "13.38911",
         "timestamp": ["1902-10-13"],
         "importance": "1"
      }
      }, 
    {
      "type": "Feature",
      "geometry": {
        "type": "Point",
        "coordinates": [13.3842209, 52.5170028]
      },
      "properties": {
         "id": "pmb221",
         "title": "Weinrestaurant zum Treppchen",
         "lat": "52.5170028",
         "lon": "13.3842209",
         "timestamp": ["1902-10-13", "1902-10-18"],
         "importance": "2"
      }
      }, 
    {
      "type": "Feature",
      "geometry": {
        "type": "Point",
        "coordinates": [13.396, 52.521]
      },
      "properties": {
         "id": "pmb232180",
         "title": "Pergamon Museum",
         "lat": "52.521",
         "lon": "13.396",
         "timestamp": ["1902-10-14"],
         "importance": "1"
      }
      }, 
    {
      "type": "Feature",
      "geometry": {
        "type": "Point",
        "coordinates": [13.396667, 52.523333]
      },
      "properties": {
         "id": "pmb232183",
         "title": "Hohenzollern­museum",
         "lat": "52.523333",
         "lon": "13.396667",
         "timestamp": ["1902-10-14"],
         "importance": "1"
      }
      }, 
    {
      "type": "Feature",
      "geometry": {
        "type": "Point",
        "coordinates": [13.318058, 52.511709]
      },
      "properties": {
         "id": "pmb334",
         "title": "Schiller-Theater",
         "lat": "52.511709",
         "lon": "13.318058",
         "timestamp": ["1902-10-15", "1902-10-16", "1902-10-17"],
         "importance": "3"
      }
      }, 
    {
      "type": "Feature",
      "geometry": {
        "type": "Point",
        "coordinates": [15.609444, 50.816944]
      },
      "properties": {
         "id": "pmb735",
         "title": "Jagniątków",
         "lat": "50.816944",
         "lon": "15.609444",
         "timestamp": ["1902-10-19", "1902-10-20"],
         "importance": "2"
      }
      }, 
    {
      "type": "Feature",
      "geometry": {
        "type": "Point",
        "coordinates": [15.607897, 50.816944]
      },
      "properties": {
         "id": "pmb1052",
         "title": "Haus Wiesenstein",
         "lat": "50.816944",
         "lon": "15.607897",
         "timestamp": ["1902-10-19", "1902-10-20"],
         "importance": "2"
      }
      }, 
    {
      "type": "Feature",
      "geometry": {
        "type": "Point",
        "coordinates": [15.643611111111, 50.833611111111]
      },
      "properties": {
         "id": "pmb232217",
         "title": "Burg Chojnik",
         "lat": "50.833611111111",
         "lon": "15.643611111111",
         "timestamp": ["1902-10-20"],
         "importance": "1"
      }
      }, 
    {
      "type": "Feature",
      "geometry": {
        "type": "Point",
        "coordinates": [16.352811, 48.210713]
      },
      "properties": {
         "id": "pmb40511",
         "title": "Sanatorium Fürth",
         "lat": "48.210713",
         "lon": "16.352811",
         "timestamp": ["1902-10-25", "1902-10-26", "1902-10-27", "1902-10-29"],
         "importance": "4"
      }
      }, 
    {
      "type": "Feature",
      "geometry": {
        "type": "Point",
        "coordinates": [16.367604, 48.20857]
      },
      "properties": {
         "id": "pmb232228",
         "title": "Kohlmarkt 9",
         "lat": "48.20857",
         "lon": "16.367604",
         "timestamp": ["1902-10-29"],
         "importance": "1"
      }
      }, 
    {
      "type": "Feature",
      "geometry": {
        "type": "Point",
        "coordinates": [16.321532, 48.212253]
      },
      "properties": {
         "id": "pmb690",
         "title": "Tierschutzhaus",
         "lat": "48.212253",
         "lon": "16.321532",
         "timestamp": ["1902-10-31"],
         "importance": "1"
      }
      }
  ]
}