{
  "type": "FeatureCollection",
  "features": [
    {
      "type": "Feature", 
      "geometry": {
        "type": "LineString", 
        "coordinates": [
            [16.24924, 48.08736], 
            [16.3672713, 48.1950553], 
            [16.3691, 48.203], 
            [16.373056, 48.208333], 
            [16.35736, 48.21533], 
            [16.361349, 48.223406], 
            [16.355191, 48.248422]
          ]
      },
      "properties": {
        "name": "21. Mai 1902"
      }
    },
    {
      "type": "Feature",
      "geometry": {
        "type": "Point",
        "coordinates": [
          16.24924, 48.08736
        ]
      },
      "properties": {
        "title": "Hauptstraße 56",
        "timestamp": ["1902-05-21"],
        "pmb": "https://pmb.acdh.oeaw.ac.at/entity//"
      }
      },
    {
      "type": "Feature",
      "geometry": {
        "type": "Point",
        "coordinates": [
          16.3691, 48.203
        ]
      },
      "properties": {
        "title": "Oper",
        "timestamp": ["1902-05-21"],
        "pmb": "https://pmb.acdh.oeaw.ac.at/entity//", 
        "wikipedia": "https://de.wikipedia.org/wiki/Wiener_Staatsoper"
      }
      },
    {
      "type": "Feature",
      "geometry": {
        "type": "Point",
        "coordinates": [
          16.355191, 48.248422
        ]
      },
      "properties": {
        "title": "Hohe Warte",
        "timestamp": ["1902-05-21"],
        "pmb": "https://pmb.acdh.oeaw.ac.at/entity//", 
        "wikipedia": "https://de.wikipedia.org/wiki/Hohe_Warte_(Wien)"
      }
      },
    {
      "type": "Feature",
      "geometry": {
        "type": "Point",
        "coordinates": [
          16.361349, 48.223406
        ]
      },
      "properties": {
        "title": "Porzellangasse 45",
        "timestamp": ["1902-05-21"],
        "pmb": "https://pmb.acdh.oeaw.ac.at/entity//"
      }
      },
    {
      "type": "Feature",
      "geometry": {
        "type": "Point",
        "coordinates": [
          16.3672713, 48.1950553
        ]
      },
      "properties": {
        "title": "Kührer’s Restauration Zum rothen Rössel",
        "timestamp": ["1902-05-21"],
        "pmb": "https://pmb.acdh.oeaw.ac.at/entity//"
      }
      },
    {
      "type": "Feature",
      "geometry": {
        "type": "Point",
        "coordinates": [
          16.373056, 48.208333
        ]
      },
      "properties": {
        "title": "Wien",
        "timestamp": ["1902-05-21"],
        "pmb": "https://pmb.acdh.oeaw.ac.at/entity//", 
        "wikipedia": "https://de.wikipedia.org/wiki/Wien"
      }
      },
    {
      "type": "Feature",
      "geometry": {
        "type": "Point",
        "coordinates": [
          16.35736, 48.21533
        ]
      },
      "properties": {
        "title": "Frankgasse 1",
        "timestamp": ["1902-05-21"],
        "pmb": "https://pmb.acdh.oeaw.ac.at/entity//"
      }
      }
  ]
}