{
  "type": "FeatureCollection",
  "features": [
    {
      "type": "Feature", 
      "geometry": {
        "type": "LineString", 
        "coordinates": [
            [15.643611111111, 50.833611111111], 
            [15.607897, 50.816944], 
            [15.609444, 50.816944], 
            [17.0314915, 51.1052657], 
            [17.03533, 51.10773]
          ]
      },
      "properties": {
        "name": "20. Oktober 1902"
      }
    },
    {
      "type": "Feature",
      "geometry": {
        "type": "Point",
        "coordinates": [
          15.609444, 50.816944
        ]
      },
      "properties": {
        "title": "Jagniątków",
        "timestamp": ["1902-10-20"],
        "pmb": "https://pmb.acdh.oeaw.ac.at/entity//", 
        "wikipedia": "https://de.wikipedia.org/wiki/Jagni%C4%85tk%C3%B3w"
      }
      },
    {
      "type": "Feature",
      "geometry": {
        "type": "Point",
        "coordinates": [
          15.607897, 50.816944
        ]
      },
      "properties": {
        "title": "Haus Wiesenstein",
        "timestamp": ["1902-10-20"],
        "pmb": "https://pmb.acdh.oeaw.ac.at/entity//"
      }
      },
    {
      "type": "Feature",
      "geometry": {
        "type": "Point",
        "coordinates": [
          15.643611111111, 50.833611111111
        ]
      },
      "properties": {
        "title": "Burg Chojnik",
        "timestamp": ["1902-10-20"],
        "pmb": "https://pmb.acdh.oeaw.ac.at/entity//", 
        "wikipedia": "https://de.wikipedia.org/wiki/Burg_Chojnik"
      }
      },
    {
      "type": "Feature",
      "geometry": {
        "type": "Point",
        "coordinates": [
          17.0314915, 51.1052657
        ]
      },
      "properties": {
        "title": "Weinrestaurant Christian Hansen",
        "timestamp": ["1902-10-20"],
        "pmb": "https://pmb.acdh.oeaw.ac.at/entity//"
      }
      },
    {
      "type": "Feature",
      "geometry": {
        "type": "Point",
        "coordinates": [
          17.03533, 51.10773
        ]
      },
      "properties": {
        "title": "Breslau",
        "timestamp": ["1902-10-20"],
        "pmb": "https://pmb.acdh.oeaw.ac.at/entity//", 
        "wikipedia": "https://de.wikipedia.org/wiki/Breslau"
      }
      }
  ]
}