{
  "type": "FeatureCollection",
  "features": [
    {
      "type": "Feature",
      "geometry": {
        "type": "Point",
        "coordinates": [16.3691, 48.203]
      },
      "properties": {
         "id": "pmb15",
         "title": "Oper",
         "lat": "48.203",
         "lon": "16.3691",
         "timestamp": ["1902-08-25"],
         "importance": "1"
      }
      }, 
    {
      "type": "Feature",
      "geometry": {
        "type": "Point",
        "coordinates": [16.373056, 48.208333]
      },
      "properties": {
         "id": "pmb50",
         "title": "Wien",
         "lat": "48.208333",
         "lon": "16.373056",
         "timestamp": ["1902-08-01", "1902-08-04", "1902-08-05", "1902-08-07", "1902-08-08", "1902-08-09", "1902-08-10", "1902-08-11", "1902-08-12", "1902-08-13", "1902-08-14", "1902-08-15", "1902-08-16", "1902-08-18", "1902-08-19", "1902-08-20", "1902-08-21", "1902-08-22", "1902-08-23", "1902-08-24", "1902-08-25", "1902-08-26", "1902-08-29", "1902-08-30"],
         "importance": "24"
      }
      }, 
    {
      "type": "Feature",
      "geometry": {
        "type": "Point",
        "coordinates": [16.369953, 48.194906]
      },
      "properties": {
         "id": "pmb184870",
         "title": "Hotel Victoria [Wien]",
         "lat": "48.194906",
         "lon": "16.369953",
         "timestamp": ["1902-08-04"],
         "importance": "1"
      }
      }, 
    {
      "type": "Feature",
      "geometry": {
        "type": "Point",
        "coordinates": [16.401694, 48.213944]
      },
      "properties": {
         "id": "pmb47",
         "title": "Schweizerhaus",
         "lat": "48.213944",
         "lon": "16.401694",
         "timestamp": ["1902-08-18"],
         "importance": "1"
      }
      }, 
    {
      "type": "Feature",
      "geometry": {
        "type": "Point",
        "coordinates": [16.204313096, 48.01122761]
      },
      "properties": {
         "id": "pmb184727",
         "title": "Hotel Sacher Baden",
         "lat": "48.01122761",
         "lon": "16.204313096",
         "timestamp": ["1902-08-23", "1902-08-26"],
         "importance": "2"
      }
      }, 
    {
      "type": "Feature",
      "geometry": {
        "type": "Point",
        "coordinates": [16.27, 48.0925]
      },
      "properties": {
         "id": "pmb91145",
         "title": "Burg Liechtenstein",
         "lat": "48.0925",
         "lon": "16.27",
         "timestamp": ["1902-08-04"],
         "importance": "1"
      }
      }, 
    {
      "type": "Feature",
      "geometry": {
        "type": "Point",
        "coordinates": [16.375135, 48.204532]
      },
      "properties": {
         "id": "pmb199692",
         "title": "Schellinggasse 6",
         "lat": "48.204532",
         "lon": "16.375135",
         "timestamp": ["1902-08-21"],
         "importance": "1"
      }
      }, 
    {
      "type": "Feature",
      "geometry": {
        "type": "Point",
        "coordinates": [16.255556, 48.133611]
      },
      "properties": {
         "id": "pmb40297",
         "title": "Hofmannsthal-Schlössl",
         "lat": "48.133611",
         "lon": "16.255556",
         "timestamp": ["1902-08-04", "1902-08-18", "1902-08-21"],
         "importance": "3"
      }
      }, 
    {
      "type": "Feature",
      "geometry": {
        "type": "Point",
        "coordinates": [16.257741, 48.139276]
      },
      "properties": {
         "id": "pmb231810",
         "title": "Willergasse 2",
         "lat": "48.139276",
         "lon": "16.257741",
         "timestamp": ["1902-08-02", "1902-08-04", "1902-08-10", "1902-08-18", "1902-08-21"],
         "importance": "5"
      }
      }, 
    {
      "type": "Feature",
      "geometry": {
        "type": "Point",
        "coordinates": [16.24924, 48.08736]
      },
      "properties": {
         "id": "pmb145165",
         "title": "Hauptstraße 56",
         "lat": "48.08736",
         "lon": "16.24924",
         "timestamp": ["1902-08-01", "1902-08-02", "1902-08-03", "1902-08-04", "1902-08-05", "1902-08-06", "1902-08-07", "1902-08-08", "1902-08-09", "1902-08-09", "1902-08-10", "1902-08-11", "1902-08-12", "1902-08-13", "1902-08-16", "1902-08-17", "1902-08-18", "1902-08-19", "1902-08-20", "1902-08-21", "1902-08-22", "1902-08-23", "1902-08-24", "1902-08-25", "1902-08-26", "1902-08-27", "1902-08-28", "1902-08-29", "1902-08-30", "1902-08-31"],
         "importance": "30"
      }
      }, 
    {
      "type": "Feature",
      "geometry": {
        "type": "Point",
        "coordinates": [16.274268, 48.055584]
      },
      "properties": {
         "id": "pmb232064",
         "title": "Richardhof",
         "lat": "48.055584",
         "lon": "16.274268",
         "timestamp": ["1902-08-03"],
         "importance": "1"
      }
      }, 
    {
      "type": "Feature",
      "geometry": {
        "type": "Point",
        "coordinates": [16.18772, 48.09623]
      },
      "properties": {
         "id": "pmb232113",
         "title": "Höllensteinhaus",
         "lat": "48.09623",
         "lon": "16.18772",
         "timestamp": ["1902-08-20"],
         "importance": "1"
      }
      }
  ]
}