{
  "type": "FeatureCollection",
  "features": [
    {
      "type": "Feature", 
      "geometry": {
        "type": "LineString", 
        "coordinates": [
            [13.060833, 47.762222], 
            [13.111944, 47.805528], 
            [13.045769, 47.813139], 
            [13.042019, 47.805528], 
            [13.043401, 47.802045], 
            [13.045, 47.799167]
          ]
      },
      "properties": {
        "name": "28. Juni 1902"
      }
    },
    {
      "type": "Feature",
      "geometry": {
        "type": "Point",
        "coordinates": [
          13.043401, 47.802045
        ]
      },
      "properties": {
        "title": "Österreichischer Hof",
        "timestamp": ["1902-06-28"],
        "pmb": "https://pmb.acdh.oeaw.ac.at/entity//", 
        "wikipedia": "https://de.wikipedia.org/wiki/Hotel_Sacher_Salzburg"
      }
      },
    {
      "type": "Feature",
      "geometry": {
        "type": "Point",
        "coordinates": [
          13.042019, 47.805528
        ]
      },
      "properties": {
        "title": "Mirabell",
        "timestamp": ["1902-06-28"],
        "pmb": "https://pmb.acdh.oeaw.ac.at/entity//", 
        "wikipedia": "https://de.wikipedia.org/wiki/Schloss_Mirabell"
      }
      },
    {
      "type": "Feature",
      "geometry": {
        "type": "Point",
        "coordinates": [
          13.045, 47.799167
        ]
      },
      "properties": {
        "title": "Café Tomaselli",
        "timestamp": ["1902-06-28"],
        "pmb": "https://pmb.acdh.oeaw.ac.at/entity//", 
        "wikipedia": "https://de.wikipedia.org/wiki/Caf%C3%A9_Tomaselli"
      }
      },
    {
      "type": "Feature",
      "geometry": {
        "type": "Point",
        "coordinates": [
          13.045769, 47.813139
        ]
      },
      "properties": {
        "title": "Hauptbahnhof Salzburg",
        "timestamp": ["1902-06-28"],
        "pmb": "https://pmb.acdh.oeaw.ac.at/entity//", 
        "wikipedia": "https://de.wikipedia.org/wiki/Salzburg_Hauptbahnhof"
      }
      },
    {
      "type": "Feature",
      "geometry": {
        "type": "Point",
        "coordinates": [
          13.060833, 47.762222
        ]
      },
      "properties": {
        "title": "Hellbrunn",
        "timestamp": ["1902-06-28"],
        "pmb": "https://pmb.acdh.oeaw.ac.at/entity//", 
        "wikipedia": "https://de.wikipedia.org/wiki/Hellbrunn"
      }
      },
    {
      "type": "Feature",
      "geometry": {
        "type": "Point",
        "coordinates": [
          13.111944, 47.805528
        ]
      },
      "properties": {
        "title": "Gaisberg",
        "timestamp": ["1902-06-28"],
        "pmb": "https://pmb.acdh.oeaw.ac.at/entity//", 
        "wikipedia": "https://de.wikipedia.org/wiki/Gaisberg_(Salzburg)"
      }
      }
  ]
}