{
  "type": "FeatureCollection",
  "features": [
    {
      "type": "Feature",
      "geometry": {
        "type": "Point",
        "coordinates": [16.373056, 48.208333]
      },
      "properties": {
         "id": "pmb50",
         "title": "Wien",
         "lat": "48.208333",
         "lon": "16.373056",
         "timestamp": ["1902-02-01", "1902-02-02", "1902-02-03", "1902-02-04", "1902-02-06", "1902-02-07", "1902-02-07", "1902-02-08", "1902-02-08", "1902-02-09", "1902-02-10", "1902-02-11", "1902-02-12", "1902-02-15", "1902-02-18", "1902-02-19", "1902-02-20", "1902-02-23", "1902-02-23", "1902-02-24", "1902-02-27", "1902-02-28"],
         "importance": "22"
      }
      }, 
    {
      "type": "Feature",
      "geometry": {
        "type": "Point",
        "coordinates": [16.3642, 48.19941]
      },
      "properties": {
         "id": "pmb37",
         "title": "Theater an der Wien",
         "lat": "48.19941",
         "lon": "16.3642",
         "timestamp": ["1902-02-08"],
         "importance": "1"
      }
      }, 
    {
      "type": "Feature",
      "geometry": {
        "type": "Point",
        "coordinates": [16.361139, 48.210333]
      },
      "properties": {
         "id": "pmb14",
         "title": "Burgtheater",
         "lat": "48.210333",
         "lon": "16.361139",
         "timestamp": ["1902-02-15", "1902-02-27"],
         "importance": "2"
      }
      }, 
    {
      "type": "Feature",
      "geometry": {
        "type": "Point",
        "coordinates": [16.299116267833, 48.230916826952]
      },
      "properties": {
         "id": "pmb499",
         "title": "Dornbach",
         "lat": "48.230916826952",
         "lon": "16.299116267833",
         "timestamp": ["1902-02-20"],
         "importance": "1"
      }
      }, 
    {
      "type": "Feature",
      "geometry": {
        "type": "Point",
        "coordinates": [16.37084, 48.210333]
      },
      "properties": {
         "id": "pmb2",
         "title": "Konservatorium der Gesellschaft der Musikfreunde",
         "lat": "48.210333",
         "lon": "16.37084",
         "timestamp": ["1902-02-20", "1902-02-23"],
         "importance": "2"
      }
      }, 
    {
      "type": "Feature",
      "geometry": {
        "type": "Point",
        "coordinates": [16.29101, 48.17547]
      },
      "properties": {
         "id": "pmb63",
         "title": "XIII., Hietzing",
         "lat": "48.17547",
         "lon": "16.29101",
         "timestamp": ["1902-02-22"],
         "importance": "1"
      }
      }, 
    {
      "type": "Feature",
      "geometry": {
        "type": "Point",
        "coordinates": [16.28921, 48.08605]
      },
      "properties": {
         "id": "pmb968",
         "title": "Mödling",
         "lat": "48.08605",
         "lon": "16.28921",
         "timestamp": ["1902-02-04", "1902-02-05", "1902-02-06", "1902-02-28"],
         "importance": "4"
      }
      }, 
    {
      "type": "Feature",
      "geometry": {
        "type": "Point",
        "coordinates": [16.16265, 48.19512]
      },
      "properties": {
         "id": "pmb91552",
         "title": "Purkersdorf",
         "lat": "48.19512",
         "lon": "16.16265",
         "timestamp": ["1902-02-27"],
         "importance": "1"
      }
      }, 
    {
      "type": "Feature",
      "geometry": {
        "type": "Point",
        "coordinates": [16.266389, 48.188056]
      },
      "properties": {
         "id": "pmb165",
         "title": "Ober Sankt Veit",
         "lat": "48.188056",
         "lon": "16.266389",
         "timestamp": ["1902-02-28"],
         "importance": "1"
      }
      }, 
    {
      "type": "Feature",
      "geometry": {
        "type": "Point",
        "coordinates": [16.25736, 48.11895]
      },
      "properties": {
         "id": "pmb2837",
         "title": "Perchtoldsdorf",
         "lat": "48.11895",
         "lon": "16.25736",
         "timestamp": ["1902-02-19"],
         "importance": "1"
      }
      }, 
    {
      "type": "Feature",
      "geometry": {
        "type": "Point",
        "coordinates": [16.362946, 48.214527]
      },
      "properties": {
         "id": "pmb337",
         "title": "Hotel de France",
         "lat": "48.214527",
         "lon": "16.362946",
         "timestamp": ["1902-02-23"],
         "importance": "1"
      }
      }, 
    {
      "type": "Feature",
      "geometry": {
        "type": "Point",
        "coordinates": [16.300034240016, 48.246838181084]
      },
      "properties": {
         "id": "pmb169",
         "title": "Pötzleinsdorf",
         "lat": "48.246838181084",
         "lon": "16.300034240016",
         "timestamp": ["1902-02-09"],
         "importance": "1"
      }
      }, 
    {
      "type": "Feature",
      "geometry": {
        "type": "Point",
        "coordinates": [16.261108, 48.081286]
      },
      "properties": {
         "id": "pmb625",
         "title": "Zum goldenen Stern",
         "lat": "48.081286",
         "lon": "16.261108",
         "timestamp": ["1902-02-26", "1902-02-28"],
         "importance": "2"
      }
      }, 
    {
      "type": "Feature",
      "geometry": {
        "type": "Point",
        "coordinates": [16.35736, 48.21533]
      },
      "properties": {
         "id": "pmb168934",
         "title": "Frankgasse 1",
         "lat": "48.21533",
         "lon": "16.35736",
         "timestamp": ["1902-02-01", "1902-02-02", "1902-02-03", "1902-02-04", "1902-02-06", "1902-02-07", "1902-02-08", "1902-02-09", "1902-02-10", "1902-02-11", "1902-02-12", "1902-02-15", "1902-02-18", "1902-02-19", "1902-02-20", "1902-02-22", "1902-02-23", "1902-02-24", "1902-02-27", "1902-02-28"],
         "importance": "20"
      }
      }, 
    {
      "type": "Feature",
      "geometry": {
        "type": "Point",
        "coordinates": [16.256152195922, 48.132793312328]
      },
      "properties": {
         "id": "pmb173",
         "title": "Rodaun",
         "lat": "48.132793312328",
         "lon": "16.256152195922",
         "timestamp": ["1902-02-05"],
         "importance": "1"
      }
      }, 
    {
      "type": "Feature",
      "geometry": {
        "type": "Point",
        "coordinates": [16.258056, 48.201667]
      },
      "properties": {
         "id": "pmb271",
         "title": "Hütteldorf",
         "lat": "48.201667",
         "lon": "16.258056",
         "timestamp": ["1902-02-20"],
         "importance": "1"
      }
      }, 
    {
      "type": "Feature",
      "geometry": {
        "type": "Point",
        "coordinates": [16.257741, 48.139276]
      },
      "properties": {
         "id": "pmb231810",
         "title": "Willergasse 2",
         "lat": "48.139276",
         "lon": "16.257741",
         "timestamp": ["1902-02-05"],
         "importance": "1"
      }
      }, 
    {
      "type": "Feature",
      "geometry": {
        "type": "Point",
        "coordinates": [16.26373, 48.090856]
      },
      "properties": {
         "id": "pmb231849",
         "title": "Johannesstraße",
         "lat": "48.090856",
         "lon": "16.26373",
         "timestamp": ["1902-02-05"],
         "importance": "1"
      }
      }, 
    {
      "type": "Feature",
      "geometry": {
        "type": "Point",
        "coordinates": [16.363358, 48.202076]
      },
      "properties": {
         "id": "pmb231864",
         "title": "Eschenbachgasse 9",
         "lat": "48.202076",
         "lon": "16.363358",
         "timestamp": ["1902-02-19"],
         "importance": "1"
      }
      }, 
    {
      "type": "Feature",
      "geometry": {
        "type": "Point",
        "coordinates": [16.283758, 48.1803]
      },
      "properties": {
         "id": "pmb232311",
         "title": "Münichreiterstraße 1",
         "lat": "48.1803",
         "lon": "16.283758",
         "timestamp": ["1902-02-22"],
         "importance": "1"
      }
      }, 
    {
      "type": "Feature",
      "geometry": {
        "type": "Point",
        "coordinates": [16.400641, 48.203402]
      },
      "properties": {
         "id": "pmb231874",
         "title": "Schüttelstraße 73",
         "lat": "48.203402",
         "lon": "16.400641",
         "timestamp": ["1902-02-24"],
         "importance": "1"
      }
      }, 
    {
      "type": "Feature",
      "geometry": {
        "type": "Point",
        "coordinates": [16.28466, 48.17032]
      },
      "properties": {
         "id": "pmb91784",
         "title": "Speising",
         "lat": "48.17032",
         "lon": "16.28466",
         "timestamp": ["1902-02-28"],
         "importance": "1"
      }
      }
  ]
}