{
  "type": "FeatureCollection",
  "features": [
    {
      "type": "Feature",
      "geometry": {
        "type": "Point",
        "coordinates": [16.373056, 48.208333]
      },
      "properties": {
         "id": "pmb50",
         "title": "Wien",
         "lat": "48.208333",
         "lon": "16.373056",
         "timestamp": ["1902-09-01", "1902-09-02", "1902-09-07", "1902-09-08", "1902-09-13", "1902-09-14", "1902-09-15", "1902-09-16", "1902-09-19", "1902-09-20", "1902-09-21", "1902-09-22", "1902-09-23", "1902-09-25", "1902-09-26", "1902-09-28", "1902-09-29", "1902-09-30"],
         "importance": "18"
      }
      }, 
    {
      "type": "Feature",
      "geometry": {
        "type": "Point",
        "coordinates": [16.361139, 48.210333]
      },
      "properties": {
         "id": "pmb14",
         "title": "Burgtheater",
         "lat": "48.210333",
         "lon": "16.361139",
         "timestamp": ["1902-09-28"],
         "importance": "1"
      }
      }, 
    {
      "type": "Feature",
      "geometry": {
        "type": "Point",
        "coordinates": [14.34014, 47.66487]
      },
      "properties": {
         "id": "pmb91794",
         "title": "Spital am Pyhrn",
         "lat": "47.66487",
         "lon": "14.34014",
         "timestamp": ["1902-09-05"],
         "importance": "1"
      }
      }, 
    {
      "type": "Feature",
      "geometry": {
        "type": "Point",
        "coordinates": [13.5358, 47.8004]
      },
      "properties": {
         "id": "pmb34344",
         "title": "Weißenbach am Attersee",
         "lat": "47.8004",
         "lon": "13.5358",
         "timestamp": ["1902-09-07"],
         "importance": "1"
      }
      }, 
    {
      "type": "Feature",
      "geometry": {
        "type": "Point",
        "coordinates": [14.88837, 47.54607]
      },
      "properties": {
         "id": "pmb908",
         "title": "Eisenerz",
         "lat": "47.54607",
         "lon": "14.88837",
         "timestamp": ["1902-09-04"],
         "importance": "1"
      }
      }, 
    {
      "type": "Feature",
      "geometry": {
        "type": "Point",
        "coordinates": [16.379576773014, 48.230065709671]
      },
      "properties": {
         "id": "pmb202",
         "title": "Nordwestbahnhof",
         "lat": "48.230065709671",
         "lon": "16.379576773014",
         "timestamp": ["1902-09-01"],
         "importance": "1"
      }
      }, 
    {
      "type": "Feature",
      "geometry": {
        "type": "Point",
        "coordinates": [16.367998, 48.203159]
      },
      "properties": {
         "id": "pmb185989",
         "title": "Opernrestaurant",
         "lat": "48.203159",
         "lon": "16.367998",
         "timestamp": ["1902-09-01"],
         "importance": "1"
      }
      }, 
    {
      "type": "Feature",
      "geometry": {
        "type": "Point",
        "coordinates": [16.43138888888889, 48.155833333333334]
      },
      "properties": {
         "id": "pmb192349",
         "title": "Israelitischer Friedhof",
         "lat": "48.155833333333334",
         "lon": "16.43138888888889",
         "timestamp": ["1902-09-21"],
         "importance": "1"
      }
      }, 
    {
      "type": "Feature",
      "geometry": {
        "type": "Point",
        "coordinates": [15.8241, 47.64224]
      },
      "properties": {
         "id": "pmb189",
         "title": "Semmering",
         "lat": "47.64224",
         "lon": "15.8241",
         "timestamp": ["1902-09-03"],
         "importance": "1"
      }
      }, 
    {
      "type": "Feature",
      "geometry": {
        "type": "Point",
        "coordinates": [16.339722, 48.192222]
      },
      "properties": {
         "id": "pmb77",
         "title": "Raimund-Theater",
         "lat": "48.192222",
         "lon": "16.339722",
         "timestamp": ["1902-09-29"],
         "importance": "1"
      }
      }, 
    {
      "type": "Feature",
      "geometry": {
        "type": "Point",
        "coordinates": [16.375135, 48.204532]
      },
      "properties": {
         "id": "pmb199692",
         "title": "Schellinggasse 6",
         "lat": "48.204532",
         "lon": "16.375135",
         "timestamp": ["1902-09-25"],
         "importance": "1"
      }
      }, 
    {
      "type": "Feature",
      "geometry": {
        "type": "Point",
        "coordinates": [15.28333, 47.41667]
      },
      "properties": {
         "id": "pmb840",
         "title": "Bruck an der Mur",
         "lat": "47.41667",
         "lon": "15.28333",
         "timestamp": ["1902-09-03"],
         "importance": "1"
      }
      }, 
    {
      "type": "Feature",
      "geometry": {
        "type": "Point",
        "coordinates": [16.368738, 48.213038]
      },
      "properties": {
         "id": "pmb207296",
         "title": "Tiefer Graben 23",
         "lat": "48.213038",
         "lon": "16.368738",
         "timestamp": ["1902-09-25", "1902-09-28"],
         "importance": "2"
      }
      }, 
    {
      "type": "Feature",
      "geometry": {
        "type": "Point",
        "coordinates": [14.63333, 47.6]
      },
      "properties": {
         "id": "pmb90797",
         "title": "Gstatterboden",
         "lat": "47.6",
         "lon": "14.63333",
         "timestamp": ["1902-09-05"],
         "importance": "1"
      }
      }, 
    {
      "type": "Feature",
      "geometry": {
        "type": "Point",
        "coordinates": [14.47188, 47.56155]
      },
      "properties": {
         "id": "pmb49312",
         "title": "Admont",
         "lat": "47.56155",
         "lon": "14.47188",
         "timestamp": ["1902-09-05"],
         "importance": "1"
      }
      }, 
    {
      "type": "Feature",
      "geometry": {
        "type": "Point",
        "coordinates": [16.255556, 48.133611]
      },
      "properties": {
         "id": "pmb40297",
         "title": "Hofmannsthal-Schlössl",
         "lat": "48.133611",
         "lon": "16.255556",
         "timestamp": ["1902-09-14", "1902-09-19"],
         "importance": "2"
      }
      }, 
    {
      "type": "Feature",
      "geometry": {
        "type": "Point",
        "coordinates": [16.353571, 48.239999]
      },
      "properties": {
         "id": "pmb231906",
         "title": "Dollinergasse 8",
         "lat": "48.239999",
         "lon": "16.353571",
         "timestamp": ["1902-09-13"],
         "importance": "1"
      }
      }, 
    {
      "type": "Feature",
      "geometry": {
        "type": "Point",
        "coordinates": [16.283758, 48.1803]
      },
      "properties": {
         "id": "pmb232311",
         "title": "Münichreiterstraße 1",
         "lat": "48.1803",
         "lon": "16.283758",
         "timestamp": ["1902-09-25"],
         "importance": "1"
      }
      }, 
    {
      "type": "Feature",
      "geometry": {
        "type": "Point",
        "coordinates": [16.24924, 48.08736]
      },
      "properties": {
         "id": "pmb145165",
         "title": "Hauptstraße 56",
         "lat": "48.08736",
         "lon": "16.24924",
         "timestamp": ["1902-09-01", "1902-09-02", "1902-09-07", "1902-09-08", "1902-09-09", "1902-09-10", "1902-09-11", "1902-09-12", "1902-09-13", "1902-09-14", "1902-09-15", "1902-09-16", "1902-09-17", "1902-09-18", "1902-09-19", "1902-09-20", "1902-09-21", "1902-09-22", "1902-09-23", "1902-09-24", "1902-09-25", "1902-09-26", "1902-09-27", "1902-09-28"],
         "importance": "24"
      }
      }, 
    {
      "type": "Feature",
      "geometry": {
        "type": "Point",
        "coordinates": [16.3565, 48.189719]
      },
      "properties": {
         "id": "pmb232025",
         "title": "Margaretenstraße 96",
         "lat": "48.189719",
         "lon": "16.3565",
         "timestamp": ["1902-09-26"],
         "importance": "1"
      }
      }, 
    {
      "type": "Feature",
      "geometry": {
        "type": "Point",
        "coordinates": [15.092943, 47.379929]
      },
      "properties": {
         "id": "pmb232132",
         "title": "Hotel zum Mohren",
         "lat": "47.379929",
         "lon": "15.092943",
         "timestamp": ["1902-09-03", "1902-09-04"],
         "importance": "2"
      }
      }, 
    {
      "type": "Feature",
      "geometry": {
        "type": "Point",
        "coordinates": [14.93333, 47.53333]
      },
      "properties": {
         "id": "pmb91532",
         "title": "Präbichl",
         "lat": "47.53333",
         "lon": "14.93333",
         "timestamp": ["1902-09-04"],
         "importance": "1"
      }
      }, 
    {
      "type": "Feature",
      "geometry": {
        "type": "Point",
        "coordinates": [14.74503, 47.60639]
      },
      "properties": {
         "id": "pmb90875",
         "title": "Hieflau",
         "lat": "47.60639",
         "lon": "14.74503",
         "timestamp": ["1902-09-04", "1902-09-05"],
         "importance": "2"
      }
      }, 
    {
      "type": "Feature",
      "geometry": {
        "type": "Point",
        "coordinates": [14.23333, 47.56667]
      },
      "properties": {
         "id": "pmb18143",
         "title": "Liezen",
         "lat": "47.56667",
         "lon": "14.23333",
         "timestamp": ["1902-09-05"],
         "importance": "1"
      }
      }, 
    {
      "type": "Feature",
      "geometry": {
        "type": "Point",
        "coordinates": [14.30639, 47.62381]
      },
      "properties": {
         "id": "pmb91554",
         "title": "Pyhrnpaß",
         "lat": "47.62381",
         "lon": "14.30639",
         "timestamp": ["1902-09-05"],
         "importance": "1"
      }
      }, 
    {
      "type": "Feature",
      "geometry": {
        "type": "Point",
        "coordinates": [14.32755, 47.72223]
      },
      "properties": {
         "id": "pmb92085",
         "title": "Windischgarsten",
         "lat": "47.72223",
         "lon": "14.32755",
         "timestamp": ["1902-09-05", "1902-09-06", "1902-09-07"],
         "importance": "3"
      }
      }, 
    {
      "type": "Feature",
      "geometry": {
        "type": "Point",
        "coordinates": [14.63333, 47.81667]
      },
      "properties": {
         "id": "pmb91038",
         "title": "Kleinreifling",
         "lat": "47.81667",
         "lon": "14.63333",
         "timestamp": ["1902-09-07"],
         "importance": "1"
      }
      }, 
    {
      "type": "Feature",
      "geometry": {
        "type": "Point",
        "coordinates": [14.82711, 48.10062]
      },
      "properties": {
         "id": "pmb38404",
         "title": "Amstetten",
         "lat": "48.10062",
         "lon": "14.82711",
         "timestamp": ["1902-09-07"],
         "importance": "1"
      }
      }, 
    {
      "type": "Feature",
      "geometry": {
        "type": "Point",
        "coordinates": [16.197411111111112, 47.973169444444444]
      },
      "properties": {
         "id": "pmb232085",
         "title": "Jubiläumswarte [Bad Vöslau]",
         "lat": "47.973169444444444",
         "lon": "16.197411111111112",
         "timestamp": ["1902-09-24"],
         "importance": "1"
      }
      }, 
    {
      "type": "Feature",
      "geometry": {
        "type": "Point",
        "coordinates": [16.335264, 48.228877]
      },
      "properties": {
         "id": "pmb232166",
         "title": "Gentzgasse 110",
         "lat": "48.228877",
         "lon": "16.335264",
         "timestamp": ["1902-09-30"],
         "importance": "1"
      }
      }
  ]
}