{
  "type": "FeatureCollection",
  "features": [
    {
      "type": "Feature",
      "geometry": {
        "type": "Point",
        "coordinates": [16.373056, 48.208333]
      },
      "properties": {
         "id": "pmb50",
         "title": "Wien",
         "lat": "48.208333",
         "lon": "16.373056",
         "timestamp": ["1902-03-01", "1902-03-02", "1902-03-03", "1902-03-03", "1902-03-04", "1902-03-05", "1902-03-06", "1902-03-07", "1902-03-08", "1902-03-09", "1902-03-10", "1902-03-11", "1902-03-12", "1902-03-13", "1902-03-14", "1902-03-15", "1902-03-16", "1902-03-17", "1902-03-18", "1902-03-19", "1902-03-20", "1902-03-24", "1902-03-27", "1902-03-30", "1902-03-31"],
         "importance": "25"
      }
      }, 
    {
      "type": "Feature",
      "geometry": {
        "type": "Point",
        "coordinates": [16.3691, 48.203]
      },
      "properties": {
         "id": "pmb15",
         "title": "Oper",
         "lat": "48.203",
         "lon": "16.3691",
         "timestamp": ["1902-03-06"],
         "importance": "1"
      }
      }, 
    {
      "type": "Feature",
      "geometry": {
        "type": "Point",
        "coordinates": [16.361139, 48.210333]
      },
      "properties": {
         "id": "pmb14",
         "title": "Burgtheater",
         "lat": "48.210333",
         "lon": "16.361139",
         "timestamp": ["1902-03-03"],
         "importance": "1"
      }
      }, 
    {
      "type": "Feature",
      "geometry": {
        "type": "Point",
        "coordinates": [16.430054, 48.194558]
      },
      "properties": {
         "id": "pmb8",
         "title": "Prater",
         "lat": "48.194558",
         "lon": "16.430054",
         "timestamp": ["1902-03-22"],
         "importance": "1"
      }
      }, 
    {
      "type": "Feature",
      "geometry": {
        "type": "Point",
        "coordinates": [16.28921, 48.08605]
      },
      "properties": {
         "id": "pmb968",
         "title": "Mödling",
         "lat": "48.08605",
         "lon": "16.28921",
         "timestamp": ["1902-03-01", "1902-03-04", "1902-03-06", "1902-03-07", "1902-03-08", "1902-03-09", "1902-03-12", "1902-03-16", "1902-03-17", "1902-03-18", "1902-03-19"],
         "importance": "11"
      }
      }, 
    {
      "type": "Feature",
      "geometry": {
        "type": "Point",
        "coordinates": [16.16265, 48.19512]
      },
      "properties": {
         "id": "pmb91552",
         "title": "Purkersdorf",
         "lat": "48.19512",
         "lon": "16.16265",
         "timestamp": ["1902-03-01"],
         "importance": "1"
      }
      }, 
    {
      "type": "Feature",
      "geometry": {
        "type": "Point",
        "coordinates": [16.3566, 48.205142]
      },
      "properties": {
         "id": "pmb20",
         "title": "Volkstheater",
         "lat": "48.205142",
         "lon": "16.3566",
         "timestamp": ["1902-03-24"],
         "importance": "1"
      }
      }, 
    {
      "type": "Feature",
      "geometry": {
        "type": "Point",
        "coordinates": [16.25736, 48.11895]
      },
      "properties": {
         "id": "pmb2837",
         "title": "Perchtoldsdorf",
         "lat": "48.11895",
         "lon": "16.25736",
         "timestamp": ["1902-03-01"],
         "importance": "1"
      }
      }, 
    {
      "type": "Feature",
      "geometry": {
        "type": "Point",
        "coordinates": [16.24809, 48.08611]
      },
      "properties": {
         "id": "pmb75",
         "title": "Hinterbrühl",
         "lat": "48.08611",
         "lon": "16.24809",
         "timestamp": ["1902-03-21", "1902-03-22", "1902-03-23", "1902-03-24", "1902-03-25", "1902-03-26", "1902-03-27", "1902-03-28", "1902-03-29"],
         "importance": "9"
      }
      }, 
    {
      "type": "Feature",
      "geometry": {
        "type": "Point",
        "coordinates": [16.28929, 48.17381]
      },
      "properties": {
         "id": "pmb24136",
         "title": "Lainz",
         "lat": "48.17381",
         "lon": "16.28929",
         "timestamp": ["1902-03-23"],
         "importance": "1"
      }
      }, 
    {
      "type": "Feature",
      "geometry": {
        "type": "Point",
        "coordinates": [16.342154562605, 48.250804274577]
      },
      "properties": {
         "id": "pmb225",
         "title": "Grinzing",
         "lat": "48.250804274577",
         "lon": "16.342154562605",
         "timestamp": ["1902-03-05"],
         "importance": "1"
      }
      }, 
    {
      "type": "Feature",
      "geometry": {
        "type": "Point",
        "coordinates": [16.261108, 48.081286]
      },
      "properties": {
         "id": "pmb625",
         "title": "Zum goldenen Stern",
         "lat": "48.081286",
         "lon": "16.261108",
         "timestamp": ["1902-03-01", "1902-03-04", "1902-03-06", "1902-03-07", "1902-03-09", "1902-03-12", "1902-03-16", "1902-03-17", "1902-03-19", "1902-03-21"],
         "importance": "10"
      }
      }, 
    {
      "type": "Feature",
      "geometry": {
        "type": "Point",
        "coordinates": [16.35736, 48.21533]
      },
      "properties": {
         "id": "pmb168934",
         "title": "Frankgasse 1",
         "lat": "48.21533",
         "lon": "16.35736",
         "timestamp": ["1902-03-01", "1902-03-02", "1902-03-03", "1902-03-04", "1902-03-05", "1902-03-06", "1902-03-07", "1902-03-08", "1902-03-09", "1902-03-10", "1902-03-11", "1902-03-12", "1902-03-13", "1902-03-14", "1902-03-15", "1902-03-16", "1902-03-17", "1902-03-18", "1902-03-19", "1902-03-20", "1902-03-24", "1902-03-27", "1902-03-30", "1902-03-31"],
         "importance": "24"
      }
      }, 
    {
      "type": "Feature",
      "geometry": {
        "type": "Point",
        "coordinates": [16.256152195922, 48.132793312328]
      },
      "properties": {
         "id": "pmb173",
         "title": "Rodaun",
         "lat": "48.132793312328",
         "lon": "16.256152195922",
         "timestamp": ["1902-03-20"],
         "importance": "1"
      }
      }, 
    {
      "type": "Feature",
      "geometry": {
        "type": "Point",
        "coordinates": [16.382549, 48.21387]
      },
      "properties": {
         "id": "pmb199587",
         "title": "Praterstraße 21",
         "lat": "48.21387",
         "lon": "16.382549",
         "timestamp": ["1902-03-13"],
         "importance": "1"
      }
      }, 
    {
      "type": "Feature",
      "geometry": {
        "type": "Point",
        "coordinates": [16.3489, 48.175]
      },
      "properties": {
         "id": "pmb199676",
         "title": "Kaiser-Franz-Joseph-Spital",
         "lat": "48.175",
         "lon": "16.3489",
         "timestamp": ["1902-03-10"],
         "importance": "1"
      }
      }, 
    {
      "type": "Feature",
      "geometry": {
        "type": "Point",
        "coordinates": [16.441111, 48.149444]
      },
      "properties": {
         "id": "pmb41376",
         "title": "Wiener Zentralfriedhof",
         "lat": "48.149444",
         "lon": "16.441111",
         "timestamp": ["1902-03-13"],
         "importance": "1"
      }
      }, 
    {
      "type": "Feature",
      "geometry": {
        "type": "Point",
        "coordinates": [16.368738, 48.213038]
      },
      "properties": {
         "id": "pmb207296",
         "title": "Tiefer Graben 23",
         "lat": "48.213038",
         "lon": "16.368738",
         "timestamp": ["1902-03-15"],
         "importance": "1"
      }
      }, 
    {
      "type": "Feature",
      "geometry": {
        "type": "Point",
        "coordinates": [16.369532, 48.204466]
      },
      "properties": {
         "id": "pmb231011",
         "title": "Maysedergasse 6",
         "lat": "48.204466",
         "lon": "16.369532",
         "timestamp": ["1902-03-11", "1902-03-25"],
         "importance": "2"
      }
      }, 
    {
      "type": "Feature",
      "geometry": {
        "type": "Point",
        "coordinates": [16.255556, 48.133611]
      },
      "properties": {
         "id": "pmb40297",
         "title": "Hofmannsthal-Schlössl",
         "lat": "48.133611",
         "lon": "16.255556",
         "timestamp": ["1902-03-20"],
         "importance": "1"
      }
      }, 
    {
      "type": "Feature",
      "geometry": {
        "type": "Point",
        "coordinates": [16.349593, 48.214365]
      },
      "properties": {
         "id": "pmb231623",
         "title": "Kochgasse 32",
         "lat": "48.214365",
         "lon": "16.349593",
         "timestamp": ["1902-03-14", "1902-03-30"],
         "importance": "2"
      }
      }, 
    {
      "type": "Feature",
      "geometry": {
        "type": "Point",
        "coordinates": [16.353571, 48.239999]
      },
      "properties": {
         "id": "pmb231906",
         "title": "Dollinergasse 8",
         "lat": "48.239999",
         "lon": "16.353571",
         "timestamp": ["1902-03-25"],
         "importance": "1"
      }
      }, 
    {
      "type": "Feature",
      "geometry": {
        "type": "Point",
        "coordinates": [16.373845, 48.209544]
      },
      "properties": {
         "id": "pmb231687",
         "title": "Wollzeile 1",
         "lat": "48.209544",
         "lon": "16.373845",
         "timestamp": ["1902-03-18"],
         "importance": "1"
      }
      }, 
    {
      "type": "Feature",
      "geometry": {
        "type": "Point",
        "coordinates": [16.400641, 48.203402]
      },
      "properties": {
         "id": "pmb231874",
         "title": "Schüttelstraße 73",
         "lat": "48.203402",
         "lon": "16.400641",
         "timestamp": ["1902-03-22", "1902-03-31"],
         "importance": "2"
      }
      }, 
    {
      "type": "Feature",
      "geometry": {
        "type": "Point",
        "coordinates": [16.24924, 48.08736]
      },
      "properties": {
         "id": "pmb145165",
         "title": "Hauptstraße 56",
         "lat": "48.08736",
         "lon": "16.24924",
         "timestamp": ["1902-03-21", "1902-03-22", "1902-03-23", "1902-03-24", "1902-03-26", "1902-03-27", "1902-03-29", "1902-03-31"],
         "importance": "8"
      }
      }, 
    {
      "type": "Feature",
      "geometry": {
        "type": "Point",
        "coordinates": [16.268889, 48.150556]
      },
      "properties": {
         "id": "pmb7728",
         "title": "Mauer",
         "lat": "48.150556",
         "lon": "16.268889",
         "timestamp": ["1902-03-23"],
         "importance": "1"
      }
      }
  ]
}