{
  "type": "FeatureCollection",
  "features": [
    {
      "type": "Feature", 
      "geometry": {
        "type": "LineString", 
        "coordinates": [
            [16.3691, 48.203], 
            [16.371211, 48.206416], 
            [16.373175, 48.209532], 
            [16.361751, 48.215689], 
            [16.33472, 48.2304], 
            [16.35736, 48.21533]
          ]
      },
      "properties": {
        "name": "28. August 1903"
      }
    },
    {
      "type": "Feature",
      "geometry": {
        "type": "Point",
        "coordinates": [
          16.371211, 48.206416
        ]
      },
      "properties": {
        "title": "Meissl & Schadn",
        "timestamp": ["1903-08-28"],
        "pmb": "https://pmb.acdh.oeaw.ac.at/entity//", 
        "wiengeschichtewiki": "https://www.geschichtewiki.wien.gv.at/Meissl_%26_Schadn"
      }
      },
    {
      "type": "Feature",
      "geometry": {
        "type": "Point",
        "coordinates": [
          16.3691, 48.203
        ]
      },
      "properties": {
        "title": "Oper",
        "timestamp": ["1903-08-28"],
        "pmb": "https://pmb.acdh.oeaw.ac.at/entity//", 
        "wikipedia": "https://de.wikipedia.org/wiki/Wiener_Staatsoper"
      }
      },
    {
      "type": "Feature",
      "geometry": {
        "type": "Point",
        "coordinates": [
          16.373175, 48.209532
        ]
      },
      "properties": {
        "title": "Automatenbüffet Quisisana",
        "timestamp": ["1903-08-28"],
        "pmb": "https://pmb.acdh.oeaw.ac.at/entity//"
      }
      },
    {
      "type": "Feature",
      "geometry": {
        "type": "Point",
        "coordinates": [
          16.33472, 48.2304
        ]
      },
      "properties": {
        "title": "Edmund-Weiß-Gasse 7",
        "timestamp": ["1903-08-28"],
        "pmb": "https://pmb.acdh.oeaw.ac.at/entity//"
      }
      },
    {
      "type": "Feature",
      "geometry": {
        "type": "Point",
        "coordinates": [
          16.35736, 48.21533
        ]
      },
      "properties": {
        "title": "Frankgasse 1",
        "timestamp": ["1903-08-28"],
        "pmb": "https://pmb.acdh.oeaw.ac.at/entity//"
      }
      },
    {
      "type": "Feature",
      "geometry": {
        "type": "Point",
        "coordinates": [
          16.361751, 48.215689
        ]
      },
      "properties": {
        "title": "Kolingasse 3",
        "timestamp": ["1903-08-28"],
        "pmb": "https://pmb.acdh.oeaw.ac.at/entity//"
      }
      }
  ]
}