{
  "type": "FeatureCollection",
  "features": [
    {
      "type": "Feature", 
      "geometry": {
        "type": "LineString", 
        "coordinates": [
            [11.27206, 45.93632], 
            [11.273789, 45.9398], 
            [11.26426, 45.99367], 
            [11.12276, 46.069], 
            [11.12108, 46.06787]
          ]
      },
      "properties": {
        "name": "20. August 1903"
      }
    },
    {
      "type": "Feature",
      "geometry": {
        "type": "Point",
        "coordinates": [
          11.12108, 46.06787
        ]
      },
      "properties": {
        "title": "Trient",
        "timestamp": ["1903-08-20"],
        "pmb": "https://pmb.acdh.oeaw.ac.at/entity//", 
        "wikipedia": "https://de.wikipedia.org/wiki/Trient"
      }
      },
    {
      "type": "Feature",
      "geometry": {
        "type": "Point",
        "coordinates": [
          11.12276, 46.069
        ]
      },
      "properties": {
        "title": "Hotel Carloni",
        "timestamp": ["1903-08-20"],
        "pmb": "https://pmb.acdh.oeaw.ac.at/entity//"
      }
      },
    {
      "type": "Feature",
      "geometry": {
        "type": "Point",
        "coordinates": [
          11.26426, 45.99367
        ]
      },
      "properties": {
        "title": "Caldonazzo",
        "timestamp": ["1903-08-20"],
        "pmb": "https://pmb.acdh.oeaw.ac.at/entity//"
      }
      },
    {
      "type": "Feature",
      "geometry": {
        "type": "Point",
        "coordinates": [
          11.27206, 45.93632
        ]
      },
      "properties": {
        "title": "Lavarone",
        "timestamp": ["1903-08-20"],
        "pmb": "https://pmb.acdh.oeaw.ac.at/entity//", 
        "wikipedia": "https://de.wikipedia.org/wiki/Lavarone"
      }
      },
    {
      "type": "Feature",
      "geometry": {
        "type": "Point",
        "coordinates": [
          11.273789, 45.9398
        ]
      },
      "properties": {
        "title": "Grand Hotel Lavarone",
        "timestamp": ["1903-08-20"],
        "pmb": "https://pmb.acdh.oeaw.ac.at/entity//"
      }
      }
  ]
}