{
  "type": "FeatureCollection",
  "features": [
    {
      "type": "Feature",
      "geometry": {
        "type": "Point",
        "coordinates": [16.372564182283, 48.201265597319]
      },
      "properties": {
         "id": "pmb516",
         "title": "Musikverein",
         "lat": "48.201265597319",
         "lon": "16.372564182283",
         "timestamp": ["1903-01-09"],
         "importance": "1"
      }
      }, 
    {
      "type": "Feature",
      "geometry": {
        "type": "Point",
        "coordinates": [16.3691, 48.203]
      },
      "properties": {
         "id": "pmb15",
         "title": "Oper",
         "lat": "48.203",
         "lon": "16.3691",
         "timestamp": ["1903-01-24"],
         "importance": "1"
      }
      }, 
    {
      "type": "Feature",
      "geometry": {
        "type": "Point",
        "coordinates": [16.366111, 48.209167]
      },
      "properties": {
         "id": "pmb4",
         "title": "Bösendorfer-Saal",
         "lat": "48.209167",
         "lon": "16.366111",
         "timestamp": ["1903-01-05"],
         "importance": "1"
      }
      }, 
    {
      "type": "Feature",
      "geometry": {
        "type": "Point",
        "coordinates": [16.373056, 48.208333]
      },
      "properties": {
         "id": "pmb50",
         "title": "Wien",
         "lat": "48.208333",
         "lon": "16.373056",
         "timestamp": ["1903-01-02", "1903-01-03", "1903-01-04", "1903-01-05", "1903-01-06", "1903-01-07", "1903-01-08", "1903-01-09", "1903-01-10", "1903-01-11", "1903-01-12", "1903-01-20", "1903-01-21", "1903-01-22", "1903-01-23", "1903-01-24", "1903-01-25", "1903-01-26", "1903-01-27", "1903-01-28", "1903-01-29", "1903-01-30", "1903-01-31"],
         "importance": "23"
      }
      }, 
    {
      "type": "Feature",
      "geometry": {
        "type": "Point",
        "coordinates": [13.1, 47.68333]
      },
      "properties": {
         "id": "pmb19527",
         "title": "Hallein",
         "lat": "47.68333",
         "lon": "13.1",
         "timestamp": ["1903-01-16"],
         "importance": "1"
      }
      }, 
    {
      "type": "Feature",
      "geometry": {
        "type": "Point",
        "coordinates": [16.355191, 48.248422]
      },
      "properties": {
         "id": "pmb92292",
         "title": "Hohe Warte",
         "lat": "48.248422",
         "lon": "16.355191",
         "timestamp": ["1903-01-01"],
         "importance": "1"
      }
      }, 
    {
      "type": "Feature",
      "geometry": {
        "type": "Point",
        "coordinates": [16.3566, 48.205142]
      },
      "properties": {
         "id": "pmb20",
         "title": "Volkstheater",
         "lat": "48.205142",
         "lon": "16.3566",
         "timestamp": ["1903-01-28"],
         "importance": "1"
      }
      }, 
    {
      "type": "Feature",
      "geometry": {
        "type": "Point",
        "coordinates": [13.043401, 47.802045]
      },
      "properties": {
         "id": "pmb230",
         "title": "Österreichischer Hof",
         "lat": "47.802045",
         "lon": "13.043401",
         "timestamp": ["1903-01-12", "1903-01-13", "1903-01-14", "1903-01-15", "1903-01-16", "1903-01-17", "1903-01-18", "1903-01-19"],
         "importance": "8"
      }
      }, 
    {
      "type": "Feature",
      "geometry": {
        "type": "Point",
        "coordinates": [16.359930555555554, 48.205130555555556]
      },
      "properties": {
         "id": "pmb192662",
         "title": "Naturhistorisches Museum",
         "lat": "48.205130555555556",
         "lon": "16.359930555555554",
         "timestamp": ["1903-01-06"],
         "importance": "1"
      }
      }, 
    {
      "type": "Feature",
      "geometry": {
        "type": "Point",
        "coordinates": [13.047256, 47.794967]
      },
      "properties": {
         "id": "pmb638",
         "title": "Festung Hohensalzburg",
         "lat": "47.794967",
         "lon": "13.047256",
         "timestamp": ["1903-01-15"],
         "importance": "1"
      }
      }, 
    {
      "type": "Feature",
      "geometry": {
        "type": "Point",
        "coordinates": [16.382549, 48.21387]
      },
      "properties": {
         "id": "pmb199587",
         "title": "Praterstraße 21",
         "lat": "48.21387",
         "lon": "16.382549",
         "timestamp": ["1903-01-25"],
         "importance": "1"
      }
      }, 
    {
      "type": "Feature",
      "geometry": {
        "type": "Point",
        "coordinates": [16.347492624475, 48.216264483348]
      },
      "properties": {
         "id": "pmb89",
         "title": "Sanatorium Loew",
         "lat": "48.216264483348",
         "lon": "16.347492624475",
         "timestamp": ["1903-01-27", "1903-01-28"],
         "importance": "2"
      }
      }, 
    {
      "type": "Feature",
      "geometry": {
        "type": "Point",
        "coordinates": [16.341077, 48.23143]
      },
      "properties": {
         "id": "pmb200732",
         "title": "Cottagegasse 29",
         "lat": "48.23143",
         "lon": "16.341077",
         "timestamp": ["1903-01-29"],
         "importance": "1"
      }
      }, 
    {
      "type": "Feature",
      "geometry": {
        "type": "Point",
        "coordinates": [16.255556, 48.133611]
      },
      "properties": {
         "id": "pmb40297",
         "title": "Hofmannsthal-Schlössl",
         "lat": "48.133611",
         "lon": "16.255556",
         "timestamp": ["1903-01-06"],
         "importance": "1"
      }
      }, 
    {
      "type": "Feature",
      "geometry": {
        "type": "Point",
        "coordinates": [16.353571, 48.239999]
      },
      "properties": {
         "id": "pmb231906",
         "title": "Dollinergasse 8",
         "lat": "48.239999",
         "lon": "16.353571",
         "timestamp": ["1903-01-02"],
         "importance": "1"
      }
      }, 
    {
      "type": "Feature",
      "geometry": {
        "type": "Point",
        "coordinates": [16.361751, 48.215689]
      },
      "properties": {
         "id": "pmb232256",
         "title": "Kolingasse 3",
         "lat": "48.215689",
         "lon": "16.361751",
         "timestamp": ["1903-01-10"],
         "importance": "1"
      }
      }, 
    {
      "type": "Feature",
      "geometry": {
        "type": "Point",
        "coordinates": [16.336111111111, 48.254444444444]
      },
      "properties": {
         "id": "pmb199081",
         "title": "Friedhof Grinzing",
         "lat": "48.254444444444",
         "lon": "16.336111111111",
         "timestamp": ["1903-01-01"],
         "importance": "1"
      }
      }, 
    {
      "type": "Feature",
      "geometry": {
        "type": "Point",
        "coordinates": [16.363924, 48.217491]
      },
      "properties": {
         "id": "pmb232348",
         "title": "Hörlgasse 15",
         "lat": "48.217491",
         "lon": "16.363924",
         "timestamp": ["1903-01-22", "1903-01-27", "1903-01-31"],
         "importance": "3"
      }
      }
  ]
}