{
  "type": "FeatureCollection",
  "features": [
    {
      "type": "Feature",
      "geometry": {
        "type": "Point",
        "coordinates": [16.375, 48.205139]
      },
      "properties": {
         "id": "pmb19",
         "title": "Ronacher",
         "lat": "48.205139",
         "lon": "16.375",
         "timestamp": ["1903-05-25", "1903-09-21"],
         "importance": "2"
      }
      }, 
    {
      "type": "Feature",
      "geometry": {
        "type": "Point",
        "coordinates": [16.373056, 48.208333]
      },
      "properties": {
         "id": "pmb50",
         "title": "Wien",
         "lat": "48.208333",
         "lon": "16.373056",
         "timestamp": ["1903-01-01", "1903-01-02", "1903-01-03", "1903-01-04", "1903-01-05", "1903-01-06", "1903-01-07", "1903-01-08", "1903-01-09", "1903-01-10", "1903-01-11", "1903-01-12", "1903-01-20", "1903-01-21", "1903-01-22", "1903-01-23", "1903-01-24", "1903-01-25", "1903-01-26", "1903-01-27", "1903-01-28", "1903-01-29", "1903-01-30", "1903-01-31", "1903-02-01", "1903-02-02", "1903-02-03", "1903-02-04", "1903-02-05", "1903-02-06", "1903-02-07", "1903-02-08", "1903-02-09", "1903-02-10", "1903-02-11", "1903-02-12", "1903-02-13", "1903-02-14", "1903-02-15", "1903-02-16", "1903-02-17", "1903-02-18", "1903-02-19", "1903-02-20", "1903-02-21", "1903-03-10", "1903-03-11", "1903-03-12", "1903-03-13", "1903-03-14", "1903-03-15", "1903-03-16", "1903-03-17", "1903-03-18", "1903-03-19", "1903-03-20", "1903-03-21", "1903-03-22", "1903-03-23", "1903-03-24", "1903-03-25", "1903-03-26", "1903-03-27", "1903-03-28", "1903-03-29", "1903-03-30", "1903-03-31", "1903-04-01", "1903-04-02", "1903-04-03", "1903-04-04", "1903-04-05", "1903-04-06", "1903-04-07", "1903-04-08", "1903-04-11", "1903-04-12", "1903-04-13", "1903-04-14", "1903-04-15", "1903-04-16", "1903-04-17", "1903-04-18", "1903-04-19", "1903-04-20", "1903-04-21", "1903-04-22", "1903-04-23", "1903-04-24", "1903-04-25", "1903-04-26", "1903-04-27", "1903-04-28", "1903-04-29", "1903-04-30", "1903-05-01", "1903-05-02", "1903-05-03", "1903-05-04", "1903-05-05", "1903-05-06", "1903-05-07", "1903-05-08", "1903-05-09", "1903-05-10", "1903-05-11", "1903-05-12", "1903-05-13", "1903-05-14", "1903-05-15", "1903-05-16", "1903-05-17", "1903-05-18", "1903-05-19", "1903-05-20", "1903-05-21", "1903-05-22", "1903-05-23", "1903-05-24", "1903-05-25", "1903-05-26", "1903-05-27", "1903-06-16", "1903-06-17", "1903-06-18", "1903-06-19", "1903-06-20", "1903-06-21", "1903-06-22", "1903-06-23", "1903-06-24", "1903-06-25", "1903-06-26", "1903-06-27", "1903-06-28", "1903-06-29", "1903-06-30", "1903-07-01", "1903-07-02", "1903-07-03", "1903-07-04", "1903-07-05", "1903-07-06", "1903-07-07", "1903-07-08", "1903-07-09", "1903-07-10", "1903-07-11", "1903-07-12", "1903-07-13", "1903-07-14", "1903-07-15", "1903-07-16", "1903-07-17", "1903-07-18", "1903-07-19", "1903-07-20", "1903-07-21", "1903-07-22", "1903-07-23", "1903-07-24", "1903-07-25", "1903-07-26", "1903-07-27", "1903-07-28", "1903-07-29", "1903-07-30", "1903-07-31", "1903-08-01", "1903-08-02", "1903-08-03", "1903-08-04", "1903-08-05", "1903-08-06", "1903-08-07", "1903-08-08", "1903-08-09", "1903-08-10", "1903-08-11", "1903-08-12", "1903-08-22", "1903-08-23", "1903-08-24", "1903-08-25", "1903-08-26", "1903-08-27", "1903-08-28", "1903-08-29", "1903-08-30", "1903-08-31", "1903-09-01", "1903-09-02", "1903-09-03", "1903-09-04", "1903-09-05", "1903-09-06", "1903-09-07", "1903-09-08", "1903-09-09", "1903-09-10", "1903-09-11", "1903-09-12", "1903-09-13", "1903-09-14", "1903-09-15", "1903-09-16", "1903-09-17", "1903-09-18", "1903-09-19", "1903-09-20", "1903-09-21", "1903-09-22", "1903-09-23", "1903-09-24", "1903-09-25", "1903-09-26", "1903-09-27", "1903-09-28", "1903-09-29", "1903-09-30", "1903-10-01", "1903-10-02", "1903-10-03", "1903-10-04", "1903-10-05", "1903-10-06", "1903-10-07", "1903-10-08", "1903-10-09", "1903-10-10", "1903-10-11", "1903-10-12", "1903-10-13", "1903-10-14", "1903-10-15", "1903-10-16", "1903-10-17", "1903-10-18", "1903-10-19", "1903-10-20", "1903-10-21", "1903-10-22", "1903-10-23", "1903-10-24", "1903-10-25", "1903-10-26", "1903-10-27", "1903-10-28", "1903-10-29", "1903-10-30", "1903-10-31", "1903-11-01", "1903-11-02", "1903-11-03", "1903-11-04", "1903-11-05", "1903-11-06", "1903-11-09", "1903-11-10", "1903-11-11", "1903-11-12", "1903-11-13", "1903-11-14", "1903-11-15", "1903-11-16", "1903-11-17", "1903-11-18", "1903-11-19", "1903-11-20", "1903-11-21", "1903-11-22", "1903-11-23", "1903-11-24", "1903-11-25", "1903-11-26", "1903-11-27", "1903-11-28", "1903-11-29", "1903-11-30", "1903-12-01", "1903-12-02", "1903-12-03", "1903-12-04", "1903-12-05", "1903-12-06", "1903-12-07", "1903-12-08", "1903-12-09", "1903-12-10", "1903-12-11", "1903-12-12", "1903-12-13", "1903-12-14", "1903-12-15", "1903-12-16", "1903-12-17", "1903-12-18", "1903-12-19", "1903-12-20", "1903-12-21", "1903-12-22", "1903-12-23", "1903-12-24", "1903-12-25", "1903-12-26", "1903-12-27", "1903-12-28", "1903-12-29", "1903-12-30", "1903-12-31"],
         "importance": "310"
      }
      }, 
    {
      "type": "Feature",
      "geometry": {
        "type": "Point",
        "coordinates": [16.372564182283, 48.201265597319]
      },
      "properties": {
         "id": "pmb516",
         "title": "Musikverein",
         "lat": "48.201265597319",
         "lon": "16.372564182283",
         "timestamp": ["1903-01-09", "1903-02-03", "1903-02-05", "1903-02-18", "1903-03-31", "1903-11-04", "1903-11-18", "1903-12-01"],
         "importance": "8"
      }
      }, 
    {
      "type": "Feature",
      "geometry": {
        "type": "Point",
        "coordinates": [16.3691, 48.203]
      },
      "properties": {
         "id": "pmb15",
         "title": "Oper",
         "lat": "48.203",
         "lon": "16.3691",
         "timestamp": ["1903-01-24", "1903-02-12", "1903-08-25", "1903-08-28", "1903-08-30"],
         "importance": "5"
      }
      }, 
    {
      "type": "Feature",
      "geometry": {
        "type": "Point",
        "coordinates": [16.351111, 48.209583]
      },
      "properties": {
         "id": "pmb40",
         "title": "Theater in der Josefstadt",
         "lat": "48.209583",
         "lon": "16.351111",
         "timestamp": ["1903-04-21", "1903-09-15"],
         "importance": "2"
      }
      }, 
    {
      "type": "Feature",
      "geometry": {
        "type": "Point",
        "coordinates": [16.384444, 48.215]
      },
      "properties": {
         "id": "pmb118",
         "title": "Carl-Theater",
         "lat": "48.215",
         "lon": "16.384444",
         "timestamp": ["1903-04-07"],
         "importance": "1"
      }
      }, 
    {
      "type": "Feature",
      "geometry": {
        "type": "Point",
        "coordinates": [16.366111, 48.209167]
      },
      "properties": {
         "id": "pmb4",
         "title": "Bösendorfer-Saal",
         "lat": "48.209167",
         "lon": "16.366111",
         "timestamp": ["1903-01-05"],
         "importance": "1"
      }
      }, 
    {
      "type": "Feature",
      "geometry": {
        "type": "Point",
        "coordinates": [16.386103, 48.217755]
      },
      "properties": {
         "id": "pmb182751",
         "title": "Zirkus Renz",
         "lat": "48.217755",
         "lon": "16.386103",
         "timestamp": ["1903-03-30"],
         "importance": "1"
      }
      }, 
    {
      "type": "Feature",
      "geometry": {
        "type": "Point",
        "coordinates": [16.3957, 48.217566]
      },
      "properties": {
         "id": "pmb43280",
         "title": "Jantsch-Theater",
         "lat": "48.217566",
         "lon": "16.3957",
         "timestamp": ["1903-07-25"],
         "importance": "1"
      }
      }, 
    {
      "type": "Feature",
      "geometry": {
        "type": "Point",
        "coordinates": [16.3642, 48.19941]
      },
      "properties": {
         "id": "pmb37",
         "title": "Theater an der Wien",
         "lat": "48.19941",
         "lon": "16.3642",
         "timestamp": ["1903-04-02", "1903-05-22", "1903-12-12"],
         "importance": "3"
      }
      }, 
    {
      "type": "Feature",
      "geometry": {
        "type": "Point",
        "coordinates": [16.379608025302, 48.204824018066]
      },
      "properties": {
         "id": "pmb575",
         "title": "Stadtpark",
         "lat": "48.204824018066",
         "lon": "16.379608025302",
         "timestamp": ["1903-08-09", "1903-08-28"],
         "importance": "2"
      }
      }, 
    {
      "type": "Feature",
      "geometry": {
        "type": "Point",
        "coordinates": [6.95427, 50.93835]
      },
      "properties": {
         "id": "pmb145",
         "title": "Köln",
         "lat": "50.93835",
         "lon": "6.95427",
         "timestamp": ["1903-05-03"],
         "importance": "1"
      }
      }, 
    {
      "type": "Feature",
      "geometry": {
        "type": "Point",
        "coordinates": [16.361139, 48.210333]
      },
      "properties": {
         "id": "pmb14",
         "title": "Burgtheater",
         "lat": "48.210333",
         "lon": "16.361139",
         "timestamp": ["1903-02-14", "1903-04-27", "1903-05-16", "1903-09-01", "1903-11-21"],
         "importance": "5"
      }
      }, 
    {
      "type": "Feature",
      "geometry": {
        "type": "Point",
        "coordinates": [16.372194, 48.202111]
      },
      "properties": {
         "id": "pmb255",
         "title": "Grand Hotel Wien",
         "lat": "48.202111",
         "lon": "16.372194",
         "timestamp": ["1903-08-09"],
         "importance": "1"
      }
      }, 
    {
      "type": "Feature",
      "geometry": {
        "type": "Point",
        "coordinates": [16.36157, 48.20809]
      },
      "properties": {
         "id": "pmb103",
         "title": "Volksgarten",
         "lat": "48.20809",
         "lon": "16.36157",
         "timestamp": ["1903-06-24"],
         "importance": "1"
      }
      }, 
    {
      "type": "Feature",
      "geometry": {
        "type": "Point",
        "coordinates": [16.378011, 48.205565]
      },
      "properties": {
         "id": "pmb182754",
         "title": "Gartenbausäle",
         "lat": "48.205565",
         "lon": "16.378011",
         "timestamp": ["1903-10-16"],
         "importance": "1"
      }
      }, 
    {
      "type": "Feature",
      "geometry": {
        "type": "Point",
        "coordinates": [16.430054, 48.194558]
      },
      "properties": {
         "id": "pmb8",
         "title": "Prater",
         "lat": "48.194558",
         "lon": "16.430054",
         "timestamp": ["1903-05-25", "1903-07-16", "1903-08-03", "1903-08-31"],
         "importance": "4"
      }
      }, 
    {
      "type": "Feature",
      "geometry": {
        "type": "Point",
        "coordinates": [16.388608096065, 48.229100570727]
      },
      "properties": {
         "id": "pmb426",
         "title": "Nordbahnhof",
         "lat": "48.229100570727",
         "lon": "16.388608096065",
         "timestamp": ["1903-07-09"],
         "importance": "1"
      }
      }, 
    {
      "type": "Feature",
      "geometry": {
        "type": "Point",
        "coordinates": [16.33306, 48.25]
      },
      "properties": {
         "id": "pmb69",
         "title": "XIX., Döbling",
         "lat": "48.25",
         "lon": "16.33306",
         "timestamp": ["1903-03-22", "1903-05-21", "1903-07-22"],
         "importance": "3"
      }
      }, 
    {
      "type": "Feature",
      "geometry": {
        "type": "Point",
        "coordinates": [16.299116267833, 48.230916826952]
      },
      "properties": {
         "id": "pmb499",
         "title": "Dornbach",
         "lat": "48.230916826952",
         "lon": "16.299116267833",
         "timestamp": ["1903-07-23", "1903-08-29", "1903-12-26"],
         "importance": "3"
      }
      }, 
    {
      "type": "Feature",
      "geometry": {
        "type": "Point",
        "coordinates": [16.29328, 48.27011]
      },
      "properties": {
         "id": "pmb90863",
         "title": "Hermannskogel",
         "lat": "48.27011",
         "lon": "16.29328",
         "timestamp": ["1903-10-04"],
         "importance": "1"
      }
      }, 
    {
      "type": "Feature",
      "geometry": {
        "type": "Point",
        "coordinates": [16.25, 48.26667]
      },
      "properties": {
         "id": "pmb473",
         "title": "Weidlingbach",
         "lat": "48.26667",
         "lon": "16.25",
         "timestamp": ["1903-05-21", "1903-07-14", "1903-07-20", "1903-07-22", "1903-08-11", "1903-09-27"],
         "importance": "6"
      }
      }, 
    {
      "type": "Feature",
      "geometry": {
        "type": "Point",
        "coordinates": [16.32522, 48.30521]
      },
      "properties": {
         "id": "pmb865",
         "title": "Klosterneuburg",
         "lat": "48.30521",
         "lon": "16.32522",
         "timestamp": ["1903-08-11"],
         "importance": "1"
      }
      }, 
    {
      "type": "Feature",
      "geometry": {
        "type": "Point",
        "coordinates": [16.3538456, 48.2134031]
      },
      "properties": {
         "id": "pmb44",
         "title": "Riedhof",
         "lat": "48.2134031",
         "lon": "16.3538456",
         "timestamp": ["1903-04-21", "1903-04-27", "1903-09-01"],
         "importance": "3"
      }
      }, 
    {
      "type": "Feature",
      "geometry": {
        "type": "Point",
        "coordinates": [13.04532, 47.80067]
      },
      "properties": {
         "id": "pmb30",
         "title": "Salzburg",
         "lat": "47.80067",
         "lon": "13.04532",
         "timestamp": ["1903-01-12", "1903-01-13", "1903-01-14", "1903-01-15", "1903-01-16", "1903-01-17", "1903-01-18", "1903-01-19"],
         "importance": "8"
      }
      }, 
    {
      "type": "Feature",
      "geometry": {
        "type": "Point",
        "coordinates": [13.79933, 47.91839]
      },
      "properties": {
         "id": "pmb874",
         "title": "Gmunden",
         "lat": "47.91839",
         "lon": "13.79933",
         "timestamp": ["1903-04-09", "1903-04-10", "1903-04-11"],
         "importance": "3"
      }
      }, 
    {
      "type": "Feature",
      "geometry": {
        "type": "Point",
        "coordinates": [15.93893, 47.67487]
      },
      "properties": {
         "id": "pmb50715",
         "title": "Gloggnitz",
         "lat": "47.67487",
         "lon": "15.93893",
         "timestamp": ["1903-08-04"],
         "importance": "1"
      }
      }, 
    {
      "type": "Feature",
      "geometry": {
        "type": "Point",
        "coordinates": [13.41053, 52.52437]
      },
      "properties": {
         "id": "pmb168",
         "title": "Berlin",
         "lat": "52.52437",
         "lon": "13.41053",
         "timestamp": ["1903-02-22", "1903-02-23", "1903-02-24", "1903-02-25", "1903-02-26", "1903-02-27", "1903-02-28", "1903-03-01", "1903-03-02", "1903-03-03", "1903-03-04", "1903-03-05", "1903-03-06", "1903-03-07", "1903-03-08", "1903-03-09"],
         "importance": "16"
      }
      }, 
    {
      "type": "Feature",
      "geometry": {
        "type": "Point",
        "coordinates": [16.23264, 48.00543]
      },
      "properties": {
         "id": "pmb662",
         "title": "Baden bei Wien",
         "lat": "48.00543",
         "lon": "16.23264",
         "timestamp": ["1903-07-02", "1903-07-31"],
         "importance": "2"
      }
      }, 
    {
      "type": "Feature",
      "geometry": {
        "type": "Point",
        "coordinates": [16.295642, 48.186033]
      },
      "properties": {
         "id": "pmb182313",
         "title": "Neue Welt",
         "lat": "48.186033",
         "lon": "16.295642",
         "timestamp": ["1903-07-01"],
         "importance": "1"
      }
      }, 
    {
      "type": "Feature",
      "geometry": {
        "type": "Point",
        "coordinates": [16.29101, 48.17547]
      },
      "properties": {
         "id": "pmb63",
         "title": "XIII., Hietzing",
         "lat": "48.17547",
         "lon": "16.29101",
         "timestamp": ["1903-03-23", "1903-05-04", "1903-05-13", "1903-09-16", "1903-09-19", "1903-09-29", "1903-10-03", "1903-12-21"],
         "importance": "8"
      }
      }, 
    {
      "type": "Feature",
      "geometry": {
        "type": "Point",
        "coordinates": [13.1, 47.68333]
      },
      "properties": {
         "id": "pmb19527",
         "title": "Hallein",
         "lat": "47.68333",
         "lon": "13.1",
         "timestamp": ["1903-01-16"],
         "importance": "1"
      }
      }, 
    {
      "type": "Feature",
      "geometry": {
        "type": "Point",
        "coordinates": [11.33982, 46.49067]
      },
      "properties": {
         "id": "pmb6937",
         "title": "Bozen",
         "lat": "46.49067",
         "lon": "11.33982",
         "timestamp": ["1903-06-14", "1903-06-15", "1903-08-13", "1903-08-14"],
         "importance": "4"
      }
      }, 
    {
      "type": "Feature",
      "geometry": {
        "type": "Point",
        "coordinates": [16.382332, 48.213759]
      },
      "properties": {
         "id": "pmb192320",
         "title": "Zirkusgasse 2",
         "lat": "48.213759",
         "lon": "16.382332",
         "timestamp": ["1903-11-24", "1903-11-26", "1903-11-27", "1903-11-29", "1903-11-30", "1903-12-02"],
         "importance": "6"
      }
      }, 
    {
      "type": "Feature",
      "geometry": {
        "type": "Point",
        "coordinates": [16.355191, 48.248422]
      },
      "properties": {
         "id": "pmb92292",
         "title": "Hohe Warte",
         "lat": "48.248422",
         "lon": "16.355191",
         "timestamp": ["1903-01-01"],
         "importance": "1"
      }
      }, 
    {
      "type": "Feature",
      "geometry": {
        "type": "Point",
        "coordinates": [16.275701, 48.219421]
      },
      "properties": {
         "id": "pmb90687",
         "title": "Gallitzinberg",
         "lat": "48.219421",
         "lon": "16.275701",
         "timestamp": ["1903-06-29", "1903-07-15"],
         "importance": "2"
      }
      }, 
    {
      "type": "Feature",
      "geometry": {
        "type": "Point",
        "coordinates": [16.48306, 48.21806]
      },
      "properties": {
         "id": "pmb90272",
         "title": "Aspern",
         "lat": "48.21806",
         "lon": "16.48306",
         "timestamp": ["1903-07-21"],
         "importance": "1"
      }
      }, 
    {
      "type": "Feature",
      "geometry": {
        "type": "Point",
        "coordinates": [15.83333, 47.7]
      },
      "properties": {
         "id": "pmb483",
         "title": "Reichenau an der Rax",
         "lat": "47.7",
         "lon": "15.83333",
         "timestamp": ["1903-07-29"],
         "importance": "1"
      }
      }, 
    {
      "type": "Feature",
      "geometry": {
        "type": "Point",
        "coordinates": [8.96004, 46.01008]
      },
      "properties": {
         "id": "pmb885",
         "title": "Lugano",
         "lat": "46.01008",
         "lon": "8.96004",
         "timestamp": ["1903-06-06", "1903-06-07", "1903-06-08", "1903-06-09", "1903-06-10", "1903-06-11", "1903-06-12", "1903-06-13", "1903-06-14"],
         "importance": "9"
      }
      }, 
    {
      "type": "Feature",
      "geometry": {
        "type": "Point",
        "coordinates": [9.18951, 45.46427]
      },
      "properties": {
         "id": "pmb886",
         "title": "Mailand",
         "lat": "45.46427",
         "lon": "9.18951",
         "timestamp": ["1903-06-03", "1903-06-04", "1903-06-05", "1903-06-06", "1903-06-14"],
         "importance": "5"
      }
      }, 
    {
      "type": "Feature",
      "geometry": {
        "type": "Point",
        "coordinates": [9.187815, 45.471955]
      },
      "properties": {
         "id": "pmb184611",
         "title": "Pinacoteca di Brera",
         "lat": "45.471955",
         "lon": "9.187815",
         "timestamp": ["1903-06-04"],
         "importance": "1"
      }
      }, 
    {
      "type": "Feature",
      "geometry": {
        "type": "Point",
        "coordinates": [16.28921, 48.08605]
      },
      "properties": {
         "id": "pmb968",
         "title": "Mödling",
         "lat": "48.08605",
         "lon": "16.28921",
         "timestamp": ["1903-05-20", "1903-08-27"],
         "importance": "2"
      }
      }, 
    {
      "type": "Feature",
      "geometry": {
        "type": "Point",
        "coordinates": [16.379829498031, 48.187455471378]
      },
      "properties": {
         "id": "pmb132",
         "title": "Südbahnhof",
         "lat": "48.187455471378",
         "lon": "16.379829498031",
         "timestamp": ["1903-05-27", "1903-07-11", "1903-08-10", "1903-08-12"],
         "importance": "4"
      }
      }, 
    {
      "type": "Feature",
      "geometry": {
        "type": "Point",
        "coordinates": [13.382222, 52.524444]
      },
      "properties": {
         "id": "pmb3",
         "title": "Deutsches Theater Berlin",
         "lat": "52.524444",
         "lon": "13.382222",
         "timestamp": ["1903-02-23", "1903-02-24", "1903-02-25", "1903-02-26", "1903-02-27", "1903-02-28", "1903-03-02", "1903-03-03", "1903-03-05", "1903-03-06", "1903-03-07", "1903-03-08"],
         "importance": "12"
      }
      }, 
    {
      "type": "Feature",
      "geometry": {
        "type": "Point",
        "coordinates": [16.32586, 48.17192]
      },
      "properties": {
         "id": "pmb62",
         "title": "XII., Meidling",
         "lat": "48.17192",
         "lon": "16.32586",
         "timestamp": ["1903-08-04"],
         "importance": "1"
      }
      }, 
    {
      "type": "Feature",
      "geometry": {
        "type": "Point",
        "coordinates": [16.337778, 48.196667]
      },
      "properties": {
         "id": "pmb184918",
         "title": "Westbahnhof",
         "lat": "48.196667",
         "lon": "16.337778",
         "timestamp": ["1903-04-08"],
         "importance": "1"
      }
      }, 
    {
      "type": "Feature",
      "geometry": {
        "type": "Point",
        "coordinates": [16.3566, 48.205142]
      },
      "properties": {
         "id": "pmb20",
         "title": "Volkstheater",
         "lat": "48.205142",
         "lon": "16.3566",
         "timestamp": ["1903-01-07", "1903-01-26", "1903-01-27", "1903-01-28", "1903-03-10", "1903-03-11", "1903-03-12", "1903-03-13", "1903-03-14", "1903-03-17", "1903-05-07", "1903-05-10", "1903-06-24"],
         "importance": "13"
      }
      }, 
    {
      "type": "Feature",
      "geometry": {
        "type": "Point",
        "coordinates": [16.266389, 48.188056]
      },
      "properties": {
         "id": "pmb165",
         "title": "Ober Sankt Veit",
         "lat": "48.188056",
         "lon": "16.266389",
         "timestamp": ["1903-07-01", "1903-11-01"],
         "importance": "2"
      }
      }, 
    {
      "type": "Feature",
      "geometry": {
        "type": "Point",
        "coordinates": [16.3067984, 48.1806202]
      },
      "properties": {
         "id": "pmb92518",
         "title": "Schlosspark Schönbrunn",
         "lat": "48.1806202",
         "lon": "16.3067984",
         "timestamp": ["1903-02-02", "1903-05-11", "1903-05-13", "1903-07-18", "1903-07-24", "1903-08-08"],
         "importance": "6"
      }
      }, 
    {
      "type": "Feature",
      "geometry": {
        "type": "Point",
        "coordinates": [16.401694, 48.213944]
      },
      "properties": {
         "id": "pmb47",
         "title": "Schweizerhaus",
         "lat": "48.213944",
         "lon": "16.401694",
         "timestamp": ["1903-07-03"],
         "importance": "1"
      }
      }, 
    {
      "type": "Feature",
      "geometry": {
        "type": "Point",
        "coordinates": [16.402222, 48.214722]
      },
      "properties": {
         "id": "pmb685",
         "title": "Wurstelprater",
         "lat": "48.214722",
         "lon": "16.402222",
         "timestamp": ["1903-07-03"],
         "importance": "1"
      }
      }, 
    {
      "type": "Feature",
      "geometry": {
        "type": "Point",
        "coordinates": [16.384011, 48.214163]
      },
      "properties": {
         "id": "pmb187156",
         "title": "Praterstraße 28",
         "lat": "48.214163",
         "lon": "16.384011",
         "timestamp": ["1903-10-30"],
         "importance": "1"
      }
      }, 
    {
      "type": "Feature",
      "geometry": {
        "type": "Point",
        "coordinates": [16.379685, 48.188208]
      },
      "properties": {
         "id": "pmb187206",
         "title": "Restauration »Am Südbahnhof«",
         "lat": "48.188208",
         "lon": "16.379685",
         "timestamp": ["1903-11-09"],
         "importance": "1"
      }
      }, 
    {
      "type": "Feature",
      "geometry": {
        "type": "Point",
        "coordinates": [16.2, 48.23333]
      },
      "properties": {
         "id": "pmb90821",
         "title": "Hainbach",
         "lat": "48.23333",
         "lon": "16.2",
         "timestamp": ["1903-07-17"],
         "importance": "1"
      }
      }, 
    {
      "type": "Feature",
      "geometry": {
        "type": "Point",
        "coordinates": [16.36471, 48.200556]
      },
      "properties": {
         "id": "pmb97",
         "title": "Zum Weingartl",
         "lat": "48.200556",
         "lon": "16.36471",
         "timestamp": ["1903-12-12"],
         "importance": "1"
      }
      }, 
    {
      "type": "Feature",
      "geometry": {
        "type": "Point",
        "coordinates": [13.043401, 47.802045]
      },
      "properties": {
         "id": "pmb230",
         "title": "Österreichischer Hof",
         "lat": "47.802045",
         "lon": "13.043401",
         "timestamp": ["1903-01-12", "1903-01-13", "1903-01-14", "1903-01-15", "1903-01-16", "1903-01-17", "1903-01-18", "1903-01-19"],
         "importance": "8"
      }
      }, 
    {
      "type": "Feature",
      "geometry": {
        "type": "Point",
        "coordinates": [13.060833, 47.762222]
      },
      "properties": {
         "id": "pmb31",
         "title": "Hellbrunn",
         "lat": "47.762222",
         "lon": "13.060833",
         "timestamp": ["1903-01-13"],
         "importance": "1"
      }
      }, 
    {
      "type": "Feature",
      "geometry": {
        "type": "Point",
        "coordinates": [13.05734, 47.80399]
      },
      "properties": {
         "id": "pmb297",
         "title": "Kapuzinerberg",
         "lat": "47.80399",
         "lon": "13.05734",
         "timestamp": ["1903-01-17"],
         "importance": "1"
      }
      }, 
    {
      "type": "Feature",
      "geometry": {
        "type": "Point",
        "coordinates": [16.371211, 48.206416]
      },
      "properties": {
         "id": "pmb96",
         "title": "Meissl & Schadn",
         "lat": "48.206416",
         "lon": "16.371211",
         "timestamp": ["1903-05-01", "1903-08-03", "1903-08-25", "1903-08-28", "1903-11-19"],
         "importance": "5"
      }
      }, 
    {
      "type": "Feature",
      "geometry": {
        "type": "Point",
        "coordinates": [16.60796, 49.19522]
      },
      "properties": {
         "id": "pmb833",
         "title": "Brünn",
         "lat": "49.19522",
         "lon": "16.60796",
         "timestamp": ["1903-10-19", "1903-10-20"],
         "importance": "2"
      }
      }, 
    {
      "type": "Feature",
      "geometry": {
        "type": "Point",
        "coordinates": [16.333568462613, 48.235119783861]
      },
      "properties": {
         "id": "pmb113",
         "title": "Türkenschanzpark",
         "lat": "48.235119783861",
         "lon": "16.333568462613",
         "timestamp": ["1903-05-23", "1903-08-05", "1903-08-23"],
         "importance": "3"
      }
      }, 
    {
      "type": "Feature",
      "geometry": {
        "type": "Point",
        "coordinates": [16.276509500872, 48.241960480337]
      },
      "properties": {
         "id": "pmb176",
         "title": "Schwarzenbergpark",
         "lat": "48.241960480337",
         "lon": "16.276509500872",
         "timestamp": ["1903-07-23", "1903-08-29"],
         "importance": "2"
      }
      }, 
    {
      "type": "Feature",
      "geometry": {
        "type": "Point",
        "coordinates": [16.29204, 48.10917]
      },
      "properties": {
         "id": "pmb40201",
         "title": "Brunn am Gebirge",
         "lat": "48.10917",
         "lon": "16.29204",
         "timestamp": ["1903-05-23", "1903-06-18", "1903-08-06"],
         "importance": "3"
      }
      }, 
    {
      "type": "Feature",
      "geometry": {
        "type": "Point",
        "coordinates": [16.364167, 48.259444]
      },
      "properties": {
         "id": "pmb403",
         "title": "Nussdorf",
         "lat": "48.259444",
         "lon": "16.364167",
         "timestamp": ["1903-05-07"],
         "importance": "1"
      }
      }, 
    {
      "type": "Feature",
      "geometry": {
        "type": "Point",
        "coordinates": [12.37129, 51.33962]
      },
      "properties": {
         "id": "pmb864",
         "title": "Leipzig",
         "lat": "51.33962",
         "lon": "12.37129",
         "timestamp": ["1903-05-05"],
         "importance": "1"
      }
      }, 
    {
      "type": "Feature",
      "geometry": {
        "type": "Point",
        "coordinates": [16.361378, 48.203661]
      },
      "properties": {
         "id": "pmb47660",
         "title": "Kunsthistorisches Museum",
         "lat": "48.203661",
         "lon": "16.361378",
         "timestamp": ["1903-08-29", "1903-08-30"],
         "importance": "2"
      }
      }, 
    {
      "type": "Feature",
      "geometry": {
        "type": "Point",
        "coordinates": [16.32428, 48.3065]
      },
      "properties": {
         "id": "pmb192317",
         "title": "Stiftskeller Klosterneuburg",
         "lat": "48.3065",
         "lon": "16.32428",
         "timestamp": ["1903-08-11"],
         "importance": "1"
      }
      }, 
    {
      "type": "Feature",
      "geometry": {
        "type": "Point",
        "coordinates": [16.43138888888889, 48.155833333333334]
      },
      "properties": {
         "id": "pmb192349",
         "title": "Israelitischer Friedhof",
         "lat": "48.155833333333334",
         "lon": "16.43138888888889",
         "timestamp": ["1903-05-01"],
         "importance": "1"
      }
      }, 
    {
      "type": "Feature",
      "geometry": {
        "type": "Point",
        "coordinates": [16.26269, 48.24616]
      },
      "properties": {
         "id": "pmb456",
         "title": "Rohrerhütte",
         "lat": "48.24616",
         "lon": "16.26269",
         "timestamp": ["1903-07-05", "1903-07-16", "1903-07-23", "1903-08-29"],
         "importance": "4"
      }
      }, 
    {
      "type": "Feature",
      "geometry": {
        "type": "Point",
        "coordinates": [16.300034240016, 48.246838181084]
      },
      "properties": {
         "id": "pmb169",
         "title": "Pötzleinsdorf",
         "lat": "48.246838181084",
         "lon": "16.300034240016",
         "timestamp": ["1903-01-02", "1903-02-01", "1903-03-22", "1903-04-12", "1903-04-30", "1903-05-01", "1903-05-15", "1903-05-24", "1903-06-19", "1903-06-27", "1903-07-06", "1903-07-16", "1903-09-08", "1903-10-11", "1903-10-25", "1903-12-25"],
         "importance": "16"
      }
      }, 
    {
      "type": "Feature",
      "geometry": {
        "type": "Point",
        "coordinates": [10.84118, 45.88576]
      },
      "properties": {
         "id": "pmb465",
         "title": "Riva del Garda",
         "lat": "45.88576",
         "lon": "10.84118",
         "timestamp": ["1903-08-18", "1903-08-19"],
         "importance": "2"
      }
      }, 
    {
      "type": "Feature",
      "geometry": {
        "type": "Point",
        "coordinates": [11.12108, 46.06787]
      },
      "properties": {
         "id": "pmb954",
         "title": "Trient",
         "lat": "46.06787",
         "lon": "11.12108",
         "timestamp": ["1903-08-19", "1903-08-20", "1903-08-21", "1903-08-22"],
         "importance": "4"
      }
      }, 
    {
      "type": "Feature",
      "geometry": {
        "type": "Point",
        "coordinates": [12.33265, 45.43713]
      },
      "properties": {
         "id": "pmb462",
         "title": "Venedig",
         "lat": "45.43713",
         "lon": "12.33265",
         "timestamp": ["1903-05-28", "1903-05-29", "1903-05-30", "1903-05-31", "1903-06-01", "1903-06-02"],
         "importance": "6"
      }
      }, 
    {
      "type": "Feature",
      "geometry": {
        "type": "Point",
        "coordinates": [12.336106, 45.4328]
      },
      "properties": {
         "id": "pmb310",
         "title": "Grand Hotel Bauer-Grünwald",
         "lat": "45.4328",
         "lon": "12.336106",
         "timestamp": ["1903-05-28"],
         "importance": "1"
      }
      }, 
    {
      "type": "Feature",
      "geometry": {
        "type": "Point",
        "coordinates": [12.33835, 45.43411]
      },
      "properties": {
         "id": "pmb261",
         "title": "Piazza San Marco",
         "lat": "45.43411",
         "lon": "12.33835",
         "timestamp": ["1903-05-30"],
         "importance": "1"
      }
      }, 
    {
      "type": "Feature",
      "geometry": {
        "type": "Point",
        "coordinates": [12.339722222222, 45.434444444444]
      },
      "properties": {
         "id": "pmb192409",
         "title": "Basilica di San Marco",
         "lat": "45.434444444444",
         "lon": "12.339722222222",
         "timestamp": ["1903-05-29"],
         "importance": "1"
      }
      }, 
    {
      "type": "Feature",
      "geometry": {
        "type": "Point",
        "coordinates": [12.339857, 45.433696]
      },
      "properties": {
         "id": "pmb149",
         "title": "Palazzo Ducale",
         "lat": "45.433696",
         "lon": "12.339857",
         "timestamp": ["1903-05-28"],
         "importance": "1"
      }
      }, 
    {
      "type": "Feature",
      "geometry": {
        "type": "Point",
        "coordinates": [12.33052, 45.43598]
      },
      "properties": {
         "id": "pmb90440",
         "title": "Canal Grande",
         "lat": "45.43598",
         "lon": "12.33052",
         "timestamp": ["1903-05-29"],
         "importance": "1"
      }
      }, 
    {
      "type": "Feature",
      "geometry": {
        "type": "Point",
        "coordinates": [12.32798, 45.431245]
      },
      "properties": {
         "id": "pmb43220",
         "title": "Gallerie dell’Accademia",
         "lat": "45.431245",
         "lon": "12.32798",
         "timestamp": ["1903-05-30"],
         "importance": "1"
      }
      }, 
    {
      "type": "Feature",
      "geometry": {
        "type": "Point",
        "coordinates": [12.35, 45.38333]
      },
      "properties": {
         "id": "pmb259",
         "title": "Lido",
         "lat": "45.38333",
         "lon": "12.35",
         "timestamp": ["1903-05-28", "1903-05-30"],
         "importance": "2"
      }
      }, 
    {
      "type": "Feature",
      "geometry": {
        "type": "Point",
        "coordinates": [12.35683, 45.45857]
      },
      "properties": {
         "id": "pmb91314",
         "title": "Murano",
         "lat": "45.45857",
         "lon": "12.35683",
         "timestamp": ["1903-05-29"],
         "importance": "1"
      }
      }, 
    {
      "type": "Feature",
      "geometry": {
        "type": "Point",
        "coordinates": [15.8241, 47.64224]
      },
      "properties": {
         "id": "pmb189",
         "title": "Semmering",
         "lat": "47.64224",
         "lon": "15.8241",
         "timestamp": ["1903-08-04", "1903-11-06", "1903-11-07", "1903-11-08", "1903-11-09"],
         "importance": "5"
      }
      }, 
    {
      "type": "Feature",
      "geometry": {
        "type": "Point",
        "coordinates": [16.380905, 48.198484]
      },
      "properties": {
         "id": "pmb192623",
         "title": "Salesianergasse 12",
         "lat": "48.198484",
         "lon": "16.380905",
         "timestamp": ["1903-02-07"],
         "importance": "1"
      }
      }, 
    {
      "type": "Feature",
      "geometry": {
        "type": "Point",
        "coordinates": [16.359930555555554, 48.205130555555556]
      },
      "properties": {
         "id": "pmb192662",
         "title": "Naturhistorisches Museum",
         "lat": "48.205130555555556",
         "lon": "16.359930555555554",
         "timestamp": ["1903-01-06"],
         "importance": "1"
      }
      }, 
    {
      "type": "Feature",
      "geometry": {
        "type": "Point",
        "coordinates": [16.342154562605, 48.250804274577]
      },
      "properties": {
         "id": "pmb225",
         "title": "Grinzing",
         "lat": "48.250804274577",
         "lon": "16.342154562605",
         "timestamp": ["1903-01-01", "1903-05-07", "1903-10-04", "1903-12-06"],
         "importance": "4"
      }
      }, 
    {
      "type": "Feature",
      "geometry": {
        "type": "Point",
        "coordinates": [16.28610371233, 48.233119188484]
      },
      "properties": {
         "id": "pmb170",
         "title": "Neuwaldegg",
         "lat": "48.233119188484",
         "lon": "16.28610371233",
         "timestamp": ["1903-05-03", "1903-06-27", "1903-07-12", "1903-07-16"],
         "importance": "4"
      }
      }, 
    {
      "type": "Feature",
      "geometry": {
        "type": "Point",
        "coordinates": [16.385462, 48.213115]
      },
      "properties": {
         "id": "pmb233555",
         "title": "Untere Donaustraße 29",
         "lat": "48.213115",
         "lon": "16.385462",
         "timestamp": ["1903-12-29"],
         "importance": "1"
      }
      }, 
    {
      "type": "Feature",
      "geometry": {
        "type": "Point",
        "coordinates": [16.35736, 48.21533]
      },
      "properties": {
         "id": "pmb168934",
         "title": "Frankgasse 1",
         "lat": "48.21533",
         "lon": "16.35736",
         "timestamp": ["1903-01-01", "1903-01-02", "1903-01-03", "1903-01-04", "1903-01-05", "1903-01-06", "1903-01-07", "1903-01-08", "1903-01-09", "1903-01-10", "1903-01-11", "1903-01-12", "1903-01-20", "1903-01-21", "1903-01-22", "1903-01-23", "1903-01-24", "1903-01-25", "1903-01-26", "1903-01-27", "1903-01-28", "1903-01-29", "1903-01-30", "1903-01-31", "1903-02-01", "1903-02-02", "1903-02-03", "1903-02-04", "1903-02-05", "1903-02-06", "1903-02-07", "1903-02-08", "1903-02-09", "1903-02-10", "1903-02-11", "1903-02-12", "1903-02-13", "1903-02-14", "1903-02-15", "1903-02-16", "1903-02-17", "1903-02-18", "1903-02-19", "1903-02-20", "1903-02-21", "1903-03-10", "1903-03-11", "1903-03-12", "1903-03-13", "1903-03-14", "1903-03-15", "1903-03-16", "1903-03-17", "1903-03-18", "1903-03-19", "1903-03-20", "1903-03-21", "1903-03-22", "1903-03-23", "1903-03-24", "1903-03-25", "1903-03-26", "1903-03-27", "1903-03-28", "1903-03-29", "1903-03-30", "1903-03-31", "1903-04-01", "1903-04-02", "1903-04-03", "1903-04-04", "1903-04-05", "1903-04-06", "1903-04-07", "1903-04-08", "1903-04-11", "1903-04-12", "1903-04-13", "1903-04-14", "1903-04-15", "1903-04-16", "1903-04-17", "1903-04-18", "1903-04-19", "1903-04-20", "1903-04-21", "1903-04-22", "1903-04-23", "1903-04-24", "1903-04-25", "1903-04-26", "1903-04-27", "1903-04-28", "1903-04-29", "1903-04-30", "1903-05-01", "1903-05-02", "1903-05-03", "1903-05-04", "1903-05-05", "1903-05-06", "1903-05-07", "1903-05-08", "1903-05-09", "1903-05-10", "1903-05-11", "1903-05-12", "1903-05-13", "1903-05-14", "1903-05-15", "1903-05-16", "1903-05-17", "1903-05-18", "1903-05-19", "1903-05-20", "1903-05-21", "1903-05-22", "1903-05-23", "1903-05-24", "1903-05-25", "1903-05-26", "1903-05-27", "1903-06-16", "1903-06-17", "1903-06-18", "1903-06-19", "1903-06-20", "1903-06-21", "1903-06-22", "1903-06-23", "1903-06-24", "1903-06-25", "1903-06-26", "1903-06-27", "1903-06-28", "1903-06-29", "1903-06-30", "1903-07-01", "1903-07-02", "1903-07-03", "1903-07-04", "1903-07-05", "1903-07-06", "1903-07-07", "1903-07-08", "1903-07-09", "1903-07-10", "1903-07-11", "1903-07-12", "1903-07-13", "1903-07-14", "1903-07-15", "1903-07-16", "1903-07-17", "1903-07-18", "1903-07-19", "1903-07-20", "1903-07-21", "1903-07-22", "1903-07-23", "1903-07-24", "1903-07-25", "1903-07-26", "1903-07-27", "1903-07-28", "1903-07-29", "1903-07-30", "1903-07-31", "1903-08-01", "1903-08-02", "1903-08-03", "1903-08-04", "1903-08-05", "1903-08-06", "1903-08-07", "1903-08-08", "1903-08-09", "1903-08-10", "1903-08-11", "1903-08-12", "1903-08-22", "1903-08-23", "1903-08-24", "1903-08-25", "1903-08-26", "1903-08-27", "1903-08-28", "1903-08-29", "1903-08-30", "1903-08-31", "1903-09-01", "1903-09-02", "1903-09-03", "1903-09-04", "1903-09-05", "1903-09-06", "1903-09-07", "1903-09-08", "1903-09-09", "1903-09-10", "1903-09-11", "1903-09-19", "1903-10-20", "1903-11-03", "1903-11-10", "1903-11-13", "1903-11-27", "1903-12-11", "1903-12-20", "1903-12-22", "1903-12-23", "1903-12-24", "1903-12-26", "1903-12-27", "1903-12-31"],
         "importance": "215"
      }
      }, 
    {
      "type": "Feature",
      "geometry": {
        "type": "Point",
        "coordinates": [16.339722, 48.192222]
      },
      "properties": {
         "id": "pmb77",
         "title": "Raimund-Theater",
         "lat": "48.192222",
         "lon": "16.339722",
         "timestamp": ["1903-12-07"],
         "importance": "1"
      }
      }, 
    {
      "type": "Feature",
      "geometry": {
        "type": "Point",
        "coordinates": [16.256152195922, 48.132793312328]
      },
      "properties": {
         "id": "pmb173",
         "title": "Rodaun",
         "lat": "48.132793312328",
         "lon": "16.256152195922",
         "timestamp": ["1903-01-06", "1903-04-16", "1903-07-25", "1903-10-10"],
         "importance": "4"
      }
      }, 
    {
      "type": "Feature",
      "geometry": {
        "type": "Point",
        "coordinates": [15.8634, 47.69209]
      },
      "properties": {
         "id": "pmb948",
         "title": "Payerbach",
         "lat": "47.69209",
         "lon": "15.8634",
         "timestamp": ["1903-07-29", "1903-11-07"],
         "importance": "2"
      }
      }, 
    {
      "type": "Feature",
      "geometry": {
        "type": "Point",
        "coordinates": [16.331527, 48.23428]
      },
      "properties": {
         "id": "pmb74",
         "title": "Restauration Türkenschanz-Park",
         "lat": "48.23428",
         "lon": "16.331527",
         "timestamp": ["1903-05-23", "1903-09-03"],
         "importance": "2"
      }
      }, 
    {
      "type": "Feature",
      "geometry": {
        "type": "Point",
        "coordinates": [16.357216, 48.212965]
      },
      "properties": {
         "id": "pmb195047",
         "title": "Rathausstraße 20",
         "lat": "48.212965",
         "lon": "16.357216",
         "timestamp": ["1903-12-30"],
         "importance": "1"
      }
      }, 
    {
      "type": "Feature",
      "geometry": {
        "type": "Point",
        "coordinates": [16.254331, 48.133848]
      },
      "properties": {
         "id": "pmb177",
         "title": "Gasthaus Stelzer",
         "lat": "48.133848",
         "lon": "16.254331",
         "timestamp": ["1903-07-25"],
         "importance": "1"
      }
      }, 
    {
      "type": "Feature",
      "geometry": {
        "type": "Point",
        "coordinates": [16.258056, 48.201667]
      },
      "properties": {
         "id": "pmb271",
         "title": "Hütteldorf",
         "lat": "48.201667",
         "lon": "16.258056",
         "timestamp": ["1903-05-03"],
         "importance": "1"
      }
      }, 
    {
      "type": "Feature",
      "geometry": {
        "type": "Point",
        "coordinates": [16.405222, 48.211705]
      },
      "properties": {
         "id": "pmb92593",
         "title": "Waldsteingarten",
         "lat": "48.211705",
         "lon": "16.405222",
         "timestamp": ["1903-08-31"],
         "importance": "1"
      }
      }, 
    {
      "type": "Feature",
      "geometry": {
        "type": "Point",
        "coordinates": [16.55083, 48.20278]
      },
      "properties": {
         "id": "pmb90777",
         "title": "Groß-Enzersdorf",
         "lat": "48.20278",
         "lon": "16.55083",
         "timestamp": ["1903-07-21"],
         "importance": "1"
      }
      }, 
    {
      "type": "Feature",
      "geometry": {
        "type": "Point",
        "coordinates": [14.28333, 48.3]
      },
      "properties": {
         "id": "pmb332",
         "title": "Linz",
         "lat": "48.3",
         "lon": "14.28333",
         "timestamp": ["1903-04-08", "1903-04-09"],
         "importance": "2"
      }
      }, 
    {
      "type": "Feature",
      "geometry": {
        "type": "Point",
        "coordinates": [13.047256, 47.794967]
      },
      "properties": {
         "id": "pmb638",
         "title": "Festung Hohensalzburg",
         "lat": "47.794967",
         "lon": "13.047256",
         "timestamp": ["1903-01-15"],
         "importance": "1"
      }
      }, 
    {
      "type": "Feature",
      "geometry": {
        "type": "Point",
        "coordinates": [13.0806, 47.7869]
      },
      "properties": {
         "id": "pmb269",
         "title": "Aigen",
         "lat": "47.7869",
         "lon": "13.0806",
         "timestamp": ["1903-01-13"],
         "importance": "1"
      }
      }, 
    {
      "type": "Feature",
      "geometry": {
        "type": "Point",
        "coordinates": [16.381889, 48.211153]
      },
      "properties": {
         "id": "pmb182420",
         "title": "Café Edison",
         "lat": "48.211153",
         "lon": "16.381889",
         "timestamp": ["1903-07-03"],
         "importance": "1"
      }
      }, 
    {
      "type": "Feature",
      "geometry": {
        "type": "Point",
        "coordinates": [16.39467, 48.21699]
      },
      "properties": {
         "id": "pmb422",
         "title": "Venedig in Wien",
         "lat": "48.21699",
         "lon": "16.39467",
         "timestamp": ["1903-05-25", "1903-08-31"],
         "importance": "2"
      }
      }, 
    {
      "type": "Feature",
      "geometry": {
        "type": "Point",
        "coordinates": [16.308333, 48.178056]
      },
      "properties": {
         "id": "pmb368",
         "title": "Gloriette",
         "lat": "48.178056",
         "lon": "16.308333",
         "timestamp": ["1903-08-08"],
         "importance": "1"
      }
      }, 
    {
      "type": "Feature",
      "geometry": {
        "type": "Point",
        "coordinates": [16.23333, 48.26667]
      },
      "properties": {
         "id": "pmb289",
         "title": "Steinriegl",
         "lat": "48.26667",
         "lon": "16.23333",
         "timestamp": ["1903-07-22"],
         "importance": "1"
      }
      }, 
    {
      "type": "Feature",
      "geometry": {
        "type": "Point",
        "coordinates": [13.376984, 52.509241]
      },
      "properties": {
         "id": "pmb88",
         "title": "Palasthotel Berlin",
         "lat": "52.509241",
         "lon": "13.376984",
         "timestamp": ["1903-02-22", "1903-02-23", "1903-02-24", "1903-02-25", "1903-02-26", "1903-02-27", "1903-02-28", "1903-03-01", "1903-03-02", "1903-03-03", "1903-03-04", "1903-03-05", "1903-03-06", "1903-03-07", "1903-03-08", "1903-03-09"],
         "importance": "16"
      }
      }, 
    {
      "type": "Feature",
      "geometry": {
        "type": "Point",
        "coordinates": [13.299819, 52.520522]
      },
      "properties": {
         "id": "pmb237374",
         "title": "Luisenplatz 2",
         "lat": "52.520522",
         "lon": "13.299819",
         "timestamp": ["1903-03-01", "1903-03-08"],
         "importance": "2"
      }
      }, 
    {
      "type": "Feature",
      "geometry": {
        "type": "Point",
        "coordinates": [13.383708, 52.516981]
      },
      "properties": {
         "id": "pmb199492",
         "title": "Restaurant Hiller",
         "lat": "52.516981",
         "lon": "13.383708",
         "timestamp": ["1903-02-22"],
         "importance": "1"
      }
      }, 
    {
      "type": "Feature",
      "geometry": {
        "type": "Point",
        "coordinates": [13.273979, 52.482354]
      },
      "properties": {
         "id": "pmb232189",
         "title": "Wernerstraße 16",
         "lat": "52.482354",
         "lon": "13.273979",
         "timestamp": ["1903-02-28"],
         "importance": "1"
      }
      }, 
    {
      "type": "Feature",
      "geometry": {
        "type": "Point",
        "coordinates": [13.26586, 52.48338]
      },
      "properties": {
         "id": "pmb129",
         "title": "Grunewald",
         "lat": "52.48338",
         "lon": "13.26586",
         "timestamp": ["1903-02-28"],
         "importance": "1"
      }
      }, 
    {
      "type": "Feature",
      "geometry": {
        "type": "Point",
        "coordinates": [16.382549, 48.21387]
      },
      "properties": {
         "id": "pmb199587",
         "title": "Praterstraße 21",
         "lat": "48.21387",
         "lon": "16.382549",
         "timestamp": ["1903-01-25", "1903-02-12", "1903-03-15", "1903-03-30", "1903-04-14", "1903-05-24", "1903-10-14"],
         "importance": "7"
      }
      }, 
    {
      "type": "Feature",
      "geometry": {
        "type": "Point",
        "coordinates": [16.377815, 48.21318]
      },
      "properties": {
         "id": "pmb185465",
         "title": "Tonello beim Dianabad",
         "lat": "48.21318",
         "lon": "16.377815",
         "timestamp": ["1903-03-30", "1903-11-26"],
         "importance": "2"
      }
      }, 
    {
      "type": "Feature",
      "geometry": {
        "type": "Point",
        "coordinates": [16.375135, 48.204532]
      },
      "properties": {
         "id": "pmb199692",
         "title": "Schellinggasse 6",
         "lat": "48.204532",
         "lon": "16.375135",
         "timestamp": ["1903-02-18", "1903-03-13", "1903-05-25", "1903-06-17", "1903-09-09", "1903-10-02", "1903-11-27", "1903-12-08", "1903-12-24"],
         "importance": "9"
      }
      }, 
    {
      "type": "Feature",
      "geometry": {
        "type": "Point",
        "coordinates": [16.298879, 48.187063]
      },
      "properties": {
         "id": "pmb144953",
         "title": "Café Dommayer",
         "lat": "48.187063",
         "lon": "16.298879",
         "timestamp": ["1903-05-13"],
         "importance": "1"
      }
      }, 
    {
      "type": "Feature",
      "geometry": {
        "type": "Point",
        "coordinates": [16.343402, 48.232147]
      },
      "properties": {
         "id": "pmb199891",
         "title": "Weimarer Straße 57",
         "lat": "48.232147",
         "lon": "16.343402",
         "timestamp": ["1903-02-03"],
         "importance": "1"
      }
      }, 
    {
      "type": "Feature",
      "geometry": {
        "type": "Point",
        "coordinates": [16.37312, 48.20122]
      },
      "properties": {
         "id": "pmb126",
         "title": "Hotel Imperial",
         "lat": "48.20122",
         "lon": "16.37312",
         "timestamp": ["1903-07-17", "1903-08-09", "1903-11-21", "1903-11-22"],
         "importance": "4"
      }
      }, 
    {
      "type": "Feature",
      "geometry": {
        "type": "Point",
        "coordinates": [16.347492624475, 48.216264483348]
      },
      "properties": {
         "id": "pmb89",
         "title": "Sanatorium Loew",
         "lat": "48.216264483348",
         "lon": "16.347492624475",
         "timestamp": ["1903-01-27", "1903-01-28", "1903-02-04", "1903-02-07", "1903-02-12", "1903-03-28"],
         "importance": "6"
      }
      }, 
    {
      "type": "Feature",
      "geometry": {
        "type": "Point",
        "coordinates": [16.287997, 48.217079]
      },
      "properties": {
         "id": "pmb92374",
         "title": "Liebhartstal",
         "lat": "48.217079",
         "lon": "16.287997",
         "timestamp": ["1903-05-03", "1903-06-29", "1903-07-15"],
         "importance": "3"
      }
      }, 
    {
      "type": "Feature",
      "geometry": {
        "type": "Point",
        "coordinates": [16.341077, 48.23143]
      },
      "properties": {
         "id": "pmb200732",
         "title": "Cottagegasse 29",
         "lat": "48.23143",
         "lon": "16.341077",
         "timestamp": ["1903-01-29", "1903-11-10"],
         "importance": "2"
      }
      }, 
    {
      "type": "Feature",
      "geometry": {
        "type": "Point",
        "coordinates": [16.365508, 48.200364]
      },
      "properties": {
         "id": "pmb7",
         "title": "Secession",
         "lat": "48.200364",
         "lon": "16.365508",
         "timestamp": ["1903-02-05"],
         "importance": "1"
      }
      }, 
    {
      "type": "Feature",
      "geometry": {
        "type": "Point",
        "coordinates": [16.284544, 48.224174]
      },
      "properties": {
         "id": "pmb194925",
         "title": "Bieglerhütte",
         "lat": "48.224174",
         "lon": "16.284544",
         "timestamp": ["1903-06-29"],
         "importance": "1"
      }
      }, 
    {
      "type": "Feature",
      "geometry": {
        "type": "Point",
        "coordinates": [9.14827778, 45.257]
      },
      "properties": {
         "id": "pmb200978",
         "title": "Certosa di Pavia",
         "lat": "45.257",
         "lon": "9.14827778",
         "timestamp": ["1903-06-05"],
         "importance": "1"
      }
      }, 
    {
      "type": "Feature",
      "geometry": {
        "type": "Point",
        "coordinates": [9.179072, 45.485768]
      },
      "properties": {
         "id": "pmb200981",
         "title": "Cimitero Monumentale",
         "lat": "45.485768",
         "lon": "9.179072",
         "timestamp": ["1903-06-04"],
         "importance": "1"
      }
      }, 
    {
      "type": "Feature",
      "geometry": {
        "type": "Point",
        "coordinates": [9.190578, 45.463968]
      },
      "properties": {
         "id": "pmb200984",
         "title": "Mailänder Dom",
         "lat": "45.463968",
         "lon": "9.190578",
         "timestamp": ["1903-06-04"],
         "importance": "1"
      }
      }, 
    {
      "type": "Feature",
      "geometry": {
        "type": "Point",
        "coordinates": [11.88586, 45.40797]
      },
      "properties": {
         "id": "pmb899",
         "title": "Padua",
         "lat": "45.40797",
         "lon": "11.88586",
         "timestamp": ["1903-06-02"],
         "importance": "1"
      }
      }, 
    {
      "type": "Feature",
      "geometry": {
        "type": "Point",
        "coordinates": [10.98444, 45.4299]
      },
      "properties": {
         "id": "pmb900",
         "title": "Verona",
         "lat": "45.4299",
         "lon": "10.98444",
         "timestamp": ["1903-06-03"],
         "importance": "1"
      }
      }, 
    {
      "type": "Feature",
      "geometry": {
        "type": "Point",
        "coordinates": [10.994444444444, 45.438888888889]
      },
      "properties": {
         "id": "pmb201000",
         "title": "Verona Arena",
         "lat": "45.438888888889",
         "lon": "10.994444444444",
         "timestamp": ["1903-06-03"],
         "importance": "1"
      }
      }, 
    {
      "type": "Feature",
      "geometry": {
        "type": "Point",
        "coordinates": [16.16793, 48.24514]
      },
      "properties": {
         "id": "pmb942",
         "title": "Mauerbach",
         "lat": "48.24514",
         "lon": "16.16793",
         "timestamp": ["1903-06-28", "1903-08-02"],
         "importance": "2"
      }
      }, 
    {
      "type": "Feature",
      "geometry": {
        "type": "Point",
        "coordinates": [13.3924, 52.5048]
      },
      "properties": {
         "id": "pmb738",
         "title": "Berliner Theater",
         "lat": "52.5048",
         "lon": "13.3924",
         "timestamp": ["1903-03-05", "1903-03-06"],
         "importance": "2"
      }
      }, 
    {
      "type": "Feature",
      "geometry": {
        "type": "Point",
        "coordinates": [16.351339, 48.22327]
      },
      "properties": {
         "id": "pmb201129",
         "title": "Gewerbemuseum",
         "lat": "48.22327",
         "lon": "16.351339",
         "timestamp": ["1903-11-30"],
         "importance": "1"
      }
      }, 
    {
      "type": "Feature",
      "geometry": {
        "type": "Point",
        "coordinates": [16.364283, 48.201813]
      },
      "properties": {
         "id": "pmb206958",
         "title": "Gauermanngasse 4",
         "lat": "48.201813",
         "lon": "16.364283",
         "timestamp": ["1903-04-18"],
         "importance": "1"
      }
      }, 
    {
      "type": "Feature",
      "geometry": {
        "type": "Point",
        "coordinates": [16.385001, 48.1982]
      },
      "properties": {
         "id": "pmb206977",
         "title": "Strohgasse 11",
         "lat": "48.1982",
         "lon": "16.385001",
         "timestamp": ["1903-03-21"],
         "importance": "1"
      }
      }, 
    {
      "type": "Feature",
      "geometry": {
        "type": "Point",
        "coordinates": [16.441111, 48.149444]
      },
      "properties": {
         "id": "pmb41376",
         "title": "Wiener Zentralfriedhof",
         "lat": "48.149444",
         "lon": "16.441111",
         "timestamp": ["1903-03-18", "1903-05-01", "1903-10-29", "1903-11-29"],
         "importance": "4"
      }
      }, 
    {
      "type": "Feature",
      "geometry": {
        "type": "Point",
        "coordinates": [16.366201, 48.210922]
      },
      "properties": {
         "id": "pmb207076",
         "title": "Strauchgasse 1",
         "lat": "48.210922",
         "lon": "16.366201",
         "timestamp": ["1903-03-21", "1903-04-16", "1903-04-18", "1903-04-19", "1903-04-29"],
         "importance": "5"
      }
      }, 
    {
      "type": "Feature",
      "geometry": {
        "type": "Point",
        "coordinates": [11.36266523227271, 46.50083719693118]
      },
      "properties": {
         "id": "pmb50817",
         "title": "Hotel Stiegl",
         "lat": "46.50083719693118",
         "lon": "11.36266523227271",
         "timestamp": ["1903-06-14", "1903-06-15", "1903-08-13", "1903-08-14"],
         "importance": "4"
      }
      }, 
    {
      "type": "Feature",
      "geometry": {
        "type": "Point",
        "coordinates": [13.366666, 52.516666]
      },
      "properties": {
         "id": "pmb36914",
         "title": "Tiergarten",
         "lat": "52.516666",
         "lon": "13.366666",
         "timestamp": ["1903-03-07"],
         "importance": "1"
      }
      }, 
    {
      "type": "Feature",
      "geometry": {
        "type": "Point",
        "coordinates": [16.368738, 48.213038]
      },
      "properties": {
         "id": "pmb207296",
         "title": "Tiefer Graben 23",
         "lat": "48.213038",
         "lon": "16.368738",
         "timestamp": ["1903-05-19", "1903-06-25", "1903-07-04", "1903-08-01", "1903-08-23", "1903-10-26", "1903-11-21", "1903-12-05"],
         "importance": "8"
      }
      }, 
    {
      "type": "Feature",
      "geometry": {
        "type": "Point",
        "coordinates": [16.328822485916, 48.231291362993]
      },
      "properties": {
         "id": "pmb291",
         "title": "Gersthof",
         "lat": "48.231291362993",
         "lon": "16.328822485916",
         "timestamp": ["1903-09-04", "1903-09-07", "1903-10-11", "1903-11-02", "1903-12-26"],
         "importance": "5"
      }
      }, 
    {
      "type": "Feature",
      "geometry": {
        "type": "Point",
        "coordinates": [16.23036, 48.246719]
      },
      "properties": {
         "id": "pmb539",
         "title": "Sophienalpe",
         "lat": "48.246719",
         "lon": "16.23036",
         "timestamp": ["1903-06-28", "1903-07-22", "1903-08-02"],
         "importance": "3"
      }
      }, 
    {
      "type": "Feature",
      "geometry": {
        "type": "Point",
        "coordinates": [15.83333, 47.75]
      },
      "properties": {
         "id": "pmb90051",
         "title": "Baumgartnerhaus",
         "lat": "47.75",
         "lon": "15.83333",
         "timestamp": ["1903-07-29"],
         "importance": "1"
      }
      }, 
    {
      "type": "Feature",
      "geometry": {
        "type": "Point",
        "coordinates": [16.322222222222, 48.263611111111]
      },
      "properties": {
         "id": "pmb194903",
         "title": "Am Kobenzl",
         "lat": "48.263611111111",
         "lon": "16.322222222222",
         "timestamp": ["1903-10-04"],
         "importance": "1"
      }
      }, 
    {
      "type": "Feature",
      "geometry": {
        "type": "Point",
        "coordinates": [16.2911, 48.2553]
      },
      "properties": {
         "id": "pmb242",
         "title": "Salmannsdorf",
         "lat": "48.2553",
         "lon": "16.2911",
         "timestamp": ["1903-04-29", "1903-05-21", "1903-07-05", "1903-07-12", "1903-07-13", "1903-09-05"],
         "importance": "6"
      }
      }, 
    {
      "type": "Feature",
      "geometry": {
        "type": "Point",
        "coordinates": [16.293147561818, 48.251927827778]
      },
      "properties": {
         "id": "pmb540",
         "title": "Hameau",
         "lat": "48.251927827778",
         "lon": "16.293147561818",
         "timestamp": ["1903-07-05"],
         "importance": "1"
      }
      }, 
    {
      "type": "Feature",
      "geometry": {
        "type": "Point",
        "coordinates": [16.255556, 48.133611]
      },
      "properties": {
         "id": "pmb40297",
         "title": "Hofmannsthal-Schlössl",
         "lat": "48.133611",
         "lon": "16.255556",
         "timestamp": ["1903-01-06", "1903-05-23", "1903-07-25", "1903-10-10"],
         "importance": "4"
      }
      }, 
    {
      "type": "Feature",
      "geometry": {
        "type": "Point",
        "coordinates": [16.261305, 48.186771]
      },
      "properties": {
         "id": "pmb207274",
         "title": "Haus Bahr",
         "lat": "48.186771",
         "lon": "16.261305",
         "timestamp": ["1903-03-17", "1903-03-27", "1903-04-02", "1903-06-21", "1903-07-19", "1903-11-01", "1903-12-18"],
         "importance": "7"
      }
      }, 
    {
      "type": "Feature",
      "geometry": {
        "type": "Point",
        "coordinates": [16.378158, 48.207691]
      },
      "properties": {
         "id": "pmb186034",
         "title": "Urania Theater",
         "lat": "48.207691",
         "lon": "16.378158",
         "timestamp": ["1903-05-15"],
         "importance": "1"
      }
      }, 
    {
      "type": "Feature",
      "geometry": {
        "type": "Point",
        "coordinates": [16.362746, 48.21997]
      },
      "properties": {
         "id": "pmb231653",
         "title": "Müllnergasse 3",
         "lat": "48.21997",
         "lon": "16.362746",
         "timestamp": ["1903-05-25", "1903-07-09", "1903-07-21"],
         "importance": "3"
      }
      }, 
    {
      "type": "Feature",
      "geometry": {
        "type": "Point",
        "coordinates": [16.353571, 48.239999]
      },
      "properties": {
         "id": "pmb231906",
         "title": "Dollinergasse 8",
         "lat": "48.239999",
         "lon": "16.353571",
         "timestamp": ["1903-01-02", "1903-02-19", "1903-03-31", "1903-05-07", "1903-05-24", "1903-06-23", "1903-09-05", "1903-09-22", "1903-10-28", "1903-12-08", "1903-12-20", "1903-12-22"],
         "importance": "12"
      }
      }, 
    {
      "type": "Feature",
      "geometry": {
        "type": "Point",
        "coordinates": [16.257741, 48.139276]
      },
      "properties": {
         "id": "pmb231810",
         "title": "Willergasse 2",
         "lat": "48.139276",
         "lon": "16.257741",
         "timestamp": ["1903-04-16", "1903-07-25"],
         "importance": "2"
      }
      }, 
    {
      "type": "Feature",
      "geometry": {
        "type": "Point",
        "coordinates": [16.22773, 48.21686]
      },
      "properties": {
         "id": "pmb19829",
         "title": "Weidlingau",
         "lat": "48.21686",
         "lon": "16.22773",
         "timestamp": ["1903-06-28", "1903-08-02"],
         "importance": "2"
      }
      }, 
    {
      "type": "Feature",
      "geometry": {
        "type": "Point",
        "coordinates": [16.266071, 48.207207]
      },
      "properties": {
         "id": "pmb92493",
         "title": "Rosentalstraße",
         "lat": "48.207207",
         "lon": "16.266071",
         "timestamp": ["1903-05-03"],
         "importance": "1"
      }
      }, 
    {
      "type": "Feature",
      "geometry": {
        "type": "Point",
        "coordinates": [16.283758, 48.1803]
      },
      "properties": {
         "id": "pmb232311",
         "title": "Münichreiterstraße 1",
         "lat": "48.1803",
         "lon": "16.283758",
         "timestamp": ["1903-03-27", "1903-06-24", "1903-09-29", "1903-10-21", "1903-12-13"],
         "importance": "5"
      }
      }, 
    {
      "type": "Feature",
      "geometry": {
        "type": "Point",
        "coordinates": [16.397985, 48.207773]
      },
      "properties": {
         "id": "pmb231967",
         "title": "Schüttelstraße 31",
         "lat": "48.207773",
         "lon": "16.397985",
         "timestamp": ["1903-02-11"],
         "importance": "1"
      }
      }, 
    {
      "type": "Feature",
      "geometry": {
        "type": "Point",
        "coordinates": [16.361349, 48.223406]
      },
      "properties": {
         "id": "pmb231945",
         "title": "Porzellangasse 45",
         "lat": "48.223406",
         "lon": "16.361349",
         "timestamp": ["1903-02-05", "1903-02-08", "1903-02-11", "1903-04-05", "1903-05-09", "1903-08-12", "1903-08-25", "1903-09-20", "1903-10-21", "1903-10-26", "1903-11-01", "1903-11-23"],
         "importance": "12"
      }
      }, 
    {
      "type": "Feature",
      "geometry": {
        "type": "Point",
        "coordinates": [16.35861, 48.251941]
      },
      "properties": {
         "id": "pmb92495",
         "title": "Rothschild-Gärten",
         "lat": "48.251941",
         "lon": "16.35861",
         "timestamp": ["1903-04-22"],
         "importance": "1"
      }
      }, 
    {
      "type": "Feature",
      "geometry": {
        "type": "Point",
        "coordinates": [16.335264, 48.228877]
      },
      "properties": {
         "id": "pmb232166",
         "title": "Gentzgasse 110",
         "lat": "48.228877",
         "lon": "16.335264",
         "timestamp": ["1903-01-01", "1903-01-01", "1903-01-03", "1903-01-04", "1903-01-05", "1903-01-07", "1903-01-09", "1903-01-10", "1903-01-10", "1903-01-11", "1903-01-20", "1903-01-21", "1903-01-22", "1903-01-23", "1903-01-26", "1903-01-27", "1903-01-28", "1903-01-29", "1903-01-30", "1903-01-31", "1903-02-01", "1903-02-02", "1903-02-03", "1903-02-04", "1903-02-04", "1903-02-05", "1903-02-07", "1903-02-08", "1903-02-09", "1903-02-09", "1903-02-10", "1903-02-12", "1903-02-13", "1903-02-17", "1903-02-19", "1903-02-20", "1903-03-12", "1903-03-13", "1903-03-14", "1903-03-15", "1903-03-15", "1903-03-16", "1903-03-17", "1903-03-18", "1903-03-19", "1903-03-20", "1903-03-21", "1903-03-22", "1903-03-22", "1903-03-23", "1903-03-26", "1903-03-27", "1903-03-28", "1903-03-29", "1903-03-31", "1903-04-04", "1903-04-05", "1903-04-06", "1903-04-07", "1903-04-08", "1903-04-11", "1903-04-13", "1903-04-14", "1903-04-18", "1903-04-19", "1903-04-20", "1903-04-22", "1903-04-25", "1903-04-26", "1903-04-27", "1903-04-27", "1903-04-28", "1903-04-28", "1903-04-29", "1903-05-02", "1903-05-03", "1903-05-05", "1903-05-07", "1903-05-09", "1903-05-10", "1903-05-11", "1903-05-14", "1903-05-15", "1903-05-18", "1903-05-19", "1903-05-20", "1903-05-21", "1903-05-24", "1903-05-26", "1903-06-16", "1903-06-17", "1903-06-19", "1903-06-20", "1903-06-21", "1903-06-25", "1903-06-26", "1903-06-28", "1903-06-29", "1903-06-30", "1903-07-02", "1903-07-03", "1903-07-04", "1903-07-05", "1903-07-06", "1903-07-07", "1903-07-10", "1903-07-13", "1903-07-14", "1903-07-17", "1903-07-19", "1903-07-21", "1903-07-24", "1903-07-26", "1903-07-27", "1903-07-30", "1903-07-31", "1903-08-01", "1903-08-02", "1903-08-04", "1903-08-06", "1903-08-07", "1903-08-08", "1903-08-09", "1903-08-09", "1903-08-10", "1903-08-11", "1903-08-12", "1903-08-22", "1903-08-23", "1903-08-24", "1903-08-26", "1903-08-27", "1903-08-31", "1903-09-01", "1903-09-02"],
         "importance": "135"
      }
      }, 
    {
      "type": "Feature",
      "geometry": {
        "type": "Point",
        "coordinates": [13.318058, 52.511709]
      },
      "properties": {
         "id": "pmb334",
         "title": "Schiller-Theater",
         "lat": "52.511709",
         "lon": "13.318058",
         "timestamp": ["1903-02-23", "1903-02-25", "1903-03-08"],
         "importance": "3"
      }
      }, 
    {
      "type": "Feature",
      "geometry": {
        "type": "Point",
        "coordinates": [16.361751, 48.215689]
      },
      "properties": {
         "id": "pmb232256",
         "title": "Kolingasse 3",
         "lat": "48.215689",
         "lon": "16.361751",
         "timestamp": ["1903-01-10", "1903-08-28", "1903-08-31", "1903-11-10"],
         "importance": "4"
      }
      }, 
    {
      "type": "Feature",
      "geometry": {
        "type": "Point",
        "coordinates": [16.28243, 48.183446]
      },
      "properties": {
         "id": "pmb232319",
         "title": "St.-Veit-Gasse 3",
         "lat": "48.183446",
         "lon": "16.28243",
         "timestamp": ["1903-03-25"],
         "importance": "1"
      }
      }, 
    {
      "type": "Feature",
      "geometry": {
        "type": "Point",
        "coordinates": [16.36376, 48.202278]
      },
      "properties": {
         "id": "pmb232325",
         "title": "Nibelungengasse 8",
         "lat": "48.202278",
         "lon": "16.36376",
         "timestamp": ["1903-12-01"],
         "importance": "1"
      }
      }, 
    {
      "type": "Feature",
      "geometry": {
        "type": "Point",
        "coordinates": [16.336111111111, 48.254444444444]
      },
      "properties": {
         "id": "pmb199081",
         "title": "Friedhof Grinzing",
         "lat": "48.254444444444",
         "lon": "16.336111111111",
         "timestamp": ["1903-01-01"],
         "importance": "1"
      }
      }, 
    {
      "type": "Feature",
      "geometry": {
        "type": "Point",
        "coordinates": [16.363924, 48.217491]
      },
      "properties": {
         "id": "pmb232348",
         "title": "Hörlgasse 15",
         "lat": "48.217491",
         "lon": "16.363924",
         "timestamp": ["1903-01-22", "1903-01-27", "1903-01-31", "1903-02-07", "1903-05-25"],
         "importance": "5"
      }
      }, 
    {
      "type": "Feature",
      "geometry": {
        "type": "Point",
        "coordinates": [16.365195, 48.21575]
      },
      "properties": {
         "id": "pmb232398",
         "title": "Wipplingerstraße 38",
         "lat": "48.21575",
         "lon": "16.365195",
         "timestamp": ["1903-02-19", "1903-03-11", "1903-04-28", "1903-07-08"],
         "importance": "4"
      }
      }, 
    {
      "type": "Feature",
      "geometry": {
        "type": "Point",
        "coordinates": [16.337917, 48.228096]
      },
      "properties": {
         "id": "pmb40694",
         "title": "Gentzgasse",
         "lat": "48.228096",
         "lon": "16.337917",
         "timestamp": ["1903-02-19", "1903-05-21"],
         "importance": "2"
      }
      }, 
    {
      "type": "Feature",
      "geometry": {
        "type": "Point",
        "coordinates": [13.373611, 52.51]
      },
      "properties": {
         "id": "pmb146875",
         "title": "Café Josty",
         "lat": "52.51",
         "lon": "13.373611",
         "timestamp": ["1903-03-04"],
         "importance": "1"
      }
      }, 
    {
      "type": "Feature",
      "geometry": {
        "type": "Point",
        "coordinates": [13.4035314, 52.5069685]
      },
      "properties": {
         "id": "pmb232488",
         "title": "Gebrüder-Herrnfeld-Theater",
         "lat": "52.5069685",
         "lon": "13.4035314",
         "timestamp": ["1903-03-06"],
         "importance": "1"
      }
      }, 
    {
      "type": "Feature",
      "geometry": {
        "type": "Point",
        "coordinates": [13.447343, 52.547229]
      },
      "properties": {
         "id": "pmb232491",
         "title": "Zum Prälaten",
         "lat": "52.547229",
         "lon": "13.447343",
         "timestamp": ["1903-03-06"],
         "importance": "1"
      }
      }, 
    {
      "type": "Feature",
      "geometry": {
        "type": "Point",
        "coordinates": [13.394075, 52.519377]
      },
      "properties": {
         "id": "pmb232501",
         "title": "Hotel und Restaurant »Prinz Wilhelm«",
         "lat": "52.519377",
         "lon": "13.394075",
         "timestamp": ["1903-03-06", "1903-03-09"],
         "importance": "2"
      }
      }, 
    {
      "type": "Feature",
      "geometry": {
        "type": "Point",
        "coordinates": [13.298022, 52.439479]
      },
      "properties": {
         "id": "pmb232505",
         "title": "Café Austria",
         "lat": "52.439479",
         "lon": "13.298022",
         "timestamp": ["1903-03-07"],
         "importance": "1"
      }
      }, 
    {
      "type": "Feature",
      "geometry": {
        "type": "Point",
        "coordinates": [16.363259, 48.214815]
      },
      "properties": {
         "id": "pmb232566",
         "title": "Heßgasse 7",
         "lat": "48.214815",
         "lon": "16.363259",
         "timestamp": ["1903-03-21"],
         "importance": "1"
      }
      }, 
    {
      "type": "Feature",
      "geometry": {
        "type": "Point",
        "coordinates": [16.363991, 48.202709]
      },
      "properties": {
         "id": "pmb232585",
         "title": "Elisabethstraße 13",
         "lat": "48.202709",
         "lon": "16.363991",
         "timestamp": ["1903-03-24", "1903-03-26"],
         "importance": "2"
      }
      }, 
    {
      "type": "Feature",
      "geometry": {
        "type": "Point",
        "coordinates": [16.36067, 48.213035]
      },
      "properties": {
         "id": "pmb232611",
         "title": "Mineralogisches Museum der Universität Wien",
         "lat": "48.213035",
         "lon": "16.36067",
         "timestamp": ["1903-04-05"],
         "importance": "1"
      }
      }, 
    {
      "type": "Feature",
      "geometry": {
        "type": "Point",
        "coordinates": [14.287495, 48.307291]
      },
      "properties": {
         "id": "pmb130",
         "title": "Hotel Weinzinger",
         "lat": "48.307291",
         "lon": "14.287495",
         "timestamp": ["1903-04-08", "1903-04-09"],
         "importance": "2"
      }
      }, 
    {
      "type": "Feature",
      "geometry": {
        "type": "Point",
        "coordinates": [16.347077, 48.204439]
      },
      "properties": {
         "id": "pmb232643",
         "title": "Burggasse 72",
         "lat": "48.204439",
         "lon": "16.347077",
         "timestamp": ["1903-04-28"],
         "importance": "1"
      }
      }, 
    {
      "type": "Feature",
      "geometry": {
        "type": "Point",
        "coordinates": [16.336096, 48.219176]
      },
      "properties": {
         "id": "pmb232640",
         "title": "Pezzlgasse 14",
         "lat": "48.219176",
         "lon": "16.336096",
         "timestamp": ["1903-04-28", "1903-05-06"],
         "importance": "2"
      }
      }, 
    {
      "type": "Feature",
      "geometry": {
        "type": "Point",
        "coordinates": [16.30627, 48.2435]
      },
      "properties": {
         "id": "pmb147205",
         "title": "Zum weißen Lamm",
         "lat": "48.2435",
         "lon": "16.30627",
         "timestamp": ["1903-04-30", "1903-06-27", "1903-07-06"],
         "importance": "3"
      }
      }, 
    {
      "type": "Feature",
      "geometry": {
        "type": "Point",
        "coordinates": [16.33472, 48.2304]
      },
      "properties": {
         "id": "pmb168940",
         "title": "Edmund-Weiß-Gasse 7",
         "lat": "48.2304",
         "lon": "16.33472",
         "timestamp": ["1903-05-01", "1903-05-02", "1903-05-04", "1903-05-14", "1903-06-17", "1903-06-19", "1903-08-28", "1903-09-02", "1903-09-03", "1903-09-04", "1903-09-08", "1903-09-09", "1903-09-12", "1903-09-13", "1903-09-14", "1903-09-15", "1903-09-16", "1903-09-17", "1903-09-18", "1903-09-19", "1903-09-20", "1903-09-21", "1903-09-22", "1903-09-23", "1903-09-24", "1903-09-25", "1903-09-26", "1903-09-27", "1903-09-28", "1903-09-29", "1903-09-30", "1903-10-01", "1903-10-02", "1903-10-03", "1903-10-04", "1903-10-05", "1903-10-06", "1903-10-07", "1903-10-08", "1903-10-09", "1903-10-10", "1903-10-11", "1903-10-12", "1903-10-13", "1903-10-14", "1903-10-15", "1903-10-16", "1903-10-17", "1903-10-18", "1903-10-19", "1903-10-20", "1903-10-21", "1903-10-22", "1903-10-23", "1903-10-24", "1903-10-25", "1903-10-26", "1903-10-27", "1903-10-28", "1903-10-29", "1903-10-30", "1903-10-31", "1903-11-01", "1903-11-02", "1903-11-03", "1903-11-04", "1903-11-05", "1903-11-06", "1903-11-09", "1903-11-10", "1903-11-11", "1903-11-12", "1903-11-13", "1903-11-14", "1903-11-15", "1903-11-16", "1903-11-17", "1903-11-18", "1903-11-19", "1903-11-20", "1903-11-21", "1903-11-22", "1903-11-23", "1903-11-24", "1903-11-25", "1903-11-26", "1903-11-27", "1903-11-28", "1903-11-29", "1903-11-30", "1903-12-01", "1903-12-02", "1903-12-03", "1903-12-04", "1903-12-05", "1903-12-06", "1903-12-07", "1903-12-08", "1903-12-09", "1903-12-10", "1903-12-11", "1903-12-12", "1903-12-13", "1903-12-14", "1903-12-15", "1903-12-16", "1903-12-17", "1903-12-18", "1903-12-19", "1903-12-20", "1903-12-21", "1903-12-22", "1903-12-23", "1903-12-24", "1903-12-25", "1903-12-26", "1903-12-27", "1903-12-28", "1903-12-29", "1903-12-30", "1903-12-31"],
         "importance": "121"
      }
      }, 
    {
      "type": "Feature",
      "geometry": {
        "type": "Point",
        "coordinates": [16.371571, 48.208448]
      },
      "properties": {
         "id": "pmb232655",
         "title": "Goldschmiedgasse 1",
         "lat": "48.208448",
         "lon": "16.371571",
         "timestamp": ["1903-05-04", "1903-11-28"],
         "importance": "2"
      }
      }, 
    {
      "type": "Feature",
      "geometry": {
        "type": "Point",
        "coordinates": [16.359914, 48.216831]
      },
      "properties": {
         "id": "pmb232663",
         "title": "Währinger Straße 12",
         "lat": "48.216831",
         "lon": "16.359914",
         "timestamp": ["1903-05-06"],
         "importance": "1"
      }
      }, 
    {
      "type": "Feature",
      "geometry": {
        "type": "Point",
        "coordinates": [16.36985, 48.20199]
      },
      "properties": {
         "id": "pmb92514",
         "title": "Schauspiel- und Opernschule Otto",
         "lat": "48.20199",
         "lon": "16.36985",
         "timestamp": ["1903-05-12"],
         "importance": "1"
      }
      }, 
    {
      "type": "Feature",
      "geometry": {
        "type": "Point",
        "coordinates": [16.3406, 48.2242]
      },
      "properties": {
         "id": "pmb232701",
         "title": "Währinger Tempel",
         "lat": "48.2242",
         "lon": "16.3406",
         "timestamp": ["1903-05-22", "1903-07-27", "1903-08-23", "1903-08-24", "1903-08-26"],
         "importance": "5"
      }
      }, 
    {
      "type": "Feature",
      "geometry": {
        "type": "Point",
        "coordinates": [16.34098, 48.22426]
      },
      "properties": {
         "id": "pmb44464",
         "title": "Schopenhauerstraße",
         "lat": "48.22426",
         "lon": "16.34098",
         "timestamp": ["1903-05-22", "1903-08-26"],
         "importance": "2"
      }
      }, 
    {
      "type": "Feature",
      "geometry": {
        "type": "Point",
        "coordinates": [16.363959, 48.213291]
      },
      "properties": {
         "id": "pmb232755",
         "title": "Helferstorferstraße 3",
         "lat": "48.213291",
         "lon": "16.363959",
         "timestamp": ["1903-05-26"],
         "importance": "1"
      }
      }, 
    {
      "type": "Feature",
      "geometry": {
        "type": "Point",
        "coordinates": [16.358471, 48.212329]
      },
      "properties": {
         "id": "pmb232761",
         "title": "Rathausplatz 4",
         "lat": "48.212329",
         "lon": "16.358471",
         "timestamp": ["1903-05-26"],
         "importance": "1"
      }
      }, 
    {
      "type": "Feature",
      "geometry": {
        "type": "Point",
        "coordinates": [12.337638888716349, 45.436169051051536]
      },
      "properties": {
         "id": "pmb50910",
         "title": "Hotel Centrale Vapore",
         "lat": "45.436169051051536",
         "lon": "12.337638888716349",
         "timestamp": ["1903-05-28", "1903-05-29", "1903-05-30", "1903-05-31", "1903-06-01", "1903-06-02"],
         "importance": "6"
      }
      }, 
    {
      "type": "Feature",
      "geometry": {
        "type": "Point",
        "coordinates": [12.361422, 45.411979]
      },
      "properties": {
         "id": "pmb232810",
         "title": "San Lazzaro degli Armeni",
         "lat": "45.411979",
         "lon": "12.361422",
         "timestamp": ["1903-05-30"],
         "importance": "1"
      }
      }, 
    {
      "type": "Feature",
      "geometry": {
        "type": "Point",
        "coordinates": [12.339, 45.434]
      },
      "properties": {
         "id": "pmb184980",
         "title": "Ristorante Pilsen",
         "lat": "45.434",
         "lon": "12.339",
         "timestamp": ["1903-05-30", "1903-06-01"],
         "importance": "2"
      }
      }, 
    {
      "type": "Feature",
      "geometry": {
        "type": "Point",
        "coordinates": [12.41785, 45.49794]
      },
      "properties": {
         "id": "pmb44094",
         "title": "Torcello",
         "lat": "45.49794",
         "lon": "12.41785",
         "timestamp": ["1903-05-31"],
         "importance": "1"
      }
      }, 
    {
      "type": "Feature",
      "geometry": {
        "type": "Point",
        "coordinates": [12.4193, 45.4982]
      },
      "properties": {
         "id": "pmb232819",
         "title": "Santa Maria Assunta",
         "lat": "45.4982",
         "lon": "12.4193",
         "timestamp": ["1903-05-31"],
         "importance": "1"
      }
      }, 
    {
      "type": "Feature",
      "geometry": {
        "type": "Point",
        "coordinates": [12.41696, 45.48548]
      },
      "properties": {
         "id": "pmb90414",
         "title": "Burano",
         "lat": "45.48548",
         "lon": "12.41696",
         "timestamp": ["1903-05-31"],
         "importance": "1"
      }
      }, 
    {
      "type": "Feature",
      "geometry": {
        "type": "Point",
        "coordinates": [12.4169, 45.4731]
      },
      "properties": {
         "id": "pmb232826",
         "title": "San Francesco del Deserto",
         "lat": "45.4731",
         "lon": "12.4169",
         "timestamp": ["1903-05-31"],
         "importance": "1"
      }
      }, 
    {
      "type": "Feature",
      "geometry": {
        "type": "Point",
        "coordinates": [12.333888888889, 45.440555555556]
      },
      "properties": {
         "id": "pmb232830",
         "title": "Ca’ d’Oro",
         "lat": "45.440555555556",
         "lon": "12.333888888889",
         "timestamp": ["1903-06-01"],
         "importance": "1"
      }
      }, 
    {
      "type": "Feature",
      "geometry": {
        "type": "Point",
        "coordinates": [12.327918, 45.441986]
      },
      "properties": {
         "id": "pmb232840",
         "title": "Museo Civico",
         "lat": "45.441986",
         "lon": "12.327918",
         "timestamp": ["1903-06-01"],
         "importance": "1"
      }
      }, 
    {
      "type": "Feature",
      "geometry": {
        "type": "Point",
        "coordinates": [12.35645, 45.42953]
      },
      "properties": {
         "id": "pmb90711",
         "title": "Giardini Napoleonici",
         "lat": "45.42953",
         "lon": "12.35645",
         "timestamp": ["1903-06-01"],
         "importance": "1"
      }
      }, 
    {
      "type": "Feature",
      "geometry": {
        "type": "Point",
        "coordinates": [12.33806, 45.43442]
      },
      "properties": {
         "id": "pmb232853",
         "title": "Caffè Quadri",
         "lat": "45.43442",
         "lon": "12.33806",
         "timestamp": ["1903-06-01"],
         "importance": "1"
      }
      }, 
    {
      "type": "Feature",
      "geometry": {
        "type": "Point",
        "coordinates": [11.5475, 45.54672]
      },
      "properties": {
         "id": "pmb929",
         "title": "Vicenza",
         "lat": "45.54672",
         "lon": "11.5475",
         "timestamp": ["1903-06-02", "1903-06-03"],
         "importance": "2"
      }
      }, 
    {
      "type": "Feature",
      "geometry": {
        "type": "Point",
        "coordinates": [11.879788, 45.410566]
      },
      "properties": {
         "id": "pmb232870",
         "title": "Chiesa degli Eremitani",
         "lat": "45.410566",
         "lon": "11.879788",
         "timestamp": ["1903-06-02"],
         "importance": "1"
      }
      }, 
    {
      "type": "Feature",
      "geometry": {
        "type": "Point",
        "coordinates": [11.879536111111111, 47.41181666666667]
      },
      "properties": {
         "id": "pmb232873",
         "title": "Cappella degli Scrovegni",
         "lat": "47.41181666666667",
         "lon": "11.879536111111111",
         "timestamp": ["1903-06-02"],
         "importance": "1"
      }
      }, 
    {
      "type": "Feature",
      "geometry": {
        "type": "Point",
        "coordinates": [11.87722222, 45.40777778]
      },
      "properties": {
         "id": "pmb232877",
         "title": "Caffè Pedrocchi",
         "lat": "45.40777778",
         "lon": "11.87722222",
         "timestamp": ["1903-06-02"],
         "importance": "1"
      }
      }, 
    {
      "type": "Feature",
      "geometry": {
        "type": "Point",
        "coordinates": [11.549166666667, 45.55]
      },
      "properties": {
         "id": "pmb232881",
         "title": "Teatro Olimpico",
         "lat": "45.55",
         "lon": "11.549166666667",
         "timestamp": ["1903-06-02"],
         "importance": "1"
      }
      }, 
    {
      "type": "Feature",
      "geometry": {
        "type": "Point",
        "coordinates": [11.001638888889, 45.447416666667]
      },
      "properties": {
         "id": "pmb232884",
         "title": "Teatro Romano di Verona",
         "lat": "45.447416666667",
         "lon": "11.001638888889",
         "timestamp": ["1903-06-03"],
         "importance": "1"
      }
      }, 
    {
      "type": "Feature",
      "geometry": {
        "type": "Point",
        "coordinates": [10.9979, 45.4338]
      },
      "properties": {
         "id": "pmb232891",
         "title": "Tomba di Giulietta",
         "lat": "45.4338",
         "lon": "10.9979",
         "timestamp": ["1903-06-03"],
         "importance": "1"
      }
      }, 
    {
      "type": "Feature",
      "geometry": {
        "type": "Point",
        "coordinates": [10.9989275, 45.44364367]
      },
      "properties": {
         "id": "pmb232897",
         "title": "Arche scaligere",
         "lat": "45.44364367",
         "lon": "10.9989275",
         "timestamp": ["1903-06-03"],
         "importance": "1"
      }
      }, 
    {
      "type": "Feature",
      "geometry": {
        "type": "Point",
        "coordinates": [11.8428, 45.3708]
      },
      "properties": {
         "id": "pmb232902",
         "title": "Villa Giusti",
         "lat": "45.3708",
         "lon": "11.8428",
         "timestamp": ["1903-06-03"],
         "importance": "1"
      }
      }, 
    {
      "type": "Feature",
      "geometry": {
        "type": "Point",
        "coordinates": [10.992416235587038, 45.43925612644675]
      },
      "properties": {
         "id": "pmb232916",
         "title": "Caffè Vittorio Emanuele",
         "lat": "45.43925612644675",
         "lon": "10.992416235587038",
         "timestamp": ["1903-06-03"],
         "importance": "1"
      }
      }, 
    {
      "type": "Feature",
      "geometry": {
        "type": "Point",
        "coordinates": [10.979166666667, 45.4425]
      },
      "properties": {
         "id": "pmb232922",
         "title": "San Zeno Maggiore",
         "lat": "45.4425",
         "lon": "10.979166666667",
         "timestamp": ["1903-06-03"],
         "importance": "1"
      }
      }, 
    {
      "type": "Feature",
      "geometry": {
        "type": "Point",
        "coordinates": [10.981319444444, 45.438705555556]
      },
      "properties": {
         "id": "pmb232925",
         "title": "San Bernardino",
         "lat": "45.438705555556",
         "lon": "10.981319444444",
         "timestamp": ["1903-06-03"],
         "importance": "1"
      }
      }, 
    {
      "type": "Feature",
      "geometry": {
        "type": "Point",
        "coordinates": [9.18990851436326, 45.46632669007748]
      },
      "properties": {
         "id": "pmb232935",
         "title": "Gambrinus Halle",
         "lat": "45.46632669007748",
         "lon": "9.18990851436326",
         "timestamp": ["1903-06-04"],
         "importance": "1"
      }
      }, 
    {
      "type": "Feature",
      "geometry": {
        "type": "Point",
        "coordinates": [9.1899943, 45.46763]
      },
      "properties": {
         "id": "pmb232956",
         "title": "Caffè Cova",
         "lat": "45.46763",
         "lon": "9.1899943",
         "timestamp": ["1903-06-05"],
         "importance": "1"
      }
      }, 
    {
      "type": "Feature",
      "geometry": {
        "type": "Point",
        "coordinates": [9.19050092, 45.465752]
      },
      "properties": {
         "id": "pmb232959",
         "title": "Ristorante Savini",
         "lat": "45.465752",
         "lon": "9.19050092",
         "timestamp": ["1903-06-05", "1903-06-14"],
         "importance": "2"
      }
      }, 
    {
      "type": "Feature",
      "geometry": {
        "type": "Point",
        "coordinates": [8.946726, 46.002723]
      },
      "properties": {
         "id": "pmb513",
         "title": "Hôtel du Parc",
         "lat": "46.002723",
         "lon": "8.946726",
         "timestamp": ["1903-06-06", "1903-06-07", "1903-06-08", "1903-06-09", "1903-06-10", "1903-06-11", "1903-06-12", "1903-06-13", "1903-06-14"],
         "importance": "9"
      }
      }, 
    {
      "type": "Feature",
      "geometry": {
        "type": "Point",
        "coordinates": [8.82193, 45.82908]
      },
      "properties": {
         "id": "pmb928",
         "title": "Varese",
         "lat": "45.82908",
         "lon": "8.82193",
         "timestamp": ["1903-06-10"],
         "importance": "1"
      }
      }, 
    {
      "type": "Feature",
      "geometry": {
        "type": "Point",
        "coordinates": [9.01999, 45.93142]
      },
      "properties": {
         "id": "pmb548",
         "title": "Monte Generoso",
         "lat": "45.93142",
         "lon": "9.01999",
         "timestamp": ["1903-06-11"],
         "importance": "1"
      }
      }, 
    {
      "type": "Feature",
      "geometry": {
        "type": "Point",
        "coordinates": [9.001172, 45.911272]
      },
      "properties": {
         "id": "pmb232966",
         "title": "Bellavista Bahnhof",
         "lat": "45.911272",
         "lon": "9.001172",
         "timestamp": ["1903-06-11"],
         "importance": "1"
      }
      }, 
    {
      "type": "Feature",
      "geometry": {
        "type": "Point",
        "coordinates": [8.95611111111111, 45.98305555555556]
      },
      "properties": {
         "id": "pmb232969",
         "title": "Capo San Martino",
         "lat": "45.98305555555556",
         "lon": "8.95611111111111",
         "timestamp": ["1903-06-12"],
         "importance": "1"
      }
      }, 
    {
      "type": "Feature",
      "geometry": {
        "type": "Point",
        "coordinates": [16.371678, 48.211296]
      },
      "properties": {
         "id": "pmb232729",
         "title": "Wipplingerstraße 1",
         "lat": "48.211296",
         "lon": "16.371678",
         "timestamp": ["1903-06-17", "1903-11-17"],
         "importance": "2"
      }
      }, 
    {
      "type": "Feature",
      "geometry": {
        "type": "Point",
        "coordinates": [16.385062, 48.209777]
      },
      "properties": {
         "id": "pmb232975",
         "title": "Hauptzollamt",
         "lat": "48.209777",
         "lon": "16.385062",
         "timestamp": ["1903-06-22"],
         "importance": "1"
      }
      }, 
    {
      "type": "Feature",
      "geometry": {
        "type": "Point",
        "coordinates": [16.24526, 48.24987]
      },
      "properties": {
         "id": "pmb193088",
         "title": "Rotes Kreuz",
         "lat": "48.24987",
         "lon": "16.24526",
         "timestamp": ["1903-07-05"],
         "importance": "1"
      }
      }, 
    {
      "type": "Feature",
      "geometry": {
        "type": "Point",
        "coordinates": [16.29273, 48.23975]
      },
      "properties": {
         "id": "pmb532",
         "title": "Schafberg [Wien|",
         "lat": "48.23975",
         "lon": "16.29273",
         "timestamp": ["1903-07-15", "1903-10-11"],
         "importance": "2"
      }
      }, 
    {
      "type": "Feature",
      "geometry": {
        "type": "Point",
        "coordinates": [16.409275, 48.227524]
      },
      "properties": {
         "id": "pmb233009",
         "title": "Holzer’s Strombad",
         "lat": "48.227524",
         "lon": "16.409275",
         "timestamp": ["1903-07-16"],
         "importance": "1"
      }
      }, 
    {
      "type": "Feature",
      "geometry": {
        "type": "Point",
        "coordinates": [16.3025, 48.182222]
      },
      "properties": {
         "id": "pmb39607",
         "title": "Tiergarten Schönbrunn",
         "lat": "48.182222",
         "lon": "16.3025",
         "timestamp": ["1903-07-18"],
         "importance": "1"
      }
      }, 
    {
      "type": "Feature",
      "geometry": {
        "type": "Point",
        "coordinates": [16.5253, 48.2144]
      },
      "properties": {
         "id": "pmb150420",
         "title": "Essling",
         "lat": "48.2144",
         "lon": "16.5253",
         "timestamp": ["1903-07-21"],
         "importance": "1"
      }
      }, 
    {
      "type": "Feature",
      "geometry": {
        "type": "Point",
        "coordinates": [16.387458, 48.199544]
      },
      "properties": {
         "id": "pmb92574",
         "title": "Ungargasse",
         "lat": "48.199544",
         "lon": "16.387458",
         "timestamp": ["1903-07-23"],
         "importance": "1"
      }
      }, 
    {
      "type": "Feature",
      "geometry": {
        "type": "Point",
        "coordinates": [15.8075, 47.775833]
      },
      "properties": {
         "id": "pmb5836",
         "title": "Hochschneeberg",
         "lat": "47.775833",
         "lon": "15.8075",
         "timestamp": ["1903-07-28", "1903-07-29"],
         "importance": "2"
      }
      }, 
    {
      "type": "Feature",
      "geometry": {
        "type": "Point",
        "coordinates": [15.809797301585972, 47.772499956947584]
      },
      "properties": {
         "id": "pmb50925",
         "title": "Fischerhütte",
         "lat": "47.772499956947584",
         "lon": "15.809797301585972",
         "timestamp": ["1903-07-28", "1903-07-29"],
         "importance": "2"
      }
      }, 
    {
      "type": "Feature",
      "geometry": {
        "type": "Point",
        "coordinates": [15.85, 47.71667]
      },
      "properties": {
         "id": "pmb90587",
         "title": "Eng",
         "lat": "47.71667",
         "lon": "15.85",
         "timestamp": ["1903-07-29"],
         "importance": "1"
      }
      }, 
    {
      "type": "Feature",
      "geometry": {
        "type": "Point",
        "coordinates": [15.86360511, 47.69312551]
      },
      "properties": {
         "id": "pmb233088",
         "title": "Hotel Leberl",
         "lat": "47.69312551",
         "lon": "15.86360511",
         "timestamp": ["1903-07-29"],
         "importance": "1"
      }
      }, 
    {
      "type": "Feature",
      "geometry": {
        "type": "Point",
        "coordinates": [15.821273779868186, 47.65905075753235]
      },
      "properties": {
         "id": "pmb233122",
         "title": "Erholungsheim der Gesellschaft vom Weißen Kreuze",
         "lat": "47.65905075753235",
         "lon": "15.821273779868186",
         "timestamp": ["1903-07-29"],
         "importance": "1"
      }
      }, 
    {
      "type": "Feature",
      "geometry": {
        "type": "Point",
        "coordinates": [16.24604, 48.24737]
      },
      "properties": {
         "id": "pmb90609",
         "title": "Exelberg",
         "lat": "48.24737",
         "lon": "16.24604",
         "timestamp": ["1903-08-02"],
         "importance": "1"
      }
      }, 
    {
      "type": "Feature",
      "geometry": {
        "type": "Point",
        "coordinates": [16.167514, 48.25113]
      },
      "properties": {
         "id": "pmb233161",
         "title": "Versorgungshaus Mauerbach",
         "lat": "48.25113",
         "lon": "16.167514",
         "timestamp": ["1903-08-02"],
         "importance": "1"
      }
      }, 
    {
      "type": "Feature",
      "geometry": {
        "type": "Point",
        "coordinates": [16.21667, 48.21667]
      },
      "properties": {
         "id": "pmb92363",
         "title": "Schloß Laudon",
         "lat": "48.21667",
         "lon": "16.21667",
         "timestamp": ["1903-08-02"],
         "importance": "1"
      }
      }, 
    {
      "type": "Feature",
      "geometry": {
        "type": "Point",
        "coordinates": [15.86924, 47.64168]
      },
      "properties": {
         "id": "pmb7390",
         "title": "Maria Schutz",
         "lat": "47.64168",
         "lon": "15.86924",
         "timestamp": ["1903-08-04"],
         "importance": "1"
      }
      }, 
    {
      "type": "Feature",
      "geometry": {
        "type": "Point",
        "coordinates": [15.93333, 47.63333]
      },
      "properties": {
         "id": "pmb91556",
         "title": "Raach am Hochgebirge",
         "lat": "47.63333",
         "lon": "15.93333",
         "timestamp": ["1903-08-04"],
         "importance": "1"
      }
      }, 
    {
      "type": "Feature",
      "geometry": {
        "type": "Point",
        "coordinates": [16.30202, 48.18636]
      },
      "properties": {
         "id": "pmb304",
         "title": "Ottakringer Bräu",
         "lat": "48.18636",
         "lon": "16.30202",
         "timestamp": ["1903-08-08", "1903-12-14", "1903-12-21"],
         "importance": "3"
      }
      }, 
    {
      "type": "Feature",
      "geometry": {
        "type": "Point",
        "coordinates": [16.32664, 48.30719]
      },
      "properties": {
         "id": "pmb192344",
         "title": "Stift Klosterneuburg",
         "lat": "48.30719",
         "lon": "16.32664",
         "timestamp": ["1903-08-11"],
         "importance": "1"
      }
      }, 
    {
      "type": "Feature",
      "geometry": {
        "type": "Point",
        "coordinates": [11.35552, 46.49817]
      },
      "properties": {
         "id": "pmb233170",
         "title": "Hotel Greif",
         "lat": "46.49817",
         "lon": "11.35552",
         "timestamp": ["1903-08-13"],
         "importance": "1"
      }
      },