{
  "type": "FeatureCollection",
  "features": [
    {
      "type": "Feature",
      "geometry": {
        "type": "Point",
        "coordinates": [16.373056, 48.208333]
      },
      "properties": {
         "id": "pmb50",
         "title": "Wien",
         "lat": "48.208333",
         "lon": "16.373056",
         "timestamp": ["1903-07-01", "1903-07-02", "1903-07-03", "1903-07-04", "1903-07-05", "1903-07-06", "1903-07-07", "1903-07-08", "1903-07-09", "1903-07-10", "1903-07-11", "1903-07-12", "1903-07-13", "1903-07-14", "1903-07-15", "1903-07-16", "1903-07-17", "1903-07-18", "1903-07-19", "1903-07-20", "1903-07-21", "1903-07-22", "1903-07-23", "1903-07-24", "1903-07-25", "1903-07-26", "1903-07-27", "1903-07-28", "1903-07-29", "1903-07-30", "1903-07-31"],
         "importance": "31"
      }
      }, 
    {
      "type": "Feature",
      "geometry": {
        "type": "Point",
        "coordinates": [16.3957, 48.217566]
      },
      "properties": {
         "id": "pmb43280",
         "title": "Jantsch-Theater",
         "lat": "48.217566",
         "lon": "16.3957",
         "timestamp": ["1903-07-25"],
         "importance": "1"
      }
      }, 
    {
      "type": "Feature",
      "geometry": {
        "type": "Point",
        "coordinates": [16.430054, 48.194558]
      },
      "properties": {
         "id": "pmb8",
         "title": "Prater",
         "lat": "48.194558",
         "lon": "16.430054",
         "timestamp": ["1903-07-16"],
         "importance": "1"
      }
      }, 
    {
      "type": "Feature",
      "geometry": {
        "type": "Point",
        "coordinates": [16.388608096065, 48.229100570727]
      },
      "properties": {
         "id": "pmb426",
         "title": "Nordbahnhof",
         "lat": "48.229100570727",
         "lon": "16.388608096065",
         "timestamp": ["1903-07-09"],
         "importance": "1"
      }
      }, 
    {
      "type": "Feature",
      "geometry": {
        "type": "Point",
        "coordinates": [16.33306, 48.25]
      },
      "properties": {
         "id": "pmb69",
         "title": "XIX., Döbling",
         "lat": "48.25",
         "lon": "16.33306",
         "timestamp": ["1903-07-22"],
         "importance": "1"
      }
      }, 
    {
      "type": "Feature",
      "geometry": {
        "type": "Point",
        "coordinates": [16.299116267833, 48.230916826952]
      },
      "properties": {
         "id": "pmb499",
         "title": "Dornbach",
         "lat": "48.230916826952",
         "lon": "16.299116267833",
         "timestamp": ["1903-07-23"],
         "importance": "1"
      }
      }, 
    {
      "type": "Feature",
      "geometry": {
        "type": "Point",
        "coordinates": [16.25, 48.26667]
      },
      "properties": {
         "id": "pmb473",
         "title": "Weidlingbach",
         "lat": "48.26667",
         "lon": "16.25",
         "timestamp": ["1903-07-14", "1903-07-20", "1903-07-22"],
         "importance": "3"
      }
      }, 
    {
      "type": "Feature",
      "geometry": {
        "type": "Point",
        "coordinates": [16.23264, 48.00543]
      },
      "properties": {
         "id": "pmb662",
         "title": "Baden bei Wien",
         "lat": "48.00543",
         "lon": "16.23264",
         "timestamp": ["1903-07-02", "1903-07-31"],
         "importance": "2"
      }
      }, 
    {
      "type": "Feature",
      "geometry": {
        "type": "Point",
        "coordinates": [16.295642, 48.186033]
      },
      "properties": {
         "id": "pmb182313",
         "title": "Neue Welt",
         "lat": "48.186033",
         "lon": "16.295642",
         "timestamp": ["1903-07-01"],
         "importance": "1"
      }
      }, 
    {
      "type": "Feature",
      "geometry": {
        "type": "Point",
        "coordinates": [16.275701, 48.219421]
      },
      "properties": {
         "id": "pmb90687",
         "title": "Gallitzinberg",
         "lat": "48.219421",
         "lon": "16.275701",
         "timestamp": ["1903-07-15"],
         "importance": "1"
      }
      }, 
    {
      "type": "Feature",
      "geometry": {
        "type": "Point",
        "coordinates": [16.48306, 48.21806]
      },
      "properties": {
         "id": "pmb90272",
         "title": "Aspern",
         "lat": "48.21806",
         "lon": "16.48306",
         "timestamp": ["1903-07-21"],
         "importance": "1"
      }
      }, 
    {
      "type": "Feature",
      "geometry": {
        "type": "Point",
        "coordinates": [15.83333, 47.7]
      },
      "properties": {
         "id": "pmb483",
         "title": "Reichenau an der Rax",
         "lat": "47.7",
         "lon": "15.83333",
         "timestamp": ["1903-07-29"],
         "importance": "1"
      }
      }, 
    {
      "type": "Feature",
      "geometry": {
        "type": "Point",
        "coordinates": [16.379829498031, 48.187455471378]
      },
      "properties": {
         "id": "pmb132",
         "title": "Südbahnhof",
         "lat": "48.187455471378",
         "lon": "16.379829498031",
         "timestamp": ["1903-07-11"],
         "importance": "1"
      }
      }, 
    {
      "type": "Feature",
      "geometry": {
        "type": "Point",
        "coordinates": [16.266389, 48.188056]
      },
      "properties": {
         "id": "pmb165",
         "title": "Ober Sankt Veit",
         "lat": "48.188056",
         "lon": "16.266389",
         "timestamp": ["1903-07-01"],
         "importance": "1"
      }
      }, 
    {
      "type": "Feature",
      "geometry": {
        "type": "Point",
        "coordinates": [16.3067984, 48.1806202]
      },
      "properties": {
         "id": "pmb92518",
         "title": "Schlosspark Schönbrunn",
         "lat": "48.1806202",
         "lon": "16.3067984",
         "timestamp": ["1903-07-18", "1903-07-24"],
         "importance": "2"
      }
      }, 
    {
      "type": "Feature",
      "geometry": {
        "type": "Point",
        "coordinates": [16.401694, 48.213944]
      },
      "properties": {
         "id": "pmb47",
         "title": "Schweizerhaus",
         "lat": "48.213944",
         "lon": "16.401694",
         "timestamp": ["1903-07-03"],
         "importance": "1"
      }
      }, 
    {
      "type": "Feature",
      "geometry": {
        "type": "Point",
        "coordinates": [16.402222, 48.214722]
      },
      "properties": {
         "id": "pmb685",
         "title": "Wurstelprater",
         "lat": "48.214722",
         "lon": "16.402222",
         "timestamp": ["1903-07-03"],
         "importance": "1"
      }
      }, 
    {
      "type": "Feature",
      "geometry": {
        "type": "Point",
        "coordinates": [16.2, 48.23333]
      },
      "properties": {
         "id": "pmb90821",
         "title": "Hainbach",
         "lat": "48.23333",
         "lon": "16.2",
         "timestamp": ["1903-07-17"],
         "importance": "1"
      }
      }, 
    {
      "type": "Feature",
      "geometry": {
        "type": "Point",
        "coordinates": [16.276509500872, 48.241960480337]
      },
      "properties": {
         "id": "pmb176",
         "title": "Schwarzenbergpark",
         "lat": "48.241960480337",
         "lon": "16.276509500872",
         "timestamp": ["1903-07-23"],
         "importance": "1"
      }
      }, 
    {
      "type": "Feature",
      "geometry": {
        "type": "Point",
        "coordinates": [16.26269, 48.24616]
      },
      "properties": {
         "id": "pmb456",
         "title": "Rohrerhütte",
         "lat": "48.24616",
         "lon": "16.26269",
         "timestamp": ["1903-07-05", "1903-07-16", "1903-07-23"],
         "importance": "3"
      }
      }, 
    {
      "type": "Feature",
      "geometry": {
        "type": "Point",
        "coordinates": [16.300034240016, 48.246838181084]
      },
      "properties": {
         "id": "pmb169",
         "title": "Pötzleinsdorf",
         "lat": "48.246838181084",
         "lon": "16.300034240016",
         "timestamp": ["1903-07-06", "1903-07-16"],
         "importance": "2"
      }
      }, 
    {
      "type": "Feature",
      "geometry": {
        "type": "Point",
        "coordinates": [16.28610371233, 48.233119188484]
      },
      "properties": {
         "id": "pmb170",
         "title": "Neuwaldegg",
         "lat": "48.233119188484",
         "lon": "16.28610371233",
         "timestamp": ["1903-07-12", "1903-07-16"],
         "importance": "2"
      }
      }, 
    {
      "type": "Feature",
      "geometry": {
        "type": "Point",
        "coordinates": [16.35736, 48.21533]
      },
      "properties": {
         "id": "pmb168934",
         "title": "Frankgasse 1",
         "lat": "48.21533",
         "lon": "16.35736",
         "timestamp": ["1903-07-01", "1903-07-02", "1903-07-03", "1903-07-04", "1903-07-05", "1903-07-06", "1903-07-07", "1903-07-08", "1903-07-09", "1903-07-10", "1903-07-11", "1903-07-12", "1903-07-13", "1903-07-14", "1903-07-15", "1903-07-16", "1903-07-17", "1903-07-18", "1903-07-19", "1903-07-20", "1903-07-21", "1903-07-22", "1903-07-23", "1903-07-24", "1903-07-25", "1903-07-26", "1903-07-27", "1903-07-28", "1903-07-29", "1903-07-30", "1903-07-31"],
         "importance": "31"
      }
      }, 
    {
      "type": "Feature",
      "geometry": {
        "type": "Point",
        "coordinates": [16.256152195922, 48.132793312328]
      },
      "properties": {
         "id": "pmb173",
         "title": "Rodaun",
         "lat": "48.132793312328",
         "lon": "16.256152195922",
         "timestamp": ["1903-07-25"],
         "importance": "1"
      }
      }, 
    {
      "type": "Feature",
      "geometry": {
        "type": "Point",
        "coordinates": [15.8634, 47.69209]
      },
      "properties": {
         "id": "pmb948",
         "title": "Payerbach",
         "lat": "47.69209",
         "lon": "15.8634",
         "timestamp": ["1903-07-29"],
         "importance": "1"
      }
      }, 
    {
      "type": "Feature",
      "geometry": {
        "type": "Point",
        "coordinates": [16.254331, 48.133848]
      },
      "properties": {
         "id": "pmb177",
         "title": "Gasthaus Stelzer",
         "lat": "48.133848",
         "lon": "16.254331",
         "timestamp": ["1903-07-25"],
         "importance": "1"
      }
      }, 
    {
      "type": "Feature",
      "geometry": {
        "type": "Point",
        "coordinates": [16.55083, 48.20278]
      },
      "properties": {
         "id": "pmb90777",
         "title": "Groß-Enzersdorf",
         "lat": "48.20278",
         "lon": "16.55083",
         "timestamp": ["1903-07-21"],
         "importance": "1"
      }
      }, 
    {
      "type": "Feature",
      "geometry": {
        "type": "Point",
        "coordinates": [16.381889, 48.211153]
      },
      "properties": {
         "id": "pmb182420",
         "title": "Café Edison",
         "lat": "48.211153",
         "lon": "16.381889",
         "timestamp": ["1903-07-03"],
         "importance": "1"
      }
      }, 
    {
      "type": "Feature",
      "geometry": {
        "type": "Point",
        "coordinates": [16.23333, 48.26667]
      },
      "properties": {
         "id": "pmb289",
         "title": "Steinriegl",
         "lat": "48.26667",
         "lon": "16.23333",
         "timestamp": ["1903-07-22"],
         "importance": "1"
      }
      }, 
    {
      "type": "Feature",
      "geometry": {
        "type": "Point",
        "coordinates": [16.37312, 48.20122]
      },
      "properties": {
         "id": "pmb126",
         "title": "Hotel Imperial",
         "lat": "48.20122",
         "lon": "16.37312",
         "timestamp": ["1903-07-17"],
         "importance": "1"
      }
      }, 
    {
      "type": "Feature",
      "geometry": {
        "type": "Point",
        "coordinates": [16.287997, 48.217079]
      },
      "properties": {
         "id": "pmb92374",
         "title": "Liebhartstal",
         "lat": "48.217079",
         "lon": "16.287997",
         "timestamp": ["1903-07-15"],
         "importance": "1"
      }
      }, 
    {
      "type": "Feature",
      "geometry": {
        "type": "Point",
        "coordinates": [16.368738, 48.213038]
      },
      "properties": {
         "id": "pmb207296",
         "title": "Tiefer Graben 23",
         "lat": "48.213038",
         "lon": "16.368738",
         "timestamp": ["1903-07-04"],
         "importance": "1"
      }
      }, 
    {
      "type": "Feature",
      "geometry": {
        "type": "Point",
        "coordinates": [16.23036, 48.246719]
      },
      "properties": {
         "id": "pmb539",
         "title": "Sophienalpe",
         "lat": "48.246719",
         "lon": "16.23036",
         "timestamp": ["1903-07-22"],
         "importance": "1"
      }
      }, 
    {
      "type": "Feature",
      "geometry": {
        "type": "Point",
        "coordinates": [15.83333, 47.75]
      },
      "properties": {
         "id": "pmb90051",
         "title": "Baumgartnerhaus",
         "lat": "47.75",
         "lon": "15.83333",
         "timestamp": ["1903-07-29"],
         "importance": "1"
      }
      }, 
    {
      "type": "Feature",
      "geometry": {
        "type": "Point",
        "coordinates": [16.2911, 48.2553]
      },
      "properties": {
         "id": "pmb242",
         "title": "Salmannsdorf",
         "lat": "48.2553",
         "lon": "16.2911",
         "timestamp": ["1903-07-05", "1903-07-12", "1903-07-13"],
         "importance": "3"
      }
      }, 
    {
      "type": "Feature",
      "geometry": {
        "type": "Point",
        "coordinates": [16.293147561818, 48.251927827778]
      },
      "properties": {
         "id": "pmb540",
         "title": "Hameau",
         "lat": "48.251927827778",
         "lon": "16.293147561818",
         "timestamp": ["1903-07-05"],
         "importance": "1"
      }
      }, 
    {
      "type": "Feature",
      "geometry": {
        "type": "Point",
        "coordinates": [16.255556, 48.133611]
      },
      "properties": {
         "id": "pmb40297",
         "title": "Hofmannsthal-Schlössl",
         "lat": "48.133611",
         "lon": "16.255556",
         "timestamp": ["1903-07-25"],
         "importance": "1"
      }
      }, 
    {
      "type": "Feature",
      "geometry": {
        "type": "Point",
        "coordinates": [16.261305, 48.186771]
      },
      "properties": {
         "id": "pmb207274",
         "title": "Haus Bahr",
         "lat": "48.186771",
         "lon": "16.261305",
         "timestamp": ["1903-07-19"],
         "importance": "1"
      }
      }, 
    {
      "type": "Feature",
      "geometry": {
        "type": "Point",
        "coordinates": [16.362746, 48.21997]
      },
      "properties": {
         "id": "pmb231653",
         "title": "Müllnergasse 3",
         "lat": "48.21997",
         "lon": "16.362746",
         "timestamp": ["1903-07-09", "1903-07-21"],
         "importance": "2"
      }
      }, 
    {
      "type": "Feature",
      "geometry": {
        "type": "Point",
        "coordinates": [16.257741, 48.139276]
      },
      "properties": {
         "id": "pmb231810",
         "title": "Willergasse 2",
         "lat": "48.139276",
         "lon": "16.257741",
         "timestamp": ["1903-07-25"],
         "importance": "1"
      }
      }, 
    {
      "type": "Feature",
      "geometry": {
        "type": "Point",
        "coordinates": [16.335264, 48.228877]
      },
      "properties": {
         "id": "pmb232166",
         "title": "Gentzgasse 110",
         "lat": "48.228877",
         "lon": "16.335264",
         "timestamp": ["1903-07-02", "1903-07-03", "1903-07-04", "1903-07-05", "1903-07-06", "1903-07-07", "1903-07-10", "1903-07-13", "1903-07-14", "1903-07-17", "1903-07-19", "1903-07-21", "1903-07-24", "1903-07-26", "1903-07-27", "1903-07-30", "1903-07-31"],
         "importance": "17"
      }
      }, 
    {
      "type": "Feature",
      "geometry": {
        "type": "Point",
        "coordinates": [16.365195, 48.21575]
      },
      "properties": {
         "id": "pmb232398",
         "title": "Wipplingerstraße 38",
         "lat": "48.21575",
         "lon": "16.365195",
         "timestamp": ["1903-07-08"],
         "importance": "1"
      }
      }, 
    {
      "type": "Feature",
      "geometry": {
        "type": "Point",
        "coordinates": [16.30627, 48.2435]
      },
      "properties": {
         "id": "pmb147205",
         "title": "Zum weißen Lamm",
         "lat": "48.2435",
         "lon": "16.30627",
         "timestamp": ["1903-07-06"],
         "importance": "1"
      }
      }, 
    {
      "type": "Feature",
      "geometry": {
        "type": "Point",
        "coordinates": [16.3406, 48.2242]
      },
      "properties": {
         "id": "pmb232701",
         "title": "Währinger Tempel",
         "lat": "48.2242",
         "lon": "16.3406",
         "timestamp": ["1903-07-27"],
         "importance": "1"
      }
      }, 
    {
      "type": "Feature",
      "geometry": {
        "type": "Point",
        "coordinates": [16.24526, 48.24987]
      },
      "properties": {
         "id": "pmb193088",
         "title": "Rotes Kreuz",
         "lat": "48.24987",
         "lon": "16.24526",
         "timestamp": ["1903-07-05"],
         "importance": "1"
      }
      }, 
    {
      "type": "Feature",
      "geometry": {
        "type": "Point",
        "coordinates": [16.29273, 48.23975]
      },
      "properties": {
         "id": "pmb532",
         "title": "Schafberg [Wien|",
         "lat": "48.23975",
         "lon": "16.29273",
         "timestamp": ["1903-07-15"],
         "importance": "1"
      }
      }, 
    {
      "type": "Feature",
      "geometry": {
        "type": "Point",
        "coordinates": [16.409275, 48.227524]
      },
      "properties": {
         "id": "pmb233009",
         "title": "Holzer’s Strombad",
         "lat": "48.227524",
         "lon": "16.409275",
         "timestamp": ["1903-07-16"],
         "importance": "1"
      }
      }, 
    {
      "type": "Feature",
      "geometry": {
        "type": "Point",
        "coordinates": [16.3025, 48.182222]
      },
      "properties": {
         "id": "pmb39607",
         "title": "Tiergarten Schönbrunn",
         "lat": "48.182222",
         "lon": "16.3025",
         "timestamp": ["1903-07-18"],
         "importance": "1"
      }
      }, 
    {
      "type": "Feature",
      "geometry": {
        "type": "Point",
        "coordinates": [16.5253, 48.2144]
      },
      "properties": {
         "id": "pmb150420",
         "title": "Essling",
         "lat": "48.2144",
         "lon": "16.5253",
         "timestamp": ["1903-07-21"],
         "importance": "1"
      }
      }, 
    {
      "type": "Feature",
      "geometry": {
        "type": "Point",
        "coordinates": [16.387458, 48.199544]
      },
      "properties": {
         "id": "pmb92574",
         "title": "Ungargasse",
         "lat": "48.199544",
         "lon": "16.387458",
         "timestamp": ["1903-07-23"],
         "importance": "1"
      }
      }, 
    {
      "type": "Feature",
      "geometry": {
        "type": "Point",
        "coordinates": [15.8075, 47.775833]
      },
      "properties": {
         "id": "pmb5836",
         "title": "Hochschneeberg",
         "lat": "47.775833",
         "lon": "15.8075",
         "timestamp": ["1903-07-28", "1903-07-29"],
         "importance": "2"
      }
      }, 
    {
      "type": "Feature",
      "geometry": {
        "type": "Point",
        "coordinates": [15.809797301585972, 47.772499956947584]
      },
      "properties": {
         "id": "pmb50925",
         "title": "Fischerhütte",
         "lat": "47.772499956947584",
         "lon": "15.809797301585972",
         "timestamp": ["1903-07-28", "1903-07-29"],
         "importance": "2"
      }
      }, 
    {
      "type": "Feature",
      "geometry": {
        "type": "Point",
        "coordinates": [15.85, 47.71667]
      },
      "properties": {
         "id": "pmb90587",
         "title": "Eng",
         "lat": "47.71667",
         "lon": "15.85",
         "timestamp": ["1903-07-29"],
         "importance": "1"
      }
      }, 
    {
      "type": "Feature",
      "geometry": {
        "type": "Point",
        "coordinates": [15.86360511, 47.69312551]
      },
      "properties": {
         "id": "pmb233088",
         "title": "Hotel Leberl",
         "lat": "47.69312551",
         "lon": "15.86360511",
         "timestamp": ["1903-07-29"],
         "importance": "1"
      }
      }, 
    {
      "type": "Feature",
      "geometry": {
        "type": "Point",
        "coordinates": [15.821273779868186, 47.65905075753235]
      },
      "properties": {
         "id": "pmb233122",
         "title": "Erholungsheim der Gesellschaft vom Weißen Kreuze",
         "lat": "47.65905075753235",
         "lon": "15.821273779868186",
         "timestamp": ["1903-07-29"],
         "importance": "1"
      }
      }
  ]
}