{
  "type": "FeatureCollection",
  "features": [
    {
      "type": "Feature", 
      "geometry": {
        "type": "LineString", 
        "coordinates": [
            [16.255556, 48.133611], 
            [16.373056, 48.208333], 
            [16.35736, 48.21533], 
            [16.333568462613, 48.235119783861], 
            [16.331527, 48.23428]
          ]
      },
      "properties": {
        "name": "23. Mai 1903"
      }
    },
    {
      "type": "Feature",
      "geometry": {
        "type": "Point",
        "coordinates": [
          16.373056, 48.208333
        ]
      },
      "properties": {
        "title": "Wien",
        "timestamp": ["1903-05-23"],
        "pmb": "https://pmb.acdh.oeaw.ac.at/entity//", 
        "wikipedia": "https://de.wikipedia.org/wiki/Wien"
      }
      },
    {
      "type": "Feature",
      "geometry": {
        "type": "Point",
        "coordinates": [
          16.331527, 48.23428
        ]
      },
      "properties": {
        "title": "Restauration Türkenschanz-Park",
        "timestamp": ["1903-05-23"],
        "pmb": "https://pmb.acdh.oeaw.ac.at/entity//"
      }
      },
    {
      "type": "Feature",
      "geometry": {
        "type": "Point",
        "coordinates": [
          16.333568462613, 48.235119783861
        ]
      },
      "properties": {
        "title": "Türkenschanzpark",
        "timestamp": ["1903-05-23"],
        "pmb": "https://pmb.acdh.oeaw.ac.at/entity//"
      }
      },
    {
      "type": "Feature",
      "geometry": {
        "type": "Point",
        "coordinates": [
          16.255556, 48.133611
        ]
      },
      "properties": {
        "title": "Hofmannsthal-Schlössl",
        "timestamp": ["1903-05-23"],
        "pmb": "https://pmb.acdh.oeaw.ac.at/entity//", 
        "wikipedia": "https://de.wikipedia.org/wiki/Hofmannsthal-Schl%C3%B6ssl"
      }
      },
    {
      "type": "Feature",
      "geometry": {
        "type": "Point",
        "coordinates": [
          16.35736, 48.21533
        ]
      },
      "properties": {
        "title": "Frankgasse 1",
        "timestamp": ["1903-05-23"],
        "pmb": "https://pmb.acdh.oeaw.ac.at/entity//"
      }
      }
  ]
}