{
  "type": "FeatureCollection",
  "features": [
    {
      "type": "Feature",
      "geometry": {
        "type": "Point",
        "coordinates": [16.375, 48.205139]
      },
      "properties": {
         "id": "pmb19",
         "title": "Ronacher",
         "lat": "48.205139",
         "lon": "16.375",
         "timestamp": ["1903-05-25"],
         "importance": "1"
      }
      }, 
    {
      "type": "Feature",
      "geometry": {
        "type": "Point",
        "coordinates": [16.3642, 48.19941]
      },
      "properties": {
         "id": "pmb37",
         "title": "Theater an der Wien",
         "lat": "48.19941",
         "lon": "16.3642",
         "timestamp": ["1903-05-22"],
         "importance": "1"
      }
      }, 
    {
      "type": "Feature",
      "geometry": {
        "type": "Point",
        "coordinates": [16.373056, 48.208333]
      },
      "properties": {
         "id": "pmb50",
         "title": "Wien",
         "lat": "48.208333",
         "lon": "16.373056",
         "timestamp": ["1903-05-01", "1903-05-02", "1903-05-03", "1903-05-04", "1903-05-05", "1903-05-06", "1903-05-07", "1903-05-08", "1903-05-09", "1903-05-10", "1903-05-11", "1903-05-12", "1903-05-13", "1903-05-14", "1903-05-15", "1903-05-16", "1903-05-17", "1903-05-18", "1903-05-19", "1903-05-20", "1903-05-21", "1903-05-22", "1903-05-23", "1903-05-24", "1903-05-25", "1903-05-26", "1903-05-27"],
         "importance": "27"
      }
      }, 
    {
      "type": "Feature",
      "geometry": {
        "type": "Point",
        "coordinates": [16.361139, 48.210333]
      },
      "properties": {
         "id": "pmb14",
         "title": "Burgtheater",
         "lat": "48.210333",
         "lon": "16.361139",
         "timestamp": ["1903-05-16"],
         "importance": "1"
      }
      }, 
    {
      "type": "Feature",
      "geometry": {
        "type": "Point",
        "coordinates": [16.379829498031, 48.187455471378]
      },
      "properties": {
         "id": "pmb132",
         "title": "Südbahnhof",
         "lat": "48.187455471378",
         "lon": "16.379829498031",
         "timestamp": ["1903-05-27"],
         "importance": "1"
      }
      }, 
    {
      "type": "Feature",
      "geometry": {
        "type": "Point",
        "coordinates": [16.3566, 48.205142]
      },
      "properties": {
         "id": "pmb20",
         "title": "Volkstheater",
         "lat": "48.205142",
         "lon": "16.3566",
         "timestamp": ["1903-05-07", "1903-05-10"],
         "importance": "2"
      }
      }, 
    {
      "type": "Feature",
      "geometry": {
        "type": "Point",
        "coordinates": [16.3067984, 48.1806202]
      },
      "properties": {
         "id": "pmb92518",
         "title": "Schlosspark Schönbrunn",
         "lat": "48.1806202",
         "lon": "16.3067984",
         "timestamp": ["1903-05-11", "1903-05-13"],
         "importance": "2"
      }
      }, 
    {
      "type": "Feature",
      "geometry": {
        "type": "Point",
        "coordinates": [16.371211, 48.206416]
      },
      "properties": {
         "id": "pmb96",
         "title": "Meissl & Schadn",
         "lat": "48.206416",
         "lon": "16.371211",
         "timestamp": ["1903-05-01"],
         "importance": "1"
      }
      }, 
    {
      "type": "Feature",
      "geometry": {
        "type": "Point",
        "coordinates": [16.43138888888889, 48.155833333333334]
      },
      "properties": {
         "id": "pmb192349",
         "title": "Israelitischer Friedhof",
         "lat": "48.155833333333334",
         "lon": "16.43138888888889",
         "timestamp": ["1903-05-01"],
         "importance": "1"
      }
      }, 
    {
      "type": "Feature",
      "geometry": {
        "type": "Point",
        "coordinates": [12.336106, 45.4328]
      },
      "properties": {
         "id": "pmb310",
         "title": "Grand Hotel Bauer-Grünwald",
         "lat": "45.4328",
         "lon": "12.336106",
         "timestamp": ["1903-05-28"],
         "importance": "1"
      }
      }, 
    {
      "type": "Feature",
      "geometry": {
        "type": "Point",
        "coordinates": [12.33835, 45.43411]
      },
      "properties": {
         "id": "pmb261",
         "title": "Piazza San Marco",
         "lat": "45.43411",
         "lon": "12.33835",
         "timestamp": ["1903-05-30"],
         "importance": "1"
      }
      }, 
    {
      "type": "Feature",
      "geometry": {
        "type": "Point",
        "coordinates": [12.339722222222, 45.434444444444]
      },
      "properties": {
         "id": "pmb192409",
         "title": "Basilica di San Marco",
         "lat": "45.434444444444",
         "lon": "12.339722222222",
         "timestamp": ["1903-05-29"],
         "importance": "1"
      }
      }, 
    {
      "type": "Feature",
      "geometry": {
        "type": "Point",
        "coordinates": [12.339857, 45.433696]
      },
      "properties": {
         "id": "pmb149",
         "title": "Palazzo Ducale",
         "lat": "45.433696",
         "lon": "12.339857",
         "timestamp": ["1903-05-28"],
         "importance": "1"
      }
      }, 
    {
      "type": "Feature",
      "geometry": {
        "type": "Point",
        "coordinates": [12.32798, 45.431245]
      },
      "properties": {
         "id": "pmb43220",
         "title": "Gallerie dell’Accademia",
         "lat": "45.431245",
         "lon": "12.32798",
         "timestamp": ["1903-05-30"],
         "importance": "1"
      }
      }, 
    {
      "type": "Feature",
      "geometry": {
        "type": "Point",
        "coordinates": [12.35, 45.38333]
      },
      "properties": {
         "id": "pmb259",
         "title": "Lido",
         "lat": "45.38333",
         "lon": "12.35",
         "timestamp": ["1903-05-28", "1903-05-30"],
         "importance": "2"
      }
      }, 
    {
      "type": "Feature",
      "geometry": {
        "type": "Point",
        "coordinates": [12.35683, 45.45857]
      },
      "properties": {
         "id": "pmb91314",
         "title": "Murano",
         "lat": "45.45857",
         "lon": "12.35683",
         "timestamp": ["1903-05-29"],
         "importance": "1"
      }
      }, 
    {
      "type": "Feature",
      "geometry": {
        "type": "Point",
        "coordinates": [16.331527, 48.23428]
      },
      "properties": {
         "id": "pmb74",
         "title": "Restauration Türkenschanz-Park",
         "lat": "48.23428",
         "lon": "16.331527",
         "timestamp": ["1903-05-23"],
         "importance": "1"
      }
      }, 
    {
      "type": "Feature",
      "geometry": {
        "type": "Point",
        "coordinates": [16.258056, 48.201667]
      },
      "properties": {
         "id": "pmb271",
         "title": "Hütteldorf",
         "lat": "48.201667",
         "lon": "16.258056",
         "timestamp": ["1903-05-03"],
         "importance": "1"
      }
      }, 
    {
      "type": "Feature",
      "geometry": {
        "type": "Point",
        "coordinates": [16.39467, 48.21699]
      },
      "properties": {
         "id": "pmb422",
         "title": "Venedig in Wien",
         "lat": "48.21699",
         "lon": "16.39467",
         "timestamp": ["1903-05-25"],
         "importance": "1"
      }
      }, 
    {
      "type": "Feature",
      "geometry": {
        "type": "Point",
        "coordinates": [16.382549, 48.21387]
      },
      "properties": {
         "id": "pmb199587",
         "title": "Praterstraße 21",
         "lat": "48.21387",
         "lon": "16.382549",
         "timestamp": ["1903-05-24"],
         "importance": "1"
      }
      }, 
    {
      "type": "Feature",
      "geometry": {
        "type": "Point",
        "coordinates": [16.375135, 48.204532]
      },
      "properties": {
         "id": "pmb199692",
         "title": "Schellinggasse 6",
         "lat": "48.204532",
         "lon": "16.375135",
         "timestamp": ["1903-05-25"],
         "importance": "1"
      }
      }, 
    {
      "type": "Feature",
      "geometry": {
        "type": "Point",
        "coordinates": [16.298879, 48.187063]
      },
      "properties": {
         "id": "pmb144953",
         "title": "Café Dommayer",
         "lat": "48.187063",
         "lon": "16.298879",
         "timestamp": ["1903-05-13"],
         "importance": "1"
      }
      }, 
    {
      "type": "Feature",
      "geometry": {
        "type": "Point",
        "coordinates": [16.287997, 48.217079]
      },
      "properties": {
         "id": "pmb92374",
         "title": "Liebhartstal",
         "lat": "48.217079",
         "lon": "16.287997",
         "timestamp": ["1903-05-03"],
         "importance": "1"
      }
      }, 
    {
      "type": "Feature",
      "geometry": {
        "type": "Point",
        "coordinates": [16.368738, 48.213038]
      },
      "properties": {
         "id": "pmb207296",
         "title": "Tiefer Graben 23",
         "lat": "48.213038",
         "lon": "16.368738",
         "timestamp": ["1903-05-19"],
         "importance": "1"
      }
      }, 
    {
      "type": "Feature",
      "geometry": {
        "type": "Point",
        "coordinates": [16.2911, 48.2553]
      },
      "properties": {
         "id": "pmb242",
         "title": "Salmannsdorf",
         "lat": "48.2553",
         "lon": "16.2911",
         "timestamp": ["1903-05-21"],
         "importance": "1"
      }
      }, 
    {
      "type": "Feature",
      "geometry": {
        "type": "Point",
        "coordinates": [16.255556, 48.133611]
      },
      "properties": {
         "id": "pmb40297",
         "title": "Hofmannsthal-Schlössl",
         "lat": "48.133611",
         "lon": "16.255556",
         "timestamp": ["1903-05-23"],
         "importance": "1"
      }
      }, 
    {
      "type": "Feature",
      "geometry": {
        "type": "Point",
        "coordinates": [16.362746, 48.21997]
      },
      "properties": {
         "id": "pmb231653",
         "title": "Müllnergasse 3",
         "lat": "48.21997",
         "lon": "16.362746",
         "timestamp": ["1903-05-25"],
         "importance": "1"
      }
      }, 
    {
      "type": "Feature",
      "geometry": {
        "type": "Point",
        "coordinates": [16.353571, 48.239999]
      },
      "properties": {
         "id": "pmb231906",
         "title": "Dollinergasse 8",
         "lat": "48.239999",
         "lon": "16.353571",
         "timestamp": ["1903-05-07", "1903-05-24"],
         "importance": "2"
      }
      }, 
    {
      "type": "Feature",
      "geometry": {
        "type": "Point",
        "coordinates": [16.378158, 48.207691]
      },
      "properties": {
         "id": "pmb186034",
         "title": "Urania Theater",
         "lat": "48.207691",
         "lon": "16.378158",
         "timestamp": ["1903-05-15"],
         "importance": "1"
      }
      }, 
    {
      "type": "Feature",
      "geometry": {
        "type": "Point",
        "coordinates": [16.266071, 48.207207]
      },
      "properties": {
         "id": "pmb92493",
         "title": "Rosentalstraße",
         "lat": "48.207207",
         "lon": "16.266071",
         "timestamp": ["1903-05-03"],
         "importance": "1"
      }
      }, 
    {
      "type": "Feature",
      "geometry": {
        "type": "Point",
        "coordinates": [16.361349, 48.223406]
      },
      "properties": {
         "id": "pmb231945",
         "title": "Porzellangasse 45",
         "lat": "48.223406",
         "lon": "16.361349",
         "timestamp": ["1903-05-09"],
         "importance": "1"
      }
      }, 
    {
      "type": "Feature",
      "geometry": {
        "type": "Point",
        "coordinates": [16.363924, 48.217491]
      },
      "properties": {
         "id": "pmb232348",
         "title": "Hörlgasse 15",
         "lat": "48.217491",
         "lon": "16.363924",
         "timestamp": ["1903-05-25"],
         "importance": "1"
      }
      }, 
    {
      "type": "Feature",
      "geometry": {
        "type": "Point",
        "coordinates": [16.336096, 48.219176]
      },
      "properties": {
         "id": "pmb232640",
         "title": "Pezzlgasse 14",
         "lat": "48.219176",
         "lon": "16.336096",
         "timestamp": ["1903-05-06"],
         "importance": "1"
      }
      }, 
    {
      "type": "Feature",
      "geometry": {
        "type": "Point",
        "coordinates": [16.33472, 48.2304]
      },
      "properties": {
         "id": "pmb168940",
         "title": "Edmund-Weiß-Gasse 7",
         "lat": "48.2304",
         "lon": "16.33472",
         "timestamp": ["1903-05-01", "1903-05-02", "1903-05-04", "1903-05-14"],
         "importance": "4"
      }
      }, 
    {
      "type": "Feature",
      "geometry": {
        "type": "Point",
        "coordinates": [16.371571, 48.208448]
      },
      "properties": {
         "id": "pmb232655",
         "title": "Goldschmiedgasse 1",
         "lat": "48.208448",
         "lon": "16.371571",
         "timestamp": ["1903-05-04"],
         "importance": "1"
      }
      }, 
    {
      "type": "Feature",
      "geometry": {
        "type": "Point",
        "coordinates": [16.359914, 48.216831]
      },
      "properties": {
         "id": "pmb232663",
         "title": "Währingerstraße 12",
         "lat": "48.216831",
         "lon": "16.359914",
         "timestamp": ["1903-05-06"],
         "importance": "1"
      }
      }, 
    {
      "type": "Feature",
      "geometry": {
        "type": "Point",
        "coordinates": [16.36985, 48.20199]
      },
      "properties": {
         "id": "pmb92514",
         "title": "Schauspiel- und Opernschule Otto",
         "lat": "48.20199",
         "lon": "16.36985",
         "timestamp": ["1903-05-12"],
         "importance": "1"
      }
      }, 
    {
      "type": "Feature",
      "geometry": {
        "type": "Point",
        "coordinates": [16.3406, 48.2242]
      },
      "properties": {
         "id": "pmb232701",
         "title": "Währinger Tempel",
         "lat": "48.2242",
         "lon": "16.3406",
         "timestamp": ["1903-05-22"],
         "importance": "1"
      }
      }, 
    {
      "type": "Feature",
      "geometry": {
        "type": "Point",
        "coordinates": [16.363959, 48.213291]
      },
      "properties": {
         "id": "pmb232755",
         "title": "Helferstorferstraße 3",
         "lat": "48.213291",
         "lon": "16.363959",
         "timestamp": ["1903-05-26"],
         "importance": "1"
      }
      }, 
    {
      "type": "Feature",
      "geometry": {
        "type": "Point",
        "coordinates": [16.358471, 48.212329]
      },
      "properties": {
         "id": "pmb232761",
         "title": "Rathausplatz 4",
         "lat": "48.212329",
         "lon": "16.358471",
         "timestamp": ["1903-05-26"],
         "importance": "1"
      }
      }, 
    {
      "type": "Feature",
      "geometry": {
        "type": "Point",
        "coordinates": [12.337638888716349, 45.436169051051536]
      },
      "properties": {
         "id": "pmb50910",
         "title": "Hotel Centrale Vapore",
         "lat": "45.436169051051536",
         "lon": "12.337638888716349",
         "timestamp": ["1903-05-28", "1903-05-29", "1903-05-30", "1903-05-31"],
         "importance": "4"
      }
      }, 
    {
      "type": "Feature",
      "geometry": {
        "type": "Point",
        "coordinates": [12.361422, 45.411979]
      },
      "properties": {
         "id": "pmb232810",
         "title": "San Lazzaro degli Armeni",
         "lat": "45.411979",
         "lon": "12.361422",
         "timestamp": ["1903-05-30"],
         "importance": "1"
      }
      }, 
    {
      "type": "Feature",
      "geometry": {
        "type": "Point",
        "coordinates": [12.339, 45.434]
      },
      "properties": {
         "id": "pmb184980",
         "title": "Ristorante Pilsen",
         "lat": "45.434",
         "lon": "12.339",
         "timestamp": ["1903-05-30"],
         "importance": "1"
      }
      }, 
    {
      "type": "Feature",
      "geometry": {
        "type": "Point",
        "coordinates": [12.4193, 45.4982]
      },
      "properties": {
         "id": "pmb232819",
         "title": "Santa Maria Assunta",
         "lat": "45.4982",
         "lon": "12.4193",
         "timestamp": ["1903-05-31"],
         "importance": "1"
      }
      }, 
    {
      "type": "Feature",
      "geometry": {
        "type": "Point",
        "coordinates": [12.41696, 45.48548]
      },
      "properties": {
         "id": "pmb90414",
         "title": "Burano",
         "lat": "45.48548",
         "lon": "12.41696",
         "timestamp": ["1903-05-31"],
         "importance": "1"
      }
      }, 
    {
      "type": "Feature",
      "geometry": {
        "type": "Point",
        "coordinates": [12.4169, 45.4731]
      },
      "properties": {
         "id": "pmb232826",
         "title": "San Francesco del Deserto",
         "lat": "45.4731",
         "lon": "12.4169",
         "timestamp": ["1903-05-31"],
         "importance": "1"
      }
      }
  ]
}