{
  "type": "FeatureCollection",
  "features": [
    {
      "type": "Feature", 
      "geometry": {
        "type": "LineString", 
        "coordinates": [
            [16.375135, 48.204532], 
            [16.375, 48.205139], 
            [16.39467, 48.21699], 
            [16.362746, 48.21997], 
            [16.363924, 48.217491], 
            [16.35736, 48.21533]
          ]
      },
      "properties": {
        "name": "25. Mai 1903"
      }
    },
    {
      "type": "Feature",
      "geometry": {
        "type": "Point",
        "coordinates": [
          16.375, 48.205139
        ]
      },
      "properties": {
        "title": "Ronacher",
        "timestamp": ["1903-05-25"],
        "pmb": "https://pmb.acdh.oeaw.ac.at/entity//", 
        "wikipedia": "https://de.wikipedia.org/wiki/Ronacher"
      }
      },
    {
      "type": "Feature",
      "geometry": {
        "type": "Point",
        "coordinates": [
          16.375135, 48.204532
        ]
      },
      "properties": {
        "title": "Schellinggasse 6",
        "timestamp": ["1903-05-25"],
        "pmb": "https://pmb.acdh.oeaw.ac.at/entity//"
      }
      },
    {
      "type": "Feature",
      "geometry": {
        "type": "Point",
        "coordinates": [
          16.363924, 48.217491
        ]
      },
      "properties": {
        "title": "Hörlgasse 15",
        "timestamp": ["1903-05-25"],
        "pmb": "https://pmb.acdh.oeaw.ac.at/entity//"
      }
      },
    {
      "type": "Feature",
      "geometry": {
        "type": "Point",
        "coordinates": [
          16.362746, 48.21997
        ]
      },
      "properties": {
        "title": "Müllnergasse 3",
        "timestamp": ["1903-05-25"],
        "pmb": "https://pmb.acdh.oeaw.ac.at/entity//"
      }
      },
    {
      "type": "Feature",
      "geometry": {
        "type": "Point",
        "coordinates": [
          16.35736, 48.21533
        ]
      },
      "properties": {
        "title": "Frankgasse 1",
        "timestamp": ["1903-05-25"],
        "pmb": "https://pmb.acdh.oeaw.ac.at/entity//"
      }
      },
    {
      "type": "Feature",
      "geometry": {
        "type": "Point",
        "coordinates": [
          16.39467, 48.21699
        ]
      },
      "properties": {
        "title": "Venedig in Wien",
        "timestamp": ["1903-05-25"],
        "pmb": "https://pmb.acdh.oeaw.ac.at/entity//", 
        "wikipedia": "https://de.wikipedia.org/wiki/Venedig_in_Wien", 
        "wiengeschichtewiki": "https://www.geschichtewiki.wien.gv.at/Venedig_in_Wien"
      }
      }
  ]
}