{
  "type": "FeatureCollection",
  "features": [
    {
      "type": "Feature",
      "geometry": {
        "type": "Point",
        "coordinates": [16.373056, 48.208333]
      },
      "properties": {
         "id": "pmb50",
         "title": "Wien",
         "lat": "48.208333",
         "lon": "16.373056",
         "timestamp": ["1903-04-01", "1903-04-02", "1903-04-03", "1903-04-04", "1903-04-05", "1903-04-06", "1903-04-07", "1903-04-08", "1903-04-11", "1903-04-12", "1903-04-13", "1903-04-14", "1903-04-15", "1903-04-16", "1903-04-17", "1903-04-18", "1903-04-19", "1903-04-20", "1903-04-21", "1903-04-22", "1903-04-23", "1903-04-24", "1903-04-25", "1903-04-26", "1903-04-27", "1903-04-28", "1903-04-29", "1903-04-30"],
         "importance": "28"
      }
      }, 
    {
      "type": "Feature",
      "geometry": {
        "type": "Point",
        "coordinates": [16.351111, 48.209583]
      },
      "properties": {
         "id": "pmb40",
         "title": "Theater in der Josefstadt",
         "lat": "48.209583",
         "lon": "16.351111",
         "timestamp": ["1903-04-21"],
         "importance": "1"
      }
      }, 
    {
      "type": "Feature",
      "geometry": {
        "type": "Point",
        "coordinates": [16.384444, 48.215]
      },
      "properties": {
         "id": "pmb118",
         "title": "Carl-Theater",
         "lat": "48.215",
         "lon": "16.384444",
         "timestamp": ["1903-04-07"],
         "importance": "1"
      }
      }, 
    {
      "type": "Feature",
      "geometry": {
        "type": "Point",
        "coordinates": [16.3642, 48.19941]
      },
      "properties": {
         "id": "pmb37",
         "title": "Theater an der Wien",
         "lat": "48.19941",
         "lon": "16.3642",
         "timestamp": ["1903-04-02"],
         "importance": "1"
      }
      }, 
    {
      "type": "Feature",
      "geometry": {
        "type": "Point",
        "coordinates": [16.361139, 48.210333]
      },
      "properties": {
         "id": "pmb14",
         "title": "Burgtheater",
         "lat": "48.210333",
         "lon": "16.361139",
         "timestamp": ["1903-04-27"],
         "importance": "1"
      }
      }, 
    {
      "type": "Feature",
      "geometry": {
        "type": "Point",
        "coordinates": [16.3538456, 48.2134031]
      },
      "properties": {
         "id": "pmb44",
         "title": "Riedhof",
         "lat": "48.2134031",
         "lon": "16.3538456",
         "timestamp": ["1903-04-21", "1903-04-27"],
         "importance": "2"
      }
      }, 
    {
      "type": "Feature",
      "geometry": {
        "type": "Point",
        "coordinates": [13.79933, 47.91839]
      },
      "properties": {
         "id": "pmb874",
         "title": "Gmunden",
         "lat": "47.91839",
         "lon": "13.79933",
         "timestamp": ["1903-04-09", "1903-04-10", "1903-04-11"],
         "importance": "3"
      }
      }, 
    {
      "type": "Feature",
      "geometry": {
        "type": "Point",
        "coordinates": [16.337778, 48.196667]
      },
      "properties": {
         "id": "pmb184918",
         "title": "Westbahnhof",
         "lat": "48.196667",
         "lon": "16.337778",
         "timestamp": ["1903-04-08"],
         "importance": "1"
      }
      }, 
    {
      "type": "Feature",
      "geometry": {
        "type": "Point",
        "coordinates": [16.300034240016, 48.246838181084]
      },
      "properties": {
         "id": "pmb169",
         "title": "Pötzleinsdorf",
         "lat": "48.246838181084",
         "lon": "16.300034240016",
         "timestamp": ["1903-04-12", "1903-04-30"],
         "importance": "2"
      }
      }, 
    {
      "type": "Feature",
      "geometry": {
        "type": "Point",
        "coordinates": [16.35736, 48.21533]
      },
      "properties": {
         "id": "pmb168934",
         "title": "Frankgasse 1",
         "lat": "48.21533",
         "lon": "16.35736",
         "timestamp": ["1903-04-01", "1903-04-02", "1903-04-03", "1903-04-04", "1903-04-05", "1903-04-06", "1903-04-07", "1903-04-08", "1903-04-11", "1903-04-12", "1903-04-13", "1903-04-14", "1903-04-15", "1903-04-16", "1903-04-17", "1903-04-18", "1903-04-19", "1903-04-20", "1903-04-21", "1903-04-22", "1903-04-23", "1903-04-24", "1903-04-25", "1903-04-26", "1903-04-27", "1903-04-28", "1903-04-29", "1903-04-30"],
         "importance": "28"
      }
      }, 
    {
      "type": "Feature",
      "geometry": {
        "type": "Point",
        "coordinates": [16.256152195922, 48.132793312328]
      },
      "properties": {
         "id": "pmb173",
         "title": "Rodaun",
         "lat": "48.132793312328",
         "lon": "16.256152195922",
         "timestamp": ["1903-04-16"],
         "importance": "1"
      }
      }, 
    {
      "type": "Feature",
      "geometry": {
        "type": "Point",
        "coordinates": [14.28333, 48.3]
      },
      "properties": {
         "id": "pmb332",
         "title": "Linz",
         "lat": "48.3",
         "lon": "14.28333",
         "timestamp": ["1903-04-08", "1903-04-09"],
         "importance": "2"
      }
      }, 
    {
      "type": "Feature",
      "geometry": {
        "type": "Point",
        "coordinates": [16.382549, 48.21387]
      },
      "properties": {
         "id": "pmb199587",
         "title": "Praterstraße 21",
         "lat": "48.21387",
         "lon": "16.382549",
         "timestamp": ["1903-04-14"],
         "importance": "1"
      }
      }, 
    {
      "type": "Feature",
      "geometry": {
        "type": "Point",
        "coordinates": [16.364283, 48.201813]
      },
      "properties": {
         "id": "pmb206958",
         "title": "Gauermanngasse 4",
         "lat": "48.201813",
         "lon": "16.364283",
         "timestamp": ["1903-04-18"],
         "importance": "1"
      }
      }, 
    {
      "type": "Feature",
      "geometry": {
        "type": "Point",
        "coordinates": [16.366201, 48.210922]
      },
      "properties": {
         "id": "pmb207076",
         "title": "Strauchgasse 1",
         "lat": "48.210922",
         "lon": "16.366201",
         "timestamp": ["1903-04-16", "1903-04-18", "1903-04-19", "1903-04-29"],
         "importance": "4"
      }
      }, 
    {
      "type": "Feature",
      "geometry": {
        "type": "Point",
        "coordinates": [16.2911, 48.2553]
      },
      "properties": {
         "id": "pmb242",
         "title": "Salmannsdorf",
         "lat": "48.2553",
         "lon": "16.2911",
         "timestamp": ["1903-04-29"],
         "importance": "1"
      }
      }, 
    {
      "type": "Feature",
      "geometry": {
        "type": "Point",
        "coordinates": [16.261305, 48.186771]
      },
      "properties": {
         "id": "pmb207274",
         "title": "Haus Bahr",
         "lat": "48.186771",
         "lon": "16.261305",
         "timestamp": ["1903-04-02"],
         "importance": "1"
      }
      }, 
    {
      "type": "Feature",
      "geometry": {
        "type": "Point",
        "coordinates": [16.257741, 48.139276]
      },
      "properties": {
         "id": "pmb231810",
         "title": "Willergasse 2",
         "lat": "48.139276",
         "lon": "16.257741",
         "timestamp": ["1903-04-16"],
         "importance": "1"
      }
      }, 
    {
      "type": "Feature",
      "geometry": {
        "type": "Point",
        "coordinates": [16.361349, 48.223406]
      },
      "properties": {
         "id": "pmb231945",
         "title": "Porzellangasse 45",
         "lat": "48.223406",
         "lon": "16.361349",
         "timestamp": ["1903-04-05"],
         "importance": "1"
      }
      }, 
    {
      "type": "Feature",
      "geometry": {
        "type": "Point",
        "coordinates": [16.35861, 48.251941]
      },
      "properties": {
         "id": "pmb92495",
         "title": "Rothschild-Gärten",
         "lat": "48.251941",
         "lon": "16.35861",
         "timestamp": ["1903-04-22"],
         "importance": "1"
      }
      }, 
    {
      "type": "Feature",
      "geometry": {
        "type": "Point",
        "coordinates": [16.335264, 48.228877]
      },
      "properties": {
         "id": "pmb232166",
         "title": "Gentzgasse 110",
         "lat": "48.228877",
         "lon": "16.335264",
         "timestamp": ["1903-04-04", "1903-04-05", "1903-04-06", "1903-04-07", "1903-04-08", "1903-04-11", "1903-04-13", "1903-04-14", "1903-04-18", "1903-04-19", "1903-04-20", "1903-04-22", "1903-04-25", "1903-04-26", "1903-04-27", "1903-04-27", "1903-04-28", "1903-04-28", "1903-04-29"],
         "importance": "19"
      }
      }, 
    {
      "type": "Feature",
      "geometry": {
        "type": "Point",
        "coordinates": [16.365195, 48.21575]
      },
      "properties": {
         "id": "pmb232398",
         "title": "Wipplingerstraße 38",
         "lat": "48.21575",
         "lon": "16.365195",
         "timestamp": ["1903-04-28"],
         "importance": "1"
      }
      }, 
    {
      "type": "Feature",
      "geometry": {
        "type": "Point",
        "coordinates": [16.36067, 48.213035]
      },
      "properties": {
         "id": "pmb232611",
         "title": "Mineralogisches Museum der Universität Wien",
         "lat": "48.213035",
         "lon": "16.36067",
         "timestamp": ["1903-04-05"],
         "importance": "1"
      }
      }, 
    {
      "type": "Feature",
      "geometry": {
        "type": "Point",
        "coordinates": [14.287495, 48.307291]
      },
      "properties": {
         "id": "pmb130",
         "title": "Hotel Weinzinger",
         "lat": "48.307291",
         "lon": "14.287495",
         "timestamp": ["1903-04-08", "1903-04-09"],
         "importance": "2"
      }
      }, 
    {
      "type": "Feature",
      "geometry": {
        "type": "Point",
        "coordinates": [16.347077, 48.204439]
      },
      "properties": {
         "id": "pmb232643",
         "title": "Burggasse 72",
         "lat": "48.204439",
         "lon": "16.347077",
         "timestamp": ["1903-04-28"],
         "importance": "1"
      }
      }, 
    {
      "type": "Feature",
      "geometry": {
        "type": "Point",
        "coordinates": [16.336096, 48.219176]
      },
      "properties": {
         "id": "pmb232640",
         "title": "Pezzlgasse 14",
         "lat": "48.219176",
         "lon": "16.336096",
         "timestamp": ["1903-04-28"],
         "importance": "1"
      }
      }, 
    {
      "type": "Feature",
      "geometry": {
        "type": "Point",
        "coordinates": [16.30627, 48.2435]
      },
      "properties": {
         "id": "pmb147205",
         "title": "Zum weißen Lamm",
         "lat": "48.2435",
         "lon": "16.30627",
         "timestamp": ["1903-04-30"],
         "importance": "1"
      }
      }
  ]
}