{
  "type": "FeatureCollection",
  "features": [
    {
      "type": "Feature", 
      "geometry": {
        "type": "LineString", 
        "coordinates": [
            [16.379829498031, 48.187455471378], 
            [16.375811, 48.203191], 
            [16.373056, 48.208333], 
            [16.368738, 48.213038], 
            [16.33472, 48.2304]
          ]
      },
      "properties": {
        "name": "4. April 1904"
      }
    },
    {
      "type": "Feature",
      "geometry": {
        "type": "Point",
        "coordinates": [
          16.373056, 48.208333
        ]
      },
      "properties": {
        "title": "Wien",
        "timestamp": ["1904-04-04"],
        "pmb": "https://pmb.acdh.oeaw.ac.at/entity//", 
        "wikipedia": "https://de.wikipedia.org/wiki/Wien"
      }
      },
    {
      "type": "Feature",
      "geometry": {
        "type": "Point",
        "coordinates": [
          16.368738, 48.213038
        ]
      },
      "properties": {
        "title": "Tiefer Graben 23",
        "timestamp": ["1904-04-04"],
        "pmb": "https://pmb.acdh.oeaw.ac.at/entity//"
      }
      },
    {
      "type": "Feature",
      "geometry": {
        "type": "Point",
        "coordinates": [
          16.379829498031, 48.187455471378
        ]
      },
      "properties": {
        "title": "Südbahnhof",
        "timestamp": ["1904-04-04"],
        "pmb": "https://pmb.acdh.oeaw.ac.at/entity//", 
        "wikipedia": "https://de.wikipedia.org/wiki/Wien_S%C3%BCdbahnhof"
      }
      },
    {
      "type": "Feature",
      "geometry": {
        "type": "Point",
        "coordinates": [
          16.375811, 48.203191
        ]
      },
      "properties": {
        "title": "Kaiserpanorama [Wien]",
        "timestamp": ["1904-04-04"],
        "pmb": "https://pmb.acdh.oeaw.ac.at/entity//"
      }
      },
    {
      "type": "Feature",
      "geometry": {
        "type": "Point",
        "coordinates": [
          16.33472, 48.2304
        ]
      },
      "properties": {
        "title": "Edmund-Weiß-Gasse 7",
        "timestamp": ["1904-04-04"],
        "pmb": "https://pmb.acdh.oeaw.ac.at/entity//"
      }
      }
  ]
}