{
  "type": "FeatureCollection",
  "features": [
    {
      "type": "Feature", 
      "geometry": {
        "type": "LineString", 
        "coordinates": [
            [16.30202, 48.18636], 
            [16.3025, 48.182222], 
            [16.3067984, 48.1806202], 
            [16.373056, 48.208333], 
            [16.33472, 48.2304]
          ]
      },
      "properties": {
        "name": "1. August 1904"
      }
    },
    {
      "type": "Feature",
      "geometry": {
        "type": "Point",
        "coordinates": [
          16.373056, 48.208333
        ]
      },
      "properties": {
        "title": "Wien",
        "timestamp": ["1904-08-01"],
        "pmb": "https://pmb.acdh.oeaw.ac.at/entity//", 
        "wikipedia": "https://de.wikipedia.org/wiki/Wien"
      }
      },
    {
      "type": "Feature",
      "geometry": {
        "type": "Point",
        "coordinates": [
          16.3025, 48.182222
        ]
      },
      "properties": {
        "title": "Tiergarten Schönbrunn",
        "timestamp": ["1904-08-01"],
        "pmb": "https://pmb.acdh.oeaw.ac.at/entity//", 
        "wikipedia": "https://de.wikipedia.org/wiki/Tiergarten_Sch%C3%B6nbrunn"
      }
      },
    {
      "type": "Feature",
      "geometry": {
        "type": "Point",
        "coordinates": [
          16.3067984, 48.1806202
        ]
      },
      "properties": {
        "title": "Schlosspark Schönbrunn",
        "timestamp": ["1904-08-01"],
        "pmb": "https://pmb.acdh.oeaw.ac.at/entity//"
      }
      },
    {
      "type": "Feature",
      "geometry": {
        "type": "Point",
        "coordinates": [
          16.30202, 48.18636
        ]
      },
      "properties": {
        "title": "Ottakringer Bräu",
        "timestamp": ["1904-08-01"],
        "pmb": "https://pmb.acdh.oeaw.ac.at/entity//"
      }
      },
    {
      "type": "Feature",
      "geometry": {
        "type": "Point",
        "coordinates": [
          16.33472, 48.2304
        ]
      },
      "properties": {
        "title": "Edmund-Weiß-Gasse 7",
        "timestamp": ["1904-08-01"],
        "pmb": "https://pmb.acdh.oeaw.ac.at/entity//"
      }
      }
  ]
}