{
  "type": "FeatureCollection",
  "features": [
    {
      "type": "Feature",
      "geometry": {
        "type": "Point",
        "coordinates": [16.372564182283, 48.201265597319]
      },
      "properties": {
         "id": "pmb516",
         "title": "Musikverein",
         "lat": "48.201265597319",
         "lon": "16.372564182283",
         "timestamp": ["1904-02-03", "1904-03-02", "1904-03-23", "1904-10-26", "1904-11-30", "1904-12-14", "1904-12-22"],
         "importance": "7"
      }
      }, 
    {
      "type": "Feature",
      "geometry": {
        "type": "Point",
        "coordinates": [16.3691, 48.203]
      },
      "properties": {
         "id": "pmb15",
         "title": "Oper",
         "lat": "48.203",
         "lon": "16.3691",
         "timestamp": ["1904-01-02", "1904-03-11", "1904-03-16", "1904-04-22", "1904-08-20", "1904-08-29", "1904-10-20"],
         "importance": "7"
      }
      }, 
    {
      "type": "Feature",
      "geometry": {
        "type": "Point",
        "coordinates": [16.351111, 48.209583]
      },
      "properties": {
         "id": "pmb40",
         "title": "Theater in der Josefstadt",
         "lat": "48.209583",
         "lon": "16.351111",
         "timestamp": ["1904-08-30", "1904-10-05", "1904-10-22"],
         "importance": "3"
      }
      }, 
    {
      "type": "Feature",
      "geometry": {
        "type": "Point",
        "coordinates": [16.384444, 48.215]
      },
      "properties": {
         "id": "pmb118",
         "title": "Carl-Theater",
         "lat": "48.215",
         "lon": "16.384444",
         "timestamp": ["1904-01-05", "1904-05-31", "1904-12-07", "1904-12-10", "1904-12-12"],
         "importance": "5"
      }
      }, 
    {
      "type": "Feature",
      "geometry": {
        "type": "Point",
        "coordinates": [16.366111, 48.209167]
      },
      "properties": {
         "id": "pmb4",
         "title": "Bösendorfer-Saal",
         "lat": "48.209167",
         "lon": "16.366111",
         "timestamp": ["1904-01-03", "1904-01-22", "1904-03-06", "1904-03-14", "1904-12-01", "1904-12-02", "1904-12-20"],
         "importance": "7"
      }
      }, 
    {
      "type": "Feature",
      "geometry": {
        "type": "Point",
        "coordinates": [16.3642, 48.19941]
      },
      "properties": {
         "id": "pmb37",
         "title": "Theater an der Wien",
         "lat": "48.19941",
         "lon": "16.3642",
         "timestamp": ["1904-01-02", "1904-10-06"],
         "importance": "2"
      }
      }, 
    {
      "type": "Feature",
      "geometry": {
        "type": "Point",
        "coordinates": [16.373056, 48.208333]
      },
      "properties": {
         "id": "pmb50",
         "title": "Wien",
         "lat": "48.208333",
         "lon": "16.373056",
         "timestamp": ["1904-01-01", "1904-01-02", "1904-01-03", "1904-01-04", "1904-01-05", "1904-01-06", "1904-01-07", "1904-01-08", "1904-01-09", "1904-01-14", "1904-01-15", "1904-01-16", "1904-01-17", "1904-01-18", "1904-01-19", "1904-01-20", "1904-01-21", "1904-01-22", "1904-01-23", "1904-01-24", "1904-01-25", "1904-01-26", "1904-01-27", "1904-01-28", "1904-01-29", "1904-01-30", "1904-01-31", "1904-02-01", "1904-02-02", "1904-02-03", "1904-02-04", "1904-02-19", "1904-02-22", "1904-02-23", "1904-02-25", "1904-02-26", "1904-02-27", "1904-02-28", "1904-03-01", "1904-03-02", "1904-03-03", "1904-03-04", "1904-03-05", "1904-03-06", "1904-03-07", "1904-03-08", "1904-03-09", "1904-03-10", "1904-03-11", "1904-03-12", "1904-03-13", "1904-03-14", "1904-03-15", "1904-03-16", "1904-03-17", "1904-03-18", "1904-03-19", "1904-03-20", "1904-03-21", "1904-03-24", "1904-03-25", "1904-03-26", "1904-03-27", "1904-03-28", "1904-03-29", "1904-03-30", "1904-03-31", "1904-04-01", "1904-04-02", "1904-04-03", "1904-04-04", "1904-04-05", "1904-04-06", "1904-04-07", "1904-04-08", "1904-04-09", "1904-04-10", "1904-04-11", "1904-04-12", "1904-04-13", "1904-04-14", "1904-04-15", "1904-04-16", "1904-04-17", "1904-04-18", "1904-04-19", "1904-04-20", "1904-04-21", "1904-04-22", "1904-04-23", "1904-04-24", "1904-04-25", "1904-04-26", "1904-04-27", "1904-04-28", "1904-04-29", "1904-04-30", "1904-05-30", "1904-05-31", "1904-06-01", "1904-06-02", "1904-06-03", "1904-06-04", "1904-06-05", "1904-06-06", "1904-06-07", "1904-06-08", "1904-06-09", "1904-06-10", "1904-06-11", "1904-06-12", "1904-06-13", "1904-06-14", "1904-06-15", "1904-06-16", "1904-06-17", "1904-06-18", "1904-06-19", "1904-06-20", "1904-06-21", "1904-06-22", "1904-06-23", "1904-06-24", "1904-06-25", "1904-06-26", "1904-06-27", "1904-06-28", "1904-06-29", "1904-06-30", "1904-07-01", "1904-07-02", "1904-07-03", "1904-07-04", "1904-07-05", "1904-07-06", "1904-07-07", "1904-07-08", "1904-07-09", "1904-07-10", "1904-07-11", "1904-07-23", "1904-07-24", "1904-07-25", "1904-07-26", "1904-07-27", "1904-07-28", "1904-07-29", "1904-07-30", "1904-07-31", "1904-08-01", "1904-08-02", "1904-08-03", "1904-08-04", "1904-08-05", "1904-08-06", "1904-08-07", "1904-08-08", "1904-08-09", "1904-08-10", "1904-08-11", "1904-08-12", "1904-08-14", "1904-08-15", "1904-08-16", "1904-08-17", "1904-08-18", "1904-08-19", "1904-08-20", "1904-08-21", "1904-08-22", "1904-08-23", "1904-08-24", "1904-08-25", "1904-08-26", "1904-08-27", "1904-08-28", "1904-08-29", "1904-08-30", "1904-08-31", "1904-09-01", "1904-09-02", "1904-09-03", "1904-09-20", "1904-09-21", "1904-09-22", "1904-09-23", "1904-09-24", "1904-09-25", "1904-09-26", "1904-09-27", "1904-09-28", "1904-09-29", "1904-09-30", "1904-10-01", "1904-10-02", "1904-10-03", "1904-10-04", "1904-10-05", "1904-10-06", "1904-10-07", "1904-10-08", "1904-10-09", "1904-10-10", "1904-10-11", "1904-10-12", "1904-10-13", "1904-10-14", "1904-10-15", "1904-10-16", "1904-10-17", "1904-10-18", "1904-10-19", "1904-10-20", "1904-10-21", "1904-10-22", "1904-10-23", "1904-10-24", "1904-10-25", "1904-10-26", "1904-10-27", "1904-10-28", "1904-10-29", "1904-10-30", "1904-10-31", "1904-11-01", "1904-11-02", "1904-11-03", "1904-11-04", "1904-11-05", "1904-11-06", "1904-11-07", "1904-11-08", "1904-11-09", "1904-11-10", "1904-11-11", "1904-11-12", "1904-11-24", "1904-11-25", "1904-11-26", "1904-11-27", "1904-11-28", "1904-11-29", "1904-11-30", "1904-12-01", "1904-12-02", "1904-12-03", "1904-12-04", "1904-12-05", "1904-12-06", "1904-12-07", "1904-12-08", "1904-12-09", "1904-12-10", "1904-12-11", "1904-12-12", "1904-12-13", "1904-12-14", "1904-12-15", "1904-12-16", "1904-12-17", "1904-12-18", "1904-12-19", "1904-12-20", "1904-12-21", "1904-12-22", "1904-12-23", "1904-12-24", "1904-12-25", "1904-12-26", "1904-12-31"],
         "importance": "270"
      }
      }, 
    {
      "type": "Feature",
      "geometry": {
        "type": "Point",
        "coordinates": [16.361139, 48.210333]
      },
      "properties": {
         "id": "pmb14",
         "title": "Burgtheater",
         "lat": "48.210333",
         "lon": "16.361139",
         "timestamp": ["1904-06-04", "1904-06-09", "1904-06-18", "1904-10-08"],
         "importance": "4"
      }
      }, 
    {
      "type": "Feature",
      "geometry": {
        "type": "Point",
        "coordinates": [16.299116267833, 48.230916826952]
      },
      "properties": {
         "id": "pmb499",
         "title": "Dornbach",
         "lat": "48.230916826952",
         "lon": "16.299116267833",
         "timestamp": ["1904-08-08"],
         "importance": "1"
      }
      }, 
    {
      "type": "Feature",
      "geometry": {
        "type": "Point",
        "coordinates": [16.3538456, 48.2134031]
      },
      "properties": {
         "id": "pmb44",
         "title": "Riedhof",
         "lat": "48.2134031",
         "lon": "16.3538456",
         "timestamp": ["1904-10-05", "1904-10-12", "1904-10-22", "1904-11-08", "1904-12-01", "1904-12-22", "1904-12-23"],
         "importance": "7"
      }
      }, 
    {
      "type": "Feature",
      "geometry": {
        "type": "Point",
        "coordinates": [13.04532, 47.80067]
      },
      "properties": {
         "id": "pmb30",
         "title": "Salzburg",
         "lat": "47.80067",
         "lon": "13.04532",
         "timestamp": ["1904-12-26"],
         "importance": "1"
      }
      }, 
    {
      "type": "Feature",
      "geometry": {
        "type": "Point",
        "coordinates": [16.3589845, 48.2195962]
      },
      "properties": {
         "id": "pmb182762",
         "title": "Danzer’s Orpheum",
         "lat": "48.2195962",
         "lon": "16.3589845",
         "timestamp": ["1904-02-25"],
         "importance": "1"
      }
      }, 
    {
      "type": "Feature",
      "geometry": {
        "type": "Point",
        "coordinates": [16.275701, 48.219421]
      },
      "properties": {
         "id": "pmb90687",
         "title": "Gallitzinberg",
         "lat": "48.219421",
         "lon": "16.275701",
         "timestamp": ["1904-08-13"],
         "importance": "1"
      }
      }, 
    {
      "type": "Feature",
      "geometry": {
        "type": "Point",
        "coordinates": [14.44241, 45.32673]
      },
      "properties": {
         "id": "pmb902",
         "title": "Rijeka",
         "lat": "45.32673",
         "lon": "14.44241",
         "timestamp": ["1904-05-01", "1904-05-29"],
         "importance": "2"
      }
      }, 
    {
      "type": "Feature",
      "geometry": {
        "type": "Point",
        "coordinates": [14.30515, 45.33771]
      },
      "properties": {
         "id": "pmb38096",
         "title": "Opatija",
         "lat": "45.33771",
         "lon": "14.30515",
         "timestamp": ["1904-05-01", "1904-05-02"],
         "importance": "2"
      }
      }, 
    {
      "type": "Feature",
      "geometry": {
        "type": "Point",
        "coordinates": [16.379829498031, 48.187455471378]
      },
      "properties": {
         "id": "pmb132",
         "title": "Südbahnhof",
         "lat": "48.187455471378",
         "lon": "16.379829498031",
         "timestamp": ["1904-04-04", "1904-04-24", "1904-04-30"],
         "importance": "3"
      }
      }, 
    {
      "type": "Feature",
      "geometry": {
        "type": "Point",
        "coordinates": [16.36468, 48.21099]
      },
      "properties": {
         "id": "pmb377",
         "title": "Hotel Klomser",
         "lat": "48.21099",
         "lon": "16.36468",
         "timestamp": ["1904-03-06"],
         "importance": "1"
      }
      }, 
    {
      "type": "Feature",
      "geometry": {
        "type": "Point",
        "coordinates": [13.385556, 52.518889]
      },
      "properties": {
         "id": "pmb399",
         "title": "Hotel Continental [Berlin]",
         "lat": "52.518889",
         "lon": "13.385556",
         "timestamp": ["1904-02-05", "1904-02-06", "1904-02-07", "1904-02-08", "1904-02-09", "1904-02-10", "1904-02-11", "1904-02-12", "1904-02-13", "1904-02-14", "1904-02-15", "1904-02-16", "1904-02-17", "1904-02-18"],
         "importance": "14"
      }
      }, 
    {
      "type": "Feature",
      "geometry": {
        "type": "Point",
        "coordinates": [13.382222, 52.524444]
      },
      "properties": {
         "id": "pmb3",
         "title": "Deutsches Theater Berlin",
         "lat": "52.524444",
         "lon": "13.382222",
         "timestamp": ["1904-02-05", "1904-02-08", "1904-02-09", "1904-02-10", "1904-02-11", "1904-02-12", "1904-02-13", "1904-02-14"],
         "importance": "8"
      }
      }, 
    {
      "type": "Feature",
      "geometry": {
        "type": "Point",
        "coordinates": [13.740206, 51.053427]
      },
      "properties": {
         "id": "pmb185116",
         "title": "Brühlsche Terrasse",
         "lat": "51.053427",
         "lon": "13.740206",
         "timestamp": ["1904-02-18"],
         "importance": "1"
      }
      }, 
    {
      "type": "Feature",
      "geometry": {
        "type": "Point",
        "coordinates": [13.734861, 51.053528]
      },
      "properties": {
         "id": "pmb5",
         "title": "Gemäldegalerie Alte Meister",
         "lat": "51.053528",
         "lon": "13.734861",
         "timestamp": ["1904-02-18"],
         "importance": "1"
      }
      }, 
    {
      "type": "Feature",
      "geometry": {
        "type": "Point",
        "coordinates": [13.7666, 51.0833]
      },
      "properties": {
         "id": "pmb866",
         "title": "Dresden",
         "lat": "51.0833",
         "lon": "13.7666",
         "timestamp": ["1904-02-19"],
         "importance": "1"
      }
      }, 
    {
      "type": "Feature",
      "geometry": {
        "type": "Point",
        "coordinates": [16.337778, 48.196667]
      },
      "properties": {
         "id": "pmb184918",
         "title": "Westbahnhof",
         "lat": "48.196667",
         "lon": "16.337778",
         "timestamp": ["1904-09-23"],
         "importance": "1"
      }
      }, 
    {
      "type": "Feature",
      "geometry": {
        "type": "Point",
        "coordinates": [16.361411, 48.202208]
      },
      "properties": {
         "id": "pmb186649",
         "title": "Café Casa Piccola",
         "lat": "48.202208",
         "lon": "16.361411",
         "timestamp": ["1904-06-09"],
         "importance": "1"
      }
      }, 
    {
      "type": "Feature",
      "geometry": {
        "type": "Point",
        "coordinates": [16.341944, 48.233056]
      },
      "properties": {
         "id": "pmb533",
         "title": "Währinger Cottage",
         "lat": "48.233056",
         "lon": "16.341944",
         "timestamp": ["1904-10-01", "1904-10-17"],
         "importance": "2"
      }
      }, 
    {
      "type": "Feature",
      "geometry": {
        "type": "Point",
        "coordinates": [16.3566, 48.205142]
      },
      "properties": {
         "id": "pmb20",
         "title": "Volkstheater",
         "lat": "48.205142",
         "lon": "16.3566",
         "timestamp": ["1904-03-26", "1904-04-05", "1904-04-07", "1904-10-12", "1904-10-25", "1904-10-26", "1904-11-08"],
         "importance": "7"
      }
      }, 
    {
      "type": "Feature",
      "geometry": {
        "type": "Point",
        "coordinates": [16.367998, 48.203159]
      },
      "properties": {
         "id": "pmb185989",
         "title": "Opernrestaurant",
         "lat": "48.203159",
         "lon": "16.367998",
         "timestamp": ["1904-04-25"],
         "importance": "1"
      }
      }, 
    {
      "type": "Feature",
      "geometry": {
        "type": "Point",
        "coordinates": [16.401694, 48.213944]
      },
      "properties": {
         "id": "pmb47",
         "title": "Schweizerhaus",
         "lat": "48.213944",
         "lon": "16.401694",
         "timestamp": ["1904-06-16"],
         "importance": "1"
      }
      }, 
    {
      "type": "Feature",
      "geometry": {
        "type": "Point",
        "coordinates": [16.402222, 48.214722]
      },
      "properties": {
         "id": "pmb685",
         "title": "Wurstelprater",
         "lat": "48.214722",
         "lon": "16.402222",
         "timestamp": ["1904-06-16", "1904-07-07", "1904-08-09"],
         "importance": "3"
      }
      }, 
    {
      "type": "Feature",
      "geometry": {
        "type": "Point",
        "coordinates": [16.379685, 48.188208]
      },
      "properties": {
         "id": "pmb187206",
         "title": "Restauration »Am Südbahnhof«",
         "lat": "48.188208",
         "lon": "16.379685",
         "timestamp": ["1904-07-23"],
         "importance": "1"
      }
      }, 
    {
      "type": "Feature",
      "geometry": {
        "type": "Point",
        "coordinates": [16.2, 48.23333]
      },
      "properties": {
         "id": "pmb90821",
         "title": "Hainbach",
         "lat": "48.23333",
         "lon": "16.2",
         "timestamp": ["1904-08-11"],
         "importance": "1"
      }
      }, 
    {
      "type": "Feature",
      "geometry": {
        "type": "Point",
        "coordinates": [13.043904, 47.801903]
      },
      "properties": {
         "id": "pmb181",
         "title": "Café Bazar",
         "lat": "47.801903",
         "lon": "13.043904",
         "timestamp": ["1904-09-20"],
         "importance": "1"
      }
      }, 
    {
      "type": "Feature",
      "geometry": {
        "type": "Point",
        "coordinates": [13.042019, 47.805528]
      },
      "properties": {
         "id": "pmb180",
         "title": "Mirabell",
         "lat": "47.805528",
         "lon": "13.042019",
         "timestamp": ["1904-09-17", "1904-09-18", "1904-09-19"],
         "importance": "3"
      }
      }, 
    {
      "type": "Feature",
      "geometry": {
        "type": "Point",
        "coordinates": [16.371211, 48.206416]
      },
      "properties": {
         "id": "pmb96",
         "title": "Meissl & Schadn",
         "lat": "48.206416",
         "lon": "16.371211",
         "timestamp": ["1904-01-19", "1904-02-23", "1904-03-14", "1904-03-26", "1904-04-08", "1904-04-23", "1904-04-28", "1904-07-28", "1904-08-29", "1904-12-02", "1904-12-14"],
         "importance": "11"
      }
      }, 
    {
      "type": "Feature",
      "geometry": {
        "type": "Point",
        "coordinates": [16.333568462613, 48.235119783861]
      },
      "properties": {
         "id": "pmb113",
         "title": "Türkenschanzpark",
         "lat": "48.235119783861",
         "lon": "16.333568462613",
         "timestamp": ["1904-03-09", "1904-07-24", "1904-07-25", "1904-08-07", "1904-08-17", "1904-10-29", "1904-12-21"],
         "importance": "7"
      }
      }, 
    {
      "type": "Feature",
      "geometry": {
        "type": "Point",
        "coordinates": [16.276509500872, 48.241960480337]
      },
      "properties": {
         "id": "pmb176",
         "title": "Schwarzenbergpark",
         "lat": "48.241960480337",
         "lon": "16.276509500872",
         "timestamp": ["1904-07-02", "1904-08-07", "1904-08-16"],
         "importance": "3"
      }
      }, 
    {
      "type": "Feature",
      "geometry": {
        "type": "Point",
        "coordinates": [16.26269, 48.24616]
      },
      "properties": {
         "id": "pmb456",
         "title": "Rohrerhütte",
         "lat": "48.24616",
         "lon": "16.26269",
         "timestamp": ["1904-07-09", "1904-08-07", "1904-08-08", "1904-08-12", "1904-08-16"],
         "importance": "5"
      }
      }, 
    {
      "type": "Feature",
      "geometry": {
        "type": "Point",
        "coordinates": [15.8241, 47.64224]
      },
      "properties": {
         "id": "pmb189",
         "title": "Semmering",
         "lat": "47.64224",
         "lon": "15.8241",
         "timestamp": ["1904-01-10", "1904-01-12", "1904-01-13", "1904-01-14"],
         "importance": "4"
      }
      }, 
    {
      "type": "Feature",
      "geometry": {
        "type": "Point",
        "coordinates": [15.80388, 47.65736]
      },
      "properties": {
         "id": "pmb90192",
         "title": "Adlitzgraben",
         "lat": "47.65736",
         "lon": "15.80388",
         "timestamp": ["1904-01-10"],
         "importance": "1"
      }
      }, 
    {
      "type": "Feature",
      "geometry": {
        "type": "Point",
        "coordinates": [16.380905, 48.198484]
      },
      "properties": {
         "id": "pmb192623",
         "title": "Salesianergasse 12",
         "lat": "48.198484",
         "lon": "16.380905",
         "timestamp": ["1904-03-12", "1904-03-19"],
         "importance": "2"
      }
      }, 
    {
      "type": "Feature",
      "geometry": {
        "type": "Point",
        "coordinates": [16.368902, 48.20539]
      },
      "properties": {
         "id": "pmb192966",
         "title": "Lobkowitzplatz 1",
         "lat": "48.20539",
         "lon": "16.368902",
         "timestamp": ["1904-03-28", "1904-09-28"],
         "importance": "2"
      }
      }, 
    {
      "type": "Feature",
      "geometry": {
        "type": "Point",
        "coordinates": [16.35736, 48.21533]
      },
      "properties": {
         "id": "pmb168934",
         "title": "Frankgasse 1",
         "lat": "48.21533",
         "lon": "16.35736",
         "timestamp": ["1904-01-15", "1904-01-24", "1904-01-29", "1904-02-02", "1904-02-26", "1904-03-25", "1904-03-31", "1904-04-24", "1904-04-30", "1904-05-31", "1904-06-03", "1904-06-10", "1904-06-17", "1904-06-21", "1904-07-08", "1904-08-17", "1904-08-26", "1904-08-27", "1904-09-21", "1904-09-23", "1904-09-27", "1904-09-30", "1904-10-02", "1904-10-04", "1904-10-08", "1904-10-16", "1904-10-18", "1904-10-21", "1904-10-25", "1904-10-27", "1904-10-28", "1904-11-04", "1904-11-05", "1904-11-11", "1904-11-12", "1904-11-24", "1904-11-25", "1904-11-29", "1904-12-04", "1904-12-09", "1904-12-31"],
         "importance": "41"
      }
      }, 
    {
      "type": "Feature",
      "geometry": {
        "type": "Point",
        "coordinates": [15.8634, 47.69209]
      },
      "properties": {
         "id": "pmb948",
         "title": "Payerbach",
         "lat": "47.69209",
         "lon": "15.8634",
         "timestamp": ["1904-07-12", "1904-07-13", "1904-07-15", "1904-07-18", "1904-07-19", "1904-07-21", "1904-07-22", "1904-07-23"],
         "importance": "8"
      }
      }, 
    {
      "type": "Feature",
      "geometry": {
        "type": "Point",
        "coordinates": [11.57475, 48.14293]
      },
      "properties": {
         "id": "pmb100",
         "title": "Café Luitpold",
         "lat": "48.14293",
         "lon": "11.57475",
         "timestamp": ["1904-02-06"],
         "importance": "1"
      }
      }, 
    {
      "type": "Feature",
      "geometry": {
        "type": "Point",
        "coordinates": [16.331527, 48.23428]
      },
      "properties": {
         "id": "pmb74",
         "title": "Restauration Türkenschanz-Park",
         "lat": "48.23428",
         "lon": "16.331527",
         "timestamp": ["1904-08-05", "1904-08-16", "1904-08-21"],
         "importance": "3"
      }
      }, 
    {
      "type": "Feature",
      "geometry": {
        "type": "Point",
        "coordinates": [15.73019, 47.77325]
      },
      "properties": {
         "id": "pmb90134",
         "title": "Singerin",
         "lat": "47.77325",
         "lon": "15.73019",
         "timestamp": ["1904-07-15"],
         "importance": "1"
      }
      }, 
    {
      "type": "Feature",
      "geometry": {
        "type": "Point",
        "coordinates": [16.254331, 48.133848]
      },
      "properties": {
         "id": "pmb177",
         "title": "Gasthaus Stelzer",
         "lat": "48.133848",
         "lon": "16.254331",
         "timestamp": ["1904-08-10"],
         "importance": "1"
      }
      }, 
    {
      "type": "Feature",
      "geometry": {
        "type": "Point",
        "coordinates": [16.258056, 48.201667]
      },
      "properties": {
         "id": "pmb271",
         "title": "Hütteldorf",
         "lat": "48.201667",
         "lon": "16.258056",
         "timestamp": ["1904-04-03", "1904-07-31", "1904-09-23"],
         "importance": "3"
      }
      }, 
    {
      "type": "Feature",
      "geometry": {
        "type": "Point",
        "coordinates": [13.047256, 47.794967]
      },
      "properties": {
         "id": "pmb638",
         "title": "Festung Hohensalzburg",
         "lat": "47.794967",
         "lon": "13.047256",
         "timestamp": ["1904-09-17"],
         "importance": "1"
      }
      }, 
    {
      "type": "Feature",
      "geometry": {
        "type": "Point",
        "coordinates": [13.60412, 47.711737]
      },
      "properties": {
         "id": "pmb92134",
         "title": "Ahornbühel",
         "lat": "47.711737",
         "lon": "13.60412",
         "timestamp": ["1904-09-04"],
         "importance": "1"
      }
      }, 
    {
      "type": "Feature",
      "geometry": {
        "type": "Point",
        "coordinates": [16.204313096, 48.01122761]
      },
      "properties": {
         "id": "pmb184727",
         "title": "Hotel Sacher Baden",
         "lat": "48.01122761",
         "lon": "16.204313096",
         "timestamp": ["1904-08-22"],
         "importance": "1"
      }
      }, 
    {
      "type": "Feature",
      "geometry": {
        "type": "Point",
        "coordinates": [16.340393, 48.232254]
      },
      "properties": {
         "id": "pmb199147",
         "title": "Anastasius-Grün-Gasse 54",
         "lat": "48.232254",
         "lon": "16.340393",
         "timestamp": ["1904-12-21"],
         "importance": "1"
      }
      }, 
    {
      "type": "Feature",
      "geometry": {
        "type": "Point",
        "coordinates": [13.61926, 47.71356]
      },
      "properties": {
         "id": "pmb655",
         "title": "Hotel Kaiserkrone",
         "lat": "47.71356",
         "lon": "13.61926",
         "timestamp": ["1904-09-03", "1904-09-04", "1904-09-05"],
         "importance": "3"
      }
      }, 
    {
      "type": "Feature",
      "geometry": {
        "type": "Point",
        "coordinates": [13.045, 47.799167]
      },
      "properties": {
         "id": "pmb41187",
         "title": "Café Tomaselli",
         "lat": "47.799167",
         "lon": "13.045",
         "timestamp": ["1904-09-16", "1904-09-19"],
         "importance": "2"
      }
      }, 
    {
      "type": "Feature",
      "geometry": {
        "type": "Point",
        "coordinates": [13.045555555556, 47.796666666667]
      },
      "properties": {
         "id": "pmb190342",
         "title": "Petersfriedhof",
         "lat": "47.796666666667",
         "lon": "13.045555555556",
         "timestamp": ["1904-09-19"],
         "importance": "1"
      }
      }, 
    {
      "type": "Feature",
      "geometry": {
        "type": "Point",
        "coordinates": [16.383445, 48.201636]
      },
      "properties": {
         "id": "pmb199403",
         "title": "Reisnerstraße 13",
         "lat": "48.201636",
         "lon": "16.383445",
         "timestamp": ["1904-04-29"],
         "importance": "1"
      }
      }, 
    {
      "type": "Feature",
      "geometry": {
        "type": "Point",
        "coordinates": [13.376389, 52.5225]
      },
      "properties": {
         "id": "pmb18",
         "title": "Lessing-Theater",
         "lat": "52.5225",
         "lon": "13.376389",
         "timestamp": ["1904-11-14", "1904-11-15", "1904-11-17", "1904-11-20", "1904-11-23"],
         "importance": "5"
      }
      }, 
    {
      "type": "Feature",
      "geometry": {
        "type": "Point",
        "coordinates": [13.383708, 52.516981]
      },
      "properties": {
         "id": "pmb199492",
         "title": "Restaurant Hiller",
         "lat": "52.516981",
         "lon": "13.383708",
         "timestamp": ["1904-02-16"],
         "importance": "1"
      }
      }, 
    {
      "type": "Feature",
      "geometry": {
        "type": "Point",
        "coordinates": [13.273979, 52.482354]
      },
      "properties": {
         "id": "pmb232189",
         "title": "Wernerstraße 16",
         "lat": "52.482354",
         "lon": "13.273979",
         "timestamp": ["1904-02-08"],
         "importance": "1"
      }
      }, 
    {
      "type": "Feature",
      "geometry": {
        "type": "Point",
        "coordinates": [16.382549, 48.21387]
      },
      "properties": {
         "id": "pmb199587",
         "title": "Praterstraße 21",
         "lat": "48.21387",
         "lon": "16.382549",
         "timestamp": ["1904-01-24", "1904-06-01", "1904-10-25"],
         "importance": "3"
      }
      }, 
    {
      "type": "Feature",
      "geometry": {
        "type": "Point",
        "coordinates": [16.208927, 48.137159]
      },
      "properties": {
         "id": "pmb199685",
         "title": "Rother Stadel",
         "lat": "48.137159",
         "lon": "16.208927",
         "timestamp": ["1904-08-04"],
         "importance": "1"
      }
      }, 
    {
      "type": "Feature",
      "geometry": {
        "type": "Point",
        "coordinates": [16.375135, 48.204532]
      },
      "properties": {
         "id": "pmb199692",
         "title": "Schellinggasse 6",
         "lat": "48.204532",
         "lon": "16.375135",
         "timestamp": ["1904-04-01", "1904-04-08", "1904-06-02", "1904-09-02", "1904-11-25", "1904-11-29", "1904-12-12", "1904-12-24"],
         "importance": "8"
      }
      }, 
    {
      "type": "Feature",
      "geometry": {
        "type": "Point",
        "coordinates": [13.389182, 52.513294]
      },
      "properties": {
         "id": "pmb199829",
         "title": "Weinstube Kempinski",
         "lat": "52.513294",
         "lon": "13.389182",
         "timestamp": ["1904-02-06"],
         "importance": "1"
      }
      }, 
    {
      "type": "Feature",
      "geometry": {
        "type": "Point",
        "coordinates": [13.386111, 52.521667]
      },
      "properties": {
         "id": "pmb720",
         "title": "Neues Theater",
         "lat": "52.521667",
         "lon": "13.386111",
         "timestamp": ["1904-02-12", "1904-11-13", "1904-11-18"],
         "importance": "3"
      }
      }, 
    {
      "type": "Feature",
      "geometry": {
        "type": "Point",
        "coordinates": [16.358208, 48.214879]
      },
      "properties": {
         "id": "pmb200335",
         "title": "Rooseveltplatz 2",
         "lat": "48.214879",
         "lon": "16.358208",
         "timestamp": ["1904-03-14"],
         "importance": "1"
      }
      }, 
    {
      "type": "Feature",
      "geometry": {
        "type": "Point",
        "coordinates": [16.495, 48.165833333333]
      },
      "properties": {
         "id": "pmb200745",
         "title": "Praterspitz",
         "lat": "48.165833333333",
         "lon": "16.495",
         "timestamp": ["1904-08-02"],
         "importance": "1"
      }
      }, 
    {
      "type": "Feature",
      "geometry": {
        "type": "Point",
        "coordinates": [16.365508, 48.200364]
      },
      "properties": {
         "id": "pmb7",
         "title": "Secession",
         "lat": "48.200364",
         "lon": "16.365508",
         "timestamp": ["1904-01-30", "1904-03-30"],
         "importance": "2"
      }
      }, 
    {
      "type": "Feature",
      "geometry": {
        "type": "Point",
        "coordinates": [13.04777778, 47.79861111]
      },
      "properties": {
         "id": "pmb200926",
         "title": "Salzburg Museum",
         "lat": "47.79861111",
         "lon": "13.04777778",
         "timestamp": ["1904-09-17"],
         "importance": "1"
      }
      }, 
    {
      "type": "Feature",
      "geometry": {
        "type": "Point",
        "coordinates": [13.388194, 52.521572]
      },
      "properties": {
         "id": "pmb545",
         "title": "Hotel Savoy [Berlin]",
         "lat": "52.521572",
         "lon": "13.388194",
         "timestamp": ["1904-02-12", "1904-02-13", "1904-02-14", "1904-02-16", "1904-11-16", "1904-11-18", "1904-11-20"],
         "importance": "7"
      }
      }, 
    {
      "type": "Feature",
      "geometry": {
        "type": "Point",
        "coordinates": [13.0385, 52.40416]
      },
      "properties": {
         "id": "pmb16682",
         "title": "Schloss Sanssouci",
         "lat": "52.40416",
         "lon": "13.0385",
         "timestamp": ["1904-02-15"],
         "importance": "1"
      }
      }, 
    {
      "type": "Feature",
      "geometry": {
        "type": "Point",
        "coordinates": [16.364283, 48.201813]
      },
      "properties": {
         "id": "pmb206958",
         "title": "Gauermanngasse 4",
         "lat": "48.201813",
         "lon": "16.364283",
         "timestamp": ["1904-03-12"],
         "importance": "1"
      }
      }, 
    {
      "type": "Feature",
      "geometry": {
        "type": "Point",
        "coordinates": [16.441111, 48.149444]
      },
      "properties": {
         "id": "pmb41376",
         "title": "Wiener Zentralfriedhof",
         "lat": "48.149444",
         "lon": "16.441111",
         "timestamp": ["1904-03-13", "1904-03-24", "1904-10-28"],
         "importance": "3"
      }
      }, 
    {
      "type": "Feature",
      "geometry": {
        "type": "Point",
        "coordinates": [16.366201, 48.210922]
      },
      "properties": {
         "id": "pmb207076",
         "title": "Strauchgasse 1",
         "lat": "48.210922",
         "lon": "16.366201",
         "timestamp": ["1904-01-15"],
         "importance": "1"
      }
      }, 
    {
      "type": "Feature",
      "geometry": {
        "type": "Point",
        "coordinates": [16.368738, 48.213038]
      },
      "properties": {
         "id": "pmb207296",
         "title": "Tiefer Graben 23",
         "lat": "48.213038",
         "lon": "16.368738",
         "timestamp": ["1904-03-03", "1904-03-24", "1904-04-04", "1904-04-09", "1904-04-19", "1904-04-26", "1904-06-01", "1904-08-20", "1904-11-28", "1904-12-23"],
         "importance": "10"
      }
      }, 
    {
      "type": "Feature",
      "geometry": {
        "type": "Point",
        "coordinates": [16.23036, 48.246719]
      },
      "properties": {
         "id": "pmb539",
         "title": "Sophienalpe",
         "lat": "48.246719",
         "lon": "16.23036",
         "timestamp": ["1904-07-30", "1904-08-06", "1904-10-16"],
         "importance": "3"
      }
      }, 
    {
      "type": "Feature",
      "geometry": {
        "type": "Point",
        "coordinates": [15.84453, 47.69852]
      },
      "properties": {
         "id": "pmb44982",
         "title": "Kurhaus Rudolfsbad",
         "lat": "47.69852",
         "lon": "15.84453",
         "timestamp": ["1904-07-12", "1904-07-13", "1904-07-14", "1904-07-15", "1904-07-16", "1904-07-17", "1904-07-18", "1904-07-19", "1904-07-20", "1904-07-21", "1904-07-22", "1904-07-23"],
         "importance": "12"
      }
      }, 
    {
      "type": "Feature",
      "geometry": {
        "type": "Point",
        "coordinates": [16.322222222222, 48.263611111111]
      },
      "properties": {
         "id": "pmb194903",
         "title": "Am Kobenzl",
         "lat": "48.263611111111",
         "lon": "16.322222222222",
         "timestamp": ["1904-10-23"],
         "importance": "1"
      }
      }, 
    {
      "type": "Feature",
      "geometry": {
        "type": "Point",
        "coordinates": [12.4852, 41.8922]
      },
      "properties": {
         "id": "pmb231403",
         "title": "Forum Romanum",
         "lat": "41.8922",
         "lon": "12.4852",
         "timestamp": ["1904-05-04"],
         "importance": "1"
      }
      }, 
    {
      "type": "Feature",
      "geometry": {
        "type": "Point",
        "coordinates": [12.486944, 41.888333]
      },
      "properties": {
         "id": "pmb53246",
         "title": "Palatin",
         "lat": "41.888333",
         "lon": "12.486944",
         "timestamp": ["1904-05-05"],
         "importance": "1"
      }
      }, 
    {
      "type": "Feature",
      "geometry": {
        "type": "Point",
        "coordinates": [12.492764, 41.880264]
      },
      "properties": {
         "id": "pmb231413",
         "title": "Caracalla-Thermen",
         "lat": "41.880264",
         "lon": "12.492764",
         "timestamp": ["1904-05-04"],
         "importance": "1"
      }
      }, 
    {
      "type": "Feature",
      "geometry": {
        "type": "Point",
        "coordinates": [12.476944444444445, 41.89861111111111]
      },
      "properties": {
         "id": "pmb231416",
         "title": "Pantheon",
         "lat": "41.89861111111111",
         "lon": "12.476944444444445",
         "timestamp": ["1904-05-07"],
         "importance": "1"
      }
      }, 
    {
      "type": "Feature",
      "geometry": {
        "type": "Point",
        "coordinates": [12.492194, 41.914194]
      },
      "properties": {
         "id": "pmb231434",
         "title": "Villa Borghese Pinciana",
         "lat": "41.914194",
         "lon": "12.492194",
         "timestamp": ["1904-05-05"],
         "importance": "1"
      }
      }, 
    {
      "type": "Feature",
      "geometry": {
        "type": "Point",
        "coordinates": [12.492222222222, 41.890277777778]
      },
      "properties": {
         "id": "pmb231438",
         "title": "Kolosseum",
         "lat": "41.890277777778",
         "lon": "12.492222222222",
         "timestamp": ["1904-05-04"],
         "importance": "1"
      }
      }, 
    {
      "type": "Feature",
      "geometry": {
        "type": "Point",
        "coordinates": [12.493069444444, 41.893872222222]
      },
      "properties": {
         "id": "pmb231469",
         "title": "San Pietro in Vincoli al Colle Oppio",
         "lat": "41.893872222222",
         "lon": "12.493069444444",
         "timestamp": ["1904-05-04"],
         "importance": "1"
      }
      }, 
    {
      "type": "Feature",
      "geometry": {
        "type": "Point",
        "coordinates": [16.2911, 48.2553]
      },
      "properties": {
         "id": "pmb242",
         "title": "Salmannsdorf",
         "lat": "48.2553",
         "lon": "16.2911",
         "timestamp": ["1904-01-03", "1904-01-06", "1904-01-31", "1904-02-28", "1904-03-20", "1904-04-10", "1904-10-30", "1904-11-04", "1904-11-27"],
         "importance": "9"
      }
      }, 
    {
      "type": "Feature",
      "geometry": {
        "type": "Point",
        "coordinates": [16.293147561818, 48.251927827778]
      },
      "properties": {
         "id": "pmb540",
         "title": "Hameau",
         "lat": "48.251927827778",
         "lon": "16.293147561818",
         "timestamp": ["1904-01-06", "1904-03-27"],
         "importance": "2"
      }
      }, 
    {
      "type": "Feature",
      "geometry": {
        "type": "Point",
        "coordinates": [16.261305, 48.186771]
      },
      "properties": {
         "id": "pmb207274",
         "title": "Haus Bahr",
         "lat": "48.186771",
         "lon": "16.261305",
         "timestamp": ["1904-06-02", "1904-08-05", "1904-08-10"],
         "importance": "3"
      }
      }, 
    {
      "type": "Feature",
      "geometry": {
        "type": "Point",
        "coordinates": [16.362746, 48.21997]
      },
      "properties": {
         "id": "pmb231653",
         "title": "Müllnergasse 3",
         "lat": "48.21997",
         "lon": "16.362746",
         "timestamp": ["1904-01-31", "1904-02-04", "1904-02-25", "1904-03-10", "1904-04-03", "1904-08-10", "1904-10-04", "1904-11-12", "1904-11-24"],
         "importance": "9"
      }
      }, 
    {
      "type": "Feature",
      "geometry": {
        "type": "Point",
        "coordinates": [16.353571, 48.239999]
      },
      "properties": {
         "id": "pmb231906",
         "title": "Dollinergasse 8",
         "lat": "48.239999",
         "lon": "16.353571",
         "timestamp": ["1904-01-05", "1904-03-04", "1904-03-05", "1904-03-09", "1904-03-11", "1904-03-17", "1904-03-20", "1904-03-24", "1904-04-29", "1904-06-11", "1904-10-07", "1904-11-25", "1904-12-19"],
         "importance": "13"
      }
      }, 
    {
      "type": "Feature",
      "geometry": {
        "type": "Point",
        "coordinates": [16.357905, 48.22297]
      },
      "properties": {
         "id": "pmb231667",
         "title": "Liechtensteinstraße 53, »Palais Kranz«",
         "lat": "48.22297",
         "lon": "16.357905",
         "timestamp": ["1904-10-18"],
         "importance": "1"
      }
      }, 
    {
      "type": "Feature",
      "geometry": {
        "type": "Point",
        "coordinates": [16.31268, 48.2629]
      },
      "properties": {
         "id": "pmb285",
         "title": "Am Himmel",
         "lat": "48.2629",
         "lon": "16.31268",
         "timestamp": ["1904-08-28", "1904-10-02", "1904-10-23", "1904-11-06"],
         "importance": "4"
      }
      }, 
    {
      "type": "Feature",
      "geometry": {
        "type": "Point",
        "coordinates": [16.373845, 48.209544]
      },
      "properties": {
         "id": "pmb231687",
         "title": "Wollzeile 1",
         "lat": "48.209544",
         "lon": "16.373845",
         "timestamp": ["1904-01-20", "1904-11-01"],
         "importance": "2"
      }
      }, 
    {
      "type": "Feature",
      "geometry": {
        "type": "Point",
        "coordinates": [13.383456, 52.516152]
      },
      "properties": {
         "id": "pmb127",
         "title": "Hotel Bristol Berlin",
         "lat": "52.516152",
         "lon": "13.383456",
         "timestamp": ["1904-11-13", "1904-11-14", "1904-11-15", "1904-11-16", "1904-11-17", "1904-11-18", "1904-11-19", "1904-11-20", "1904-11-21", "1904-11-22", "1904-11-23"],
         "importance": "11"
      }
      }, 
    {
      "type": "Feature",
      "geometry": {
        "type": "Point",
        "coordinates": [16.257741, 48.139276]
      },
      "properties": {
         "id": "pmb231810",
         "title": "Willergasse 2",
         "lat": "48.139276",
         "lon": "16.257741",
         "timestamp": ["1904-06-24", "1904-09-25"],
         "importance": "2"
      }
      }, 
    {
      "type": "Feature",
      "geometry": {
        "type": "Point",
        "coordinates": [16.283758, 48.1803]
      },
      "properties": {
         "id": "pmb232311",
         "title": "Münichreiterstraße 1",
         "lat": "48.1803",
         "lon": "16.283758",
         "timestamp": ["1904-03-04", "1904-03-28", "1904-04-14", "1904-06-08", "1904-10-05", "1904-10-15"],
         "importance": "6"
      }
      }, 
    {
      "type": "Feature",
      "geometry": {
        "type": "Point",
        "coordinates": [16.361349, 48.223406]
      },
      "properties": {
         "id": "pmb231945",
         "title": "Porzellangasse 45",
         "lat": "48.223406",
         "lon": "16.361349",
         "timestamp": ["1904-01-18", "1904-02-27", "1904-06-15", "1904-09-01", "1904-11-01", "1904-11-29"],
         "importance": "6"
      }
      }, 
    {
      "type": "Feature",
      "geometry": {
        "type": "Point",
        "coordinates": [13.3842209, 52.5170028]
      },
      "properties": {
         "id": "pmb221",
         "title": "Weinrestaurant zum Treppchen",
         "lat": "52.5170028",
         "lon": "13.3842209",
         "timestamp": ["1904-02-10"],
         "importance": "1"
      }
      }, 
    {
      "type": "Feature",
      "geometry": {
        "type": "Point",
        "coordinates": [13.318058, 52.511709]
      },
      "properties": {
         "id": "pmb334",
         "title": "Schiller-Theater",
         "lat": "52.511709",
         "lon": "13.318058",
         "timestamp": ["1904-02-09", "1904-11-21"],
         "importance": "2"
      }
      }, 
    {
      "type": "Feature",
      "geometry": {
        "type": "Point",
        "coordinates": [16.352811, 48.210713]
      },
      "properties": {
         "id": "pmb40511",
         "title": "Sanatorium Fürth",
         "lat": "48.210713",
         "lon": "16.352811",
         "timestamp": ["1904-02-20", "1904-02-21", "1904-02-24", "1904-02-29", "1904-03-22", "1904-03-23"],
         "importance": "6"
      }
      }, 
    {
      "type": "Feature",
      "geometry": {
        "type": "Point",
        "coordinates": [16.361751, 48.215689]
      },
      "properties": {
         "id": "pmb232256",
         "title": "Kolingasse 3",
         "lat": "48.215689",
         "lon": "16.361751",
         "timestamp": ["1904-03-20", "1904-09-02", "1904-09-26", "1904-11-10", "1904-12-15", "1904-12-16", "1904-12-17"],
         "importance": "7"
      }
      }, 
    {
      "type": "Feature",
      "geometry": {
        "type": "Point",
        "coordinates": [16.28243, 48.183446]
      },
      "properties": {
         "id": "pmb232319",
         "title": "St.-Veit-Gasse 3",
         "lat": "48.183446",
         "lon": "16.28243",
         "timestamp": ["1904-06-18"],
         "importance": "1"
      }
      }, 
    {
      "type": "Feature",
      "geometry": {
        "type": "Point",
        "coordinates": [16.36376, 48.202278]
      },
      "properties": {
         "id": "pmb232325",
         "title": "Nibelungengasse 8",
         "lat": "48.202278",
         "lon": "16.36376",
         "timestamp": ["1904-06-07", "1904-11-11"],
         "importance": "2"
      }
      }, 
    {
      "type": "Feature",
      "geometry": {
        "type": "Point",
        "coordinates": [16.371281, 48.204099]
      },
      "properties": {
         "id": "pmb200440",
         "title": "Krugerstraße 5",
         "lat": "48.204099",
         "lon": "16.371281",
         "timestamp": ["1904-03-14"],
         "importance": "1"
      }
      }, 
    {
      "type": "Feature",
      "geometry": {
        "type": "Point",
        "coordinates": [16.365195, 48.21575]
      },
      "properties": {
         "id": "pmb232398",
         "title": "Wipplingerstraße 38",
         "lat": "48.21575",
         "lon": "16.365195",
         "timestamp": ["1904-08-12"],
         "importance": "1"
      }
      }, 
    {
      "type": "Feature",
      "geometry": {
        "type": "Point",
        "coordinates": [13.394075, 52.519377]
      },
      "properties": {
         "id": "pmb232501",
         "title": "Hotel und Restaurant »Prinz Wilhelm«",
         "lat": "52.519377",
         "lon": "13.394075",
         "timestamp": ["1904-02-09", "1904-11-14", "1904-11-15", "1904-11-21", "1904-11-22"],
         "importance": "5"
      }
      }, 
    {
      "type": "Feature",
      "geometry": {
        "type": "Point",
        "coordinates": [16.30627, 48.2435]
      },
      "properties": {
         "id": "pmb147205",
         "title": "Zum weißen Lamm",
         "lat": "48.2435",
         "lon": "16.30627",
         "timestamp": ["1904-06-05"],
         "importance": "1"
      }
      }, 
    {
      "type": "Feature",
      "geometry": {
        "type": "Point",
        "coordinates": [16.33472, 48.2304]
      },
      "properties": {
         "id": "pmb168940",
         "title": "Edmund-Weiß-Gasse 7",
         "lat": "48.2304",
         "lon": "16.33472",
         "timestamp": ["1904-01-04", "1904-01-20", "1904-01-22", "1904-01-23", "1904-01-25", "1904-01-28", "1904-02-02", "1904-02-03", "1904-02-19", "1904-02-22", "1904-02-25", "1904-02-26", "1904-03-01", "1904-03-02", "1904-03-03", "1904-03-07", "1904-03-08", "1904-03-10", "1904-03-19", "1904-03-28", "1904-03-30", "1904-03-31", "1904-04-01", "1904-04-02", "1904-04-03", "1904-04-05", "1904-04-09", "1904-04-12", "1904-04-16", "1904-04-17", "1904-04-19", "1904-05-30", "1904-05-31", "1904-06-01", "1904-06-07", "1904-06-09", "1904-06-11", "1904-06-18", "1904-06-19", "1904-06-20", "1904-06-21", "1904-06-22", "1904-06-23", "1904-06-25", "1904-06-26", "1904-06-27", "1904-06-28", "1904-06-29", "1904-06-30", "1904-07-01", "1904-07-02", "1904-07-03", "1904-07-05", "1904-07-06", "1904-07-08", "1904-07-09", "1904-07-10", "1904-07-11", "1904-07-23", "1904-07-26", "1904-08-03", "1904-08-04", "1904-08-05", "1904-08-07", "1904-08-08", "1904-08-11", "1904-08-12", "1904-08-14", "1904-08-15", "1904-08-17", "1904-08-18", "1904-08-24", "1904-08-25", "1904-08-27", "1904-08-28", "1904-09-20", "1904-09-23", "1904-09-24", "1904-09-27", "1904-09-29", "1904-09-30", "1904-10-01", "1904-10-02", "1904-10-03", "1904-10-04", "1904-10-06", "1904-10-07", "1904-10-08", "1904-10-09", "1904-10-10", "1904-10-11", "1904-10-12", "1904-10-13", "1904-10-15", "1904-10-17", "1904-10-18", "1904-10-20", "1904-10-21", "1904-10-22", "1904-10-23", "1904-10-26", "1904-10-29", "1904-10-30", "1904-11-01", "1904-11-02", "1904-11-04", "1904-11-05", "1904-11-06", "1904-11-07", "1904-11-08", "1904-11-09", "1904-11-10", "1904-11-24", "1904-11-25", "1904-11-26", "1904-11-27", "1904-11-28", "1904-11-30", "1904-12-03", "1904-12-04", "1904-12-05", "1904-12-06", "1904-12-07", "1904-12-08", "1904-12-09", "1904-12-11", "1904-12-13", "1904-12-14", "1904-12-15", "1904-12-16", "1904-12-18", "1904-12-19", "1904-12-20", "1904-12-21", "1904-12-22", "1904-12-23", "1904-12-24", "1904-12-25"],
         "importance": "138"
      }
      }, 
    {
      "type": "Feature",
      "geometry": {
        "type": "Point",
        "coordinates": [16.385062, 48.209777]
      },
      "properties": {
         "id": "pmb232975",
         "title": "Hauptzollamt",
         "lat": "48.209777",
         "lon": "16.385062",
         "timestamp": ["1904-06-16"],
         "importance": "1"
      }
      }, 
    {
      "type": "Feature",
      "geometry": {
        "type": "Point",
        "coordinates": [16.3025, 48.182222]
      },
      "properties": {
         "id": "pmb39607",
         "title": "Tiergarten Schönbrunn",
         "lat": "48.182222",
         "lon": "16.3025",
         "timestamp": ["1904-08-01"],
         "importance": "1"
      }
      }, 
    {
      "type": "Feature",
      "geometry": {
        "type": "Point",
        "coordinates": [16.30202, 48.18636]
      },
      "properties": {
         "id": "pmb304",
         "title": "Ottakringer Bräu",
         "lat": "48.18636",
         "lon": "16.30202",
         "timestamp": ["1904-08-01", "1904-08-19", "1904-08-30", "1904-10-31", "1904-10-31", "1904-11-01"],
         "importance": "6"
      }
      }, 
    {
      "type": "Feature",
      "geometry": {
        "type": "Point",
        "coordinates": [16.320719, 48.238032]
      },
      "properties": {
         "id": "pmb248",
         "title": "Kratzer’s Restaurant Gersthof",
         "lat": "48.238032",
         "lon": "16.320719",
         "timestamp": ["1904-06-08", "1904-06-14", "1904-07-06", "1904-07-11"],
         "importance": "4"
      }
      }, 
    {
      "type": "Feature",
      "geometry": {
        "type": "Point",
        "coordinates": [16.373175, 48.209532]
      },
      "properties": {
         "id": "pmb233280",
         "title": "Automatenbüffet Quisisana",
         "lat": "48.209532",
         "lon": "16.373175",
         "timestamp": ["1904-08-29"],
         "importance": "1"
      }
      }, 
    {
      "type": "Feature",
      "geometry": {
        "type": "Point",
        "coordinates": [16.327352524714, 48.267145622591]
      },
      "properties": {
         "id": "pmb301",
         "title": "Krapfenwaldl",
         "lat": "48.267145622591",
         "lon": "16.327352524714",
         "timestamp": ["1904-03-25", "1904-10-23", "1904-11-06"],
         "importance": "3"
      }
      }, 
    {
      "type": "Feature",
      "geometry": {
        "type": "Point",
        "coordinates": [15.8121, 47.644]
      },
      "properties": {
         "id": "pmb200876",
         "title": "Meierei des Südbahnhotels",
         "lat": "47.644",
         "lon": "15.8121",
         "timestamp": ["1904-01-09", "1904-01-11"],
         "importance": "2"
      }
      }, 
    {
      "type": "Feature",
      "geometry": {
        "type": "Point",
        "coordinates": [16.375811, 48.203191]
      },
      "properties": {
         "id": "pmb233517",
         "title": "Kaiserpanorama [Wien]",
         "lat": "48.203191",
         "lon": "16.375811",
         "timestamp": ["1904-01-04", "1904-01-05", "1904-01-15", "1904-01-26", "1904-02-26", "1904-03-07", "1904-03-08", "1904-03-14", "1904-03-15", "1904-03-22", "1904-03-23", "1904-04-04", "1904-04-15", "1904-04-18", "1904-04-19", "1904-04-29", "1904-06-04", "1904-06-10", "1904-06-11", "1904-06-13", "1904-06-14", "1904-06-21", "1904-06-22", "1904-10-25"],
         "importance": "24"
      }
      }, 
    {
      "type": "Feature",
      "geometry": {
        "type": "Point",
        "coordinates": [16.374006, 48.208725]
      },
      "properties": {
         "id": "pmb233650",
         "title": "Stephansplatz 6",
         "lat": "48.208725",
         "lon": "16.374006",
         "timestamp": ["1904-01-15"],
         "importance": "1"
      }
      }, 
    {
      "type": "Feature",
      "geometry": {
        "type": "Point",
        "coordinates": [16.374604, 48.202607]
      },
      "properties": {
         "id": "pmb233677",
         "title": "Hegelgasse 17",
         "lat": "48.202607",
         "lon": "16.374604",
         "timestamp": ["1904-01-28"],
         "importance": "1"
      }
      }, 
    {
      "type": "Feature",
      "geometry": {
        "type": "Point",
        "coordinates": [13.357556, 52.522917]
      },
      "properties": {
         "id": "pmb233728",
         "title": "Alt-Moabit 121",
         "lat": "52.522917",
         "lon": "13.357556",
         "timestamp": ["1904-02-05"],
         "importance": "1"
      }
      }, 
    {
      "type": "Feature",
      "geometry": {
        "type": "Point",
        "coordinates": [13.387871, 52.524582]
      },
      "properties": {
         "id": "pmb233736",
         "title": "Weinstube Eggebrecht",
         "lat": "52.524582",
         "lon": "13.387871",
         "timestamp": ["1904-02-06", "1904-11-16"],
         "importance": "2"
      }
      }, 
    {
      "type": "Feature",
      "geometry": {
        "type": "Point",
        "coordinates": [13.360365, 52.498452]
      },
      "properties": {
         "id": "pmb233777",
         "title": "Bülowstraße 90",
         "lat": "52.498452",
         "lon": "13.360365",
         "timestamp": ["1904-02-10", "1904-11-22"],
         "importance": "2"
      }
      }, 
    {
      "type": "Feature",
      "geometry": {
        "type": "Point",
        "coordinates": [13.389167, 52.517222]
      },
      "properties": {
         "id": "pmb208",
         "title": "Kleines Theater",
         "lat": "52.517222",
         "lon": "13.389167",
         "timestamp": ["1904-02-11", "1904-11-14", "1904-11-15", "1904-11-17", "1904-11-18", "1904-11-19", "1904-11-21", "1904-11-22"],
         "importance": "8"
      }
      }, 
    {
      "type": "Feature",
      "geometry": {
        "type": "Point",
        "coordinates": [13.335411898362262, 52.50160627017937]
      },
      "properties": {
         "id": "pmb61572",
         "title": "Augsburger Straße",
         "lat": "52.50160627017937",
         "lon": "13.335411898362262",
         "timestamp": ["1904-02-11", "1904-02-15"],
         "importance": "2"
      }
      }, 
    {
      "type": "Feature",
      "geometry": {
        "type": "Point",
        "coordinates": [13.389438, 52.51547]
      },
      "properties": {
         "id": "pmb233797",
         "title": "Weinhandlung Ewest",
         "lat": "52.51547",
         "lon": "13.389438",
         "timestamp": ["1904-02-12"],
         "importance": "1"
      }
      }, 
    {
      "type": "Feature",
      "geometry": {
        "type": "Point",
        "coordinates": [13.384577, 52.51861]
      },
      "properties": {
         "id": "pmb233808",
         "title": "Hotel Prinz-Friedrich-Carl",
         "lat": "52.51861",
         "lon": "13.384577",
         "timestamp": ["1904-02-16"],
         "importance": "1"
      }
      }, 
    {
      "type": "Feature",
      "geometry": {
        "type": "Point",
        "coordinates": [13.76261, 51.03832]
      },
      "properties": {
         "id": "pmb90591",
         "title": "Großer Garten",
         "lat": "51.03832",
         "lon": "13.76261",
         "timestamp": ["1904-02-17", "1904-02-18"],
         "importance": "2"
      }
      }, 
    {
      "type": "Feature",
      "geometry": {
        "type": "Point",
        "coordinates": [13.735169, 51.054508]
      },
      "properties": {
         "id": "pmb1034",
         "title": "Semperoper",
         "lat": "51.054508",
         "lon": "13.735169",
         "timestamp": ["1904-02-18"],
         "importance": "1"
      }
      }, 
    {
      "type": "Feature",
      "geometry": {
        "type": "Point",
        "coordinates": [13.7373, 51.0544]
      },
      "properties": {
         "id": "pmb233819",
         "title": "Italienisches Dörfchen",
         "lat": "51.0544",
         "lon": "13.7373",
         "timestamp": ["1904-02-18"],
         "importance": "1"
      }
      }, 
    {
      "type": "Feature",
      "geometry": {
        "type": "Point",
        "coordinates": [16.333374529707, 48.231734296625]
      },
      "properties": {
         "id": "pmb794",
         "title": "Sternwartepark",
         "lat": "48.231734296625",
         "lon": "16.333374529707",
         "timestamp": ["1904-02-19"],
         "importance": "1"
      }
      }, 
    {
      "type": "Feature",
      "geometry": {
        "type": "Point",
        "coordinates": [16.377197811369, 48.200771836002]
      },
      "properties": {
         "id": "pmb240",
         "title": "Konzerthaus",
         "lat": "48.200771836002",
         "lon": "16.377197811369",
         "timestamp": ["1904-02-20"],
         "importance": "1"
      }
      }, 
    {
      "type": "Feature",
      "geometry": {
        "type": "Point",
        "coordinates": [16.37986, 48.20709]
      },
      "properties": {
         "id": "pmb169550",
         "title": "Galerie Pisko",
         "lat": "48.20709",
         "lon": "16.37986",
         "timestamp": ["1904-03-15"],
         "importance": "1"
      }
      }, 
    {
      "type": "Feature",
      "geometry": {
        "type": "Point",
        "coordinates": [16.365466, 48.214522]
      },
      "properties": {
         "id": "pmb233886",
         "title": "Hohenstaufengasse 12",
         "lat": "48.214522",
         "lon": "16.365466",
         "timestamp": ["1904-03-23"],
         "importance": "1"
      }
      }, 
    {
      "type": "Feature",
      "geometry": {
        "type": "Point",
        "coordinates": [16.28606, 48.25849]
      },
      "properties": {
         "id": "pmb537",
         "title": "Dreimarkstein [Wien]",
         "lat": "48.25849",
         "lon": "16.28606",
         "timestamp": ["1904-03-25", "1904-06-15", "1904-06-22", "1904-12-04"],
         "importance": "4"
      }
      }, 
    {
      "type": "Feature",
      "geometry": {
        "type": "Point",
        "coordinates": [16.37171, 48.206559]
      },
      "properties": {
         "id": "pmb233917",
         "title": "Ernst Wahliss Porzellan-, Glas und Gemischtwarenhandlung",
         "lat": "48.206559",
         "lon": "16.37171",
         "timestamp": ["1904-04-07"],
         "importance": "1"
      }
      }, 
    {
      "type": "Feature",
      "geometry": {
        "type": "Point",
        "coordinates": [16.394539, 48.203093]
      },
      "properties": {
         "id": "pmb233934",
         "title": "Atelier und Kunstanstalt J. Loewy",
         "lat": "48.203093",
         "lon": "16.394539",
         "timestamp": ["1904-04-13", "1904-04-16", "1904-11-07"],
         "importance": "3"
      }
      }, 
    {
      "type": "Feature",
      "geometry": {
        "type": "Point",
        "coordinates": [16.343738, 48.212072]
      },
      "properties": {
         "id": "pmb233937",
         "title": "Florianigasse 58",
         "lat": "48.212072",
         "lon": "16.343738",
         "timestamp": ["1904-04-13"],
         "importance": "1"
      }
      }, 
    {
      "type": "Feature",
      "geometry": {
        "type": "Point",
        "coordinates": [16.33615, 48.200628]
      },
      "properties": {
         "id": "pmb233980",
         "title": "Zirkus Schumann",
         "lat": "48.200628",
         "lon": "16.33615",
         "timestamp": ["1904-04-25"],
         "importance": "1"
      }
      }, 
    {
      "type": "Feature",
      "geometry": {
        "type": "Point",
        "coordinates": [16.360753, 48.201693]
      },
      "properties": {
         "id": "pmb200490",
         "title": "Mariahilfer Straße 1b",
         "lat": "48.201693",
         "lon": "16.360753",
         "timestamp": ["1904-04-28"],
         "importance": "1"
      }
      }, 
    {
      "type": "Feature",
      "geometry": {
        "type": "Point",
        "coordinates": [13.50337, 43.5942]
      },
      "properties": {
         "id": "pmb44521",
         "title": "Ancona",
         "lat": "43.5942",
         "lon": "13.50337",
         "timestamp": ["1904-05-03"],
         "importance": "1"
      }
      }, 
    {
      "type": "Feature",
      "geometry": {
        "type": "Point",
        "coordinates": [12.49479, 41.90399]
      },
      "properties": {
         "id": "pmb233993",
         "title": "Grand Hotel Roma",
         "lat": "41.90399",
         "lon": "12.49479",
         "timestamp": ["1904-05-03", "1904-05-04", "1904-05-05", "1904-05-06", "1904-05-07", "1904-05-08"],
         "importance": "6"
      }
      }, 
    {
      "type": "Feature",
      "geometry": {
        "type": "Point",
        "coordinates": [12.479803596321858, 41.902432121129905]
      },
      "properties": {
         "id": "pmb233996",
         "title": "Gambrinus-Halle [Rom]",
         "lat": "41.902432121129905",
         "lon": "12.479803596321858",
         "timestamp": ["1904-05-03"],
         "importance": "1"
      }
      }, 
    {
      "type": "Feature",
      "geometry": {
        "type": "Point",
        "coordinates": [12.480856, 41.876453]
      },
      "properties": {
         "id": "pmb50768",
         "title": "Cestius-Pyramide",
         "lat": "41.876453",
         "lon": "12.480856",
         "timestamp": ["1904-05-04"],
         "importance": "1"
      }
      }, 
    {
      "type": "Feature",
      "geometry": {
        "type": "Point",
        "coordinates": [12.479653, 41.911763]
      },
      "properties": {
         "id": "pmb44225",
         "title": "Monte Pincio",
         "lat": "41.911763",
         "lon": "12.479653",
         "timestamp": ["1904-05-05"],
         "importance": "1"
      }
      }, 
    {
      "type": "Feature",
      "geometry": {
        "type": "Point",
        "coordinates": [12.69253, 41.70754]
      },
      "properties": {
         "id": "pmb234016",
         "title": "Palazzo Sforza-Cesarini",
         "lat": "41.70754",
         "lon": "12.69253",
         "timestamp": ["1904-05-06"],
         "importance": "1"
      }
      }, 
    {
      "type": "Feature",
      "geometry": {
        "type": "Point",
        "coordinates": [12.645529, 41.740553]
      },
      "properties": {
         "id": "pmb92147",
         "title": "Via Appia nuova",
         "lat": "41.740553",
         "lon": "12.645529",
         "timestamp": ["1904-05-06"],
         "importance": "1"
      }
      }, 
    {
      "type": "Feature",
      "geometry": {
        "type": "Point",
        "coordinates": [14.375739, 40.628348]
      },
      "properties": {
         "id": "pmb234024",
         "title": "Hotel Vesuvio",
         "lat": "40.628348",
         "lon": "14.375739",
         "timestamp": ["1904-05-08", "1904-05-09", "1904-05-10", "1904-05-11", "1904-05-12", "1904-05-13", "1904-05-14", "1904-05-25", "1904-05-26", "1904-05-27"],
         "importance": "10"
      }
      }, 
    {
      "type": "Feature",
      "geometry": {
        "type": "Point",
        "coordinates": [14.250555555555556, 40.853611111111114]
      },
      "properties": {
         "id": "pmb234026",
         "title": "Museo archeologico nazionale di Napoli",
         "lat": "40.853611111111114",
         "lon": "14.250555555555556",
         "timestamp": ["1904-05-09", "1904-05-25", "1904-05-27"],
         "importance": "3"
      }
      }, 
    {
      "type": "Feature",
      "geometry": {
        "type": "Point",
        "coordinates": [14.241129, 40.84341]
      },
      "properties": {
         "id": "pmb234029",
         "title": "Certosa di San Martino",
         "lat": "40.84341",
         "lon": "14.241129",
         "timestamp": ["1904-05-09"],
         "importance": "1"
      }
      }, 
    {
      "type": "Feature",
      "geometry": {
        "type": "Point",
        "coordinates": [14.37771, 40.62678]
      },
      "properties": {
         "id": "pmb629",
         "title": "Sorrent",
         "lat": "40.62678",
         "lon": "14.37771",
         "timestamp": ["1904-05-10"],
         "importance": "1"
      }
      }, 
    {
      "type": "Feature",
      "geometry": {
        "type": "Point",
        "coordinates": [14.221201, 40.555921]
      },
      "properties": {
         "id": "pmb234032",
         "title": "Piazza Vittoria",
         "lat": "40.555921",
         "lon": "14.221201",
         "timestamp": ["1904-05-10"],
         "importance": "1"
      }
      }, 
    {
      "type": "Feature",
      "geometry": {
        "type": "Point",
        "coordinates": [14.205419, 40.56102]
      },
      "properties": {
         "id": "pmb234035",
         "title": "Grotta Azzurra",
         "lat": "40.56102",
         "lon": "14.205419",
         "timestamp": ["1904-05-10"],
         "importance": "1"
      }
      }, 
    {
      "type": "Feature",
      "geometry": {
        "type": "Point",
        "coordinates": [14.489722, 40.750556]
      },
      "properties": {
         "id": "pmb1283",
         "title": "Pompeji",
         "lat": "40.750556",
         "lon": "14.489722",
         "timestamp": ["1904-05-11", "1904-05-26"],
         "importance": "2"
      }
      }, 
    {
      "type": "Feature",
      "geometry": {
        "type": "Point",
        "coordinates": [13.33561, 38.13205]
      },
      "properties": {
         "id": "pmb901",
         "title": "Palermo",
         "lat": "38.13205",
         "lon": "13.33561",
         "timestamp": ["1904-05-14"],
         "importance": "1"
      }
      }, 
    {
      "type": "Feature",
      "geometry": {
        "type": "Point",
        "coordinates": [14.23577, 40.8327]
      },
      "properties": {
         "id": "pmb234052",
         "title": "Stazione Zoologica Anton Dohrn",
         "lat": "40.8327",
         "lon": "14.23577",
         "timestamp": ["1904-05-14"],
         "importance": "1"
      }
      }, 
    {
      "type": "Feature",
      "geometry": {
        "type": "Point",
        "coordinates": [13.35922222, 38.12388889]
      },
      "properties": {
         "id": "pmb234055",
         "title": "Grand Hotel et des Palmes",
         "lat": "38.12388889",
         "lon": "13.35922222",
         "timestamp": ["1904-05-15", "1904-05-16", "1904-05-17"],
         "importance": "3"
      }
      }, 
    {
      "type": "Feature",
      "geometry": {
        "type": "Point",
        "coordinates": [13.35341, 38.111282]
      },
      "properties": {
         "id": "pmb234058",
         "title": "Palazzo dei Normanni",
         "lat": "38.111282",
         "lon": "13.35341",
         "timestamp": ["1904-05-15"],
         "importance": "1"
      }
      }, 
    {
      "type": "Feature",
      "geometry": {
        "type": "Point",
        "coordinates": [13.33777778, 38.16222222]
      },
      "properties": {
         "id": "pmb234061",
         "title": "Parco della Favorita",
         "lat": "38.16222222",
         "lon": "13.33777778",
         "timestamp": ["1904-05-15"],
         "importance": "1"
      }
      }, 
    {
      "type": "Feature",
      "geometry": {
        "type": "Point",
        "coordinates": [13.37560505, 38.11349215]
      },
      "properties": {
         "id": "pmb234064",
         "title": "Villa Giulia",
         "lat": "38.11349215",
         "lon": "13.37560505",
         "timestamp": ["1904-05-16"],
         "importance": "1"
      }
      }, 
    {
      "type": "Feature",
      "geometry": {
        "type": "Point",
        "coordinates": [13.3725, 38.1125]
      },
      "properties": {
         "id": "pmb234067",
         "title": "Orto botanico di Palermo",
         "lat": "38.1125",
         "lon": "13.3725",
         "timestamp": ["1904-05-16"],
         "importance": "1"
      }
      }, 
    {
      "type": "Feature",
      "geometry": {
        "type": "Point",
        "coordinates": [13.37016667, 38.14536111]
      },
      "properties": {
         "id": "pmb234070",
         "title": "Villa Igiea",
         "lat": "38.14536111",
         "lon": "13.37016667",
         "timestamp": ["1904-05-16"],
         "importance": "1"
      }
      }, 
    {
      "type": "Feature",
      "geometry": {
        "type": "Point",
        "coordinates": [15.275, 37.07611]
      },
      "properties": {
         "id": "pmb234077",
         "title": "Teatro greco di Siracusa",
         "lat": "37.07611",
         "lon": "15.275",
         "timestamp": ["1904-05-17"],
         "importance": "1"
      }
      }, 
    {
      "type": "Feature",
      "geometry": {
        "type": "Point",
        "coordinates": [15.276462584539313, 37.07614816248249]
      },
      "properties": {
         "id": "pmb234080",
         "title": "Latomie di Siracusa",
         "lat": "37.07614816248249",
         "lon": "15.276462584539313",
         "timestamp": ["1904-05-17"],
         "importance": "1"
      }
      }, 
    {
      "type": "Feature",
      "geometry": {
        "type": "Point",
        "coordinates": [15.27625, 37.076236111111]
      },
      "properties": {
         "id": "pmb234083",
         "title": "Orecchio di Dionisio",
         "lat": "37.076236111111",
         "lon": "15.27625",
         "timestamp": ["1904-05-17"],
         "importance": "1"
      }
      }, 
    {
      "type": "Feature",
      "geometry": {
        "type": "Point",
        "coordinates": [15.2953, 37.0794]
      },
      "properties": {
         "id": "pmb234086",
         "title": "Latomia dei Cappuccini",
         "lat": "37.0794",
         "lon": "15.2953",
         "timestamp": ["1904-05-18"],
         "importance": "1"
      }
      }, 
    {
      "type": "Feature",
      "geometry": {
        "type": "Point",
        "coordinates": [15.283583, 37.84975]
      },
      "properties": {
         "id": "pmb234089",
         "title": "San Domenico Hotel",
         "lat": "37.84975",
         "lon": "15.283583",
         "timestamp": ["1904-05-18", "1904-05-19", "1904-05-20", "1904-05-21", "1904-05-22", "1904-05-23", "1904-05-24"],
         "importance": "7"
      }
      }, 
    {
      "type": "Feature",
      "geometry": {
        "type": "Point",
        "coordinates": [15.29227, 37.85241]
      },
      "properties": {
         "id": "pmb51013",
         "title": "Antikes Theater Taormina",
         "lat": "37.85241",
         "lon": "15.29227",
         "timestamp": ["1904-05-19", "1904-05-20"],
         "importance": "2"
      }
      }, 
    {
      "type": "Feature",
      "geometry": {
        "type": "Point",
        "coordinates": [15.284557, 37.854525]
      },
      "properties": {
         "id": "pmb234094",
         "title": "Castello di Monte Tauro",
         "lat": "37.854525",
         "lon": "15.284557",
         "timestamp": ["1904-05-21"],
         "importance": "1"
      }
      }, 
    {
      "type": "Feature",
      "geometry": {
        "type": "Point",
        "coordinates": [15.55256, 38.19394]
      },
      "properties": {
         "id": "pmb1277",
         "title": "Messina",
         "lat": "38.19394",
         "lon": "15.55256",
         "timestamp": ["1904-05-24"],
         "importance": "1"
      }
      }, 
    {
      "type": "Feature",
      "geometry": {
        "type": "Point",
        "coordinates": [13.525551, 43.615941]
      },
      "properties": {
         "id": "pmb234101",
         "title": "Hotel della Vittoria",
         "lat": "43.615941",
         "lon": "13.525551",
         "timestamp": ["1904-05-28"],
         "importance": "1"
      }
      }, 
    {
      "type": "Feature",
      "geometry": {
        "type": "Point",
        "coordinates": [13.509918, 43.625241]
      },
      "properties": {
         "id": "pmb234104",
         "title": "Duomo di Ancona",
         "lat": "43.625241",
         "lon": "13.509918",
         "timestamp": ["1904-05-28"],
         "importance": "1"
      }
      }, 
    {
      "type": "Feature",
      "geometry": {
        "type": "Point",
        "coordinates": [14.20366, 45.78276]
      },
      "properties": {
         "id": "pmb234107",
         "title": "Höhlen von Postojna",
         "lat": "45.78276",
         "lon": "14.20366",
         "timestamp": ["1904-05-29"],
         "importance": "1"
      }
      }, 
    {
      "type": "Feature",
      "geometry": {
        "type": "Point",
        "coordinates": [16.373293, 48.207882]
      },
      "properties": {
         "id": "pmb172",
         "title": "Kellerei und Gastwirtschaft Deutsches Haus, Friedrich Kargl",
         "lat": "48.207882",
         "lon": "16.373293",
         "timestamp": ["1904-05-31"],
         "importance": "1"
      }
      }, 
    {
      "type": "Feature",
      "geometry": {
        "type": "Point",
        "coordinates": [16.314491, 48.242571]
      },
      "properties": {
         "id": "pmb231941",
         "title": "Starkfriedgasse 12",
         "lat": "48.242571",
         "lon": "16.314491",
         "timestamp": ["1904-06-05", "1904-07-06", "1904-07-09", "1904-07-25", "1904-08-04", "1904-08-12", "1904-08-13", "1904-08-14", "1904-08-19", "1904-08-24"],
         "importance": "10"
      }
      }, 
    {
      "type": "Feature",
      "geometry": {
        "type": "Point",
        "coordinates": [16.2977, 48.27317]
      },
      "properties": {
         "id": "pmb234181",
         "title": "Agnesbründl",
         "lat": "48.27317",
         "lon": "16.2977",
         "timestamp": ["1904-06-22"],
         "importance": "1"
      }
      }, 
    {
      "type": "Feature",
      "geometry": {
        "type": "Point",
        "coordinates": [16.4031, 48.2105]
      },
      "properties": {
         "id": "pmb234204",
         "title": "Konstantinhügel",
         "lat": "48.2105",
         "lon": "16.4031",
         "timestamp": ["1904-07-07", "1904-07-30", "1904-08-02", "1904-08-06", "1904-08-09"],
         "importance": "5"
      }
      }, 
    {
      "type": "Feature",
      "geometry": {
        "type": "Point",
        "coordinates": [16.340833, 48.228984]
      },
      "properties": {
         "id": "pmb234238",
         "title": "Haizingergasse 29",
         "lat": "48.228984",
         "lon": "16.340833",
         "timestamp": ["1904-07-07"],
         "importance": "1"
      }
      }, 
    {
      "type": "Feature",
      "geometry": {
        "type": "Point",
        "coordinates": [16.452131168486, 48.148682596879]
      },
      "properties": {
         "id": "pmb841",
         "title": "Döblinger Friedhof",
         "lat": "48.148682596879",
         "lon": "16.452131168486",
         "timestamp": ["1904-07-07"],
         "importance": "1"
      }
      }, 
    {
      "type": "Feature",
      "geometry": {
        "type": "Point",
        "coordinates": [16.343483, 48.224117]
      },
      "properties": {
         "id": "pmb234221",
         "title": "Hotel Steinböck",
         "lat": "48.224117",
         "lon": "16.343483",
         "timestamp": ["1904-07-10"],
         "importance": "1"
      }
      }, 
    {
      "type": "Feature",
      "geometry": {
        "type": "Point",
        "coordinates": [15.66667, 47.73333]
      },
      "properties": {
         "id": "pmb40881",
         "title": "Nasswald",
         "lat": "47.73333",
         "lon": "15.66667",
         "timestamp": ["1904-07-15"],
         "importance": "1"
      }
      }, 
    {
      "type": "Feature",
      "geometry": {
        "type": "Point",
        "coordinates": [15.6707854, 47.71778962]
      },
      "properties": {
         "id": "pmb234252",
         "title": "Binder-Wirtshaus im Reisstal",
         "lat": "47.71778962",
         "lon": "15.6707854",
         "timestamp": ["1904-07-15", "1904-07-16"],
         "importance": "2"
      }
      }, 
    {
      "type": "Feature",
      "geometry": {
        "type": "Point",
        "coordinates": [15.697778, 47.763781]
      },
      "properties": {
         "id": "pmb234255",
         "title": "Oberhof [Schwarzau]",
         "lat": "47.763781",
         "lon": "15.697778",
         "timestamp": ["1904-07-15"],
         "importance": "1"
      }
      }, 
    {
      "type": "Feature",
      "geometry": {
        "type": "Point",
        "coordinates": [15.81667, 47.71667]
      },
      "properties": {
         "id": "pmb90901",
         "title": "Höllental",
         "lat": "47.71667",
         "lon": "15.81667",
         "timestamp": ["1904-07-15"],
         "importance": "1"
      }
      }, 
    {
      "type": "Feature",
      "geometry": {
        "type": "Point",
        "coordinates": [15.66388888888889, 47.711666666666666]
      },
      "properties": {
         "id": "pmb234270",
         "title": "Nasskamm",
         "lat": "47.711666666666666",
         "lon": "15.66388888888889",
         "timestamp": ["1904-07-16"],
         "importance": "1"
      }
      }, 
    {
      "type": "Feature",
      "geometry": {
        "type": "Point",
        "coordinates": [15.86303, 47.6913]
      },
      "properties": {
         "id": "pmb234273",
         "title": "Franz Oberdorfer",
         "lat": "47.6913",
         "lon": "15.86303",
         "timestamp": ["1904-07-16"],
         "importance": "1"
      }
      }, 
    {
      "type": "Feature",
      "geometry": {
        "type": "Point",
        "coordinates": [15.71667, 47.7]
      },
      "properties": {
         "id": "pmb91572",
         "title": "Raxalpe",
         "lat": "47.7",
         "lon": "15.71667",
         "timestamp": ["1904-07-18", "1904-07-19"],
         "importance": "2"
      }
      }, 
    {
      "type": "Feature",
      "geometry": {
        "type": "Point",
        "coordinates": [15.7621, 47.7132]
      },
      "properties": {
         "id": "pmb234277",
         "title": "Otto-Schutzhaus",
         "lat": "47.7132",
         "lon": "15.7621",
         "timestamp": ["1904-07-18"],
         "importance": "1"
      }
      }, 
    {
      "type": "Feature",
      "geometry": {
        "type": "Point",
        "coordinates": [15.7042, 47.6886]
      },
      "properties": {
         "id": "pmb234288",
         "title": "Karl-Ludwig-Haus",
         "lat": "47.6886",
         "lon": "15.7042",
         "timestamp": ["1904-07-18", "1904-07-19"],
         "importance": "2"
      }
      }, 
    {
      "type": "Feature",
      "geometry": {
        "type": "Point",
        "coordinates": [15.7596, 47.6757]
      },
      "properties": {
         "id": "pmb51370",
         "title": "Hotel Preinerwand",
         "lat": "47.6757",
         "lon": "15.7596",
         "timestamp": ["1904-07-19", "1904-07-22"],
         "importance": "2"
      }
      }, 
    {
      "type": "Feature",
      "geometry": {
        "type": "Point",
        "coordinates": [15.84714, 47.694292]
      },
      "properties": {
         "id": "pmb234301",
         "title": "August Königseder",
         "lat": "47.694292",
         "lon": "15.84714",
         "timestamp": ["1904-07-21"],
         "importance": "1"
      }
      }, 
    {
      "type": "Feature",
      "geometry": {
        "type": "Point",
        "coordinates": [16.243324956494, 48.217820644817]
      },
      "properties": {
         "id": "pmb550",
         "title": "Knödelhütte",
         "lat": "48.217820644817",
         "lon": "16.243324956494",
         "timestamp": ["1904-07-30"],
         "importance": "1"
      }
      }, 
    {
      "type": "Feature",
      "geometry": {
        "type": "Point",
        "coordinates": [16.301147, 48.214047]
      },
      "properties": {
         "id": "pmb234326",
         "title": "Bockkeller",
         "lat": "48.214047",
         "lon": "16.301147",
         "timestamp": ["1904-08-03"],
         "importance": "1"
      }
      }, 
    {
      "type": "Feature",
      "geometry": {
        "type": "Point",
        "coordinates": [13.372111, 47.753992]
      },
      "properties": {
         "id": "pmb824",
         "title": "Hotel und Pension Lueg",
         "lat": "47.753992",
         "lon": "13.372111",
         "timestamp": ["1904-09-05", "1904-09-06", "1904-09-07", "1904-09-08", "1904-09-09", "1904-09-10", "1904-09-11", "1904-09-12", "1904-09-13", "1904-09-14", "1904-09-15", "1904-12-26", "1904-12-27", "1904-12-28", "1904-12-29", "1904-12-30"],
         "importance": "16"
      }
      }, 
    {
      "type": "Feature",
      "geometry": {
        "type": "Point",
        "coordinates": [13.38834286, 47.78689302]
      },
      "properties": {
         "id": "pmb234384",
         "title": "Burgruine Hüttenstein",
         "lat": "47.78689302",
         "lon": "13.38834286",
         "timestamp": ["1904-09-05"],
         "importance": "1"
      }
      }, 
    {
      "type": "Feature",
      "geometry": {
        "type": "Point",
        "coordinates": [13.38864326, 47.78265381]
      },
      "properties": {
         "id": "pmb234389",
         "title": "Krottensee",
         "lat": "47.78265381",
         "lon": "13.38864326",
         "timestamp": ["1904-09-05"],
         "importance": "1"
      }
      }, 
    {
      "type": "Feature",
      "geometry": {
        "type": "Point",
        "coordinates": [13.385272, 47.74443]
      },
      "properties": {
         "id": "pmb234399",
         "title": "Franzosenschanze 4",
         "lat": "47.74443",
         "lon": "13.385272",
         "timestamp": ["1904-09-06", "1904-09-16", "1904-12-27", "1904-12-29"],
         "importance": "4"
      }
      }, 
    {
      "type": "Feature",
      "geometry": {
        "type": "Point",
        "coordinates": [13.39757, 47.758296]
      },
      "properties": {
         "id": "pmb234404",
         "title": "Falkensteinwand St.Gilgen",
         "lat": "47.758296",
         "lon": "13.39757",
         "timestamp": ["1904-09-12"],
         "importance": "1"
      }
      }, 
    {
      "type": "Feature",
      "geometry": {
        "type": "Point",
        "coordinates": [13.372211, 47.754041]
      },
      "properties": {
         "id": "pmb186",
         "title": "Lueg am Wolfgangsee",
         "lat": "47.754041",
         "lon": "13.372211",
         "timestamp": ["1904-09-16"],
         "importance": "1"
      }
      }, 
    {
      "type": "Feature",
      "geometry": {
        "type": "Point",
        "coordinates": [13.04367, 47.80308]
      },
      "properties": {
         "id": "pmb231",
         "title": "Hotel Bristol Salzburg",
         "lat": "47.80308",
         "lon": "13.04367",
         "timestamp": ["1904-09-16", "1904-09-17"],
         "importance": "2"
      }
      }, 
    {
      "type": "Feature",
      "geometry": {
        "type": "Point",
        "coordinates": [13.045141, 47.808997]
      },
      "properties": {
         "id": "pmb40804",
         "title": "Hotel und Pension Nelböck",
         "lat": "47.808997",
         "lon": "13.045141",
         "timestamp": ["1904-09-16", "1904-09-17", "1904-09-18", "1904-09-19", "1904-09-20"],
         "importance": "5"
      }
      }, 
    {
      "type": "Feature",
      "geometry": {
        "type": "Point",
        "coordinates": [13.054731, 47.796803]
      },
      "properties": {
         "id": "pmb1021",
         "title": "Künstlerhaus [Salzburg]",
         "lat": "47.796803",
         "lon": "13.054731",
         "timestamp": ["1904-09-19"],
         "importance": "1"
      }
      }, 
    {
      "type": "Feature",
      "geometry": {
        "type": "Point",
        "coordinates": [13.059584, 47.78663]
      },
      "properties": {
         "id": "pmb234411",
         "title": "Botanischer Garten der Universität Salzburg",
         "lat": "47.78663",
         "lon": "13.059584",
         "timestamp": ["1904-09-19"],
         "importance": "1"
      }
      }, 
    {
      "type": "Feature",
      "geometry": {
        "type": "Point",
        "coordinates": [16.389931, 48.219478]
      },
      "properties": {
         "id": "pmb234418",
         "title": "Nordbahnstraße 52–54",
         "lat": "48.219478",
         "lon": "16.389931",
         "timestamp": ["1904-09-24"],
         "importance": "1"
      }
      }, 
    {
      "type": "Feature",
      "geometry": {
        "type": "Point",
        "coordinates": [16.351379, 48.205168]
      },
      "properties": {
         "id": "pmb234425",
         "title": "Gustav Fimpel Robes et Costumes",
         "lat": "48.205168",
         "lon": "16.351379",
         "timestamp": ["1904-09-26", "1904-09-30", "1904-10-10"],
         "importance": "3"
      }
      }, 
    {
      "type": "Feature",
      "geometry": {
        "type": "Point",
        "coordinates": [16.363556, 48.211902]
      },
      "properties": {
         "id": "pmb234436",
         "title": "Teinfaltstraße 4",
         "lat": "48.211902",
         "lon": "16.363556",
         "timestamp": ["1904-09-28", "1904-10-12", "1904-10-25", "1904-11-29"],
         "importance": "4"
      }
      }, 
    {
      "type": "Feature",
      "geometry": {
        "type": "Point",
        "coordinates": [16.370342, 48.211369]
      },
      "properties": {
         "id": "pmb234548",
         "title": "Jordangasse 9",
         "lat": "48.211369",
         "lon": "16.370342",
         "timestamp": ["1904-10-31"],
         "importance": "1"
      }
      }, 
    {
      "type": "Feature",
      "geometry": {
        "type": "Point",
        "coordinates": [16.354292, 48.201096]
      },
      "properties": {
         "id": "pmb234569",
         "title": "Lindengasse 7",
         "lat": "48.201096",
         "lon": "16.354292",
         "timestamp": ["1904-11-07", "1904-12-01", "1904-12-02", "1904-12-05", "1904-12-07", "1904-12-16", "1904-12-23"],
         "importance": "7"
      }
      }, 
    {
      "type": "Feature",
      "geometry": {
        "type": "Point",
        "coordinates": [13.390262, 52.515056]
      },
      "properties": {
         "id": "pmb234614",
         "title": "F. W. Borchardt",
         "lat": "52.515056",
         "lon": "13.390262",
         "timestamp": ["1904-11-17", "1904-11-18", "1904-11-19"],
         "importance": "3"
      }
      }, 
    {
      "type": "Feature",
      "geometry": {
        "type": "Point",
        "coordinates": [13.388305555556, 52.516194444444]
      },
      "properties": {
         "id": "pmb185920",
         "title": "Passage-Theater",
         "lat": "52.516194444444",
         "lon": "13.388305555556",
         "timestamp": ["1904-11-19"],
         "importance": "1"
      }
      }, 
    {
      "type": "Feature",
      "geometry": {
        "type": "Point",
        "coordinates": [16.248125, 48.203822]
      },
      "properties": {
         "id": "pmb234669",
         "title": "Linzerstraße 464",
         "lat": "48.203822",
         "lon": "16.248125",
         "timestamp": ["1904-11-26"],
         "importance": "1"
      }
      }, 
    {
      "type": "Feature",
      "geometry": {
        "type": "Point",
        "coordinates": [16.374629, 48.196855]
      },
      "properties": {
         "id": "pmb234683",
         "title": "Wohllebengasse 6",
         "lat": "48.196855",
         "lon": "16.374629",
         "timestamp": ["1904-12-01"],
         "importance": "1"
      }
      }, 
    {
      "type": "Feature",
      "geometry": {
        "type": "Point",
        "coordinates": [16.352895, 48.238067]
      },
      "properties": {
         "id": "pmb234737",
         "title": "Reithlegasse 9",
         "lat": "48.238067",
         "lon": "16.352895",
         "timestamp": ["1904-12-17"],
         "importance": "1"
      }
      }, 
    {
      "type": "Feature",
      "geometry": {
        "type": "Point",
        "coordinates": [16.338341, 48.243053]
      },
      "properties": {
         "id": "pmb234753",
         "title": "Wilhelm Hohm. Zier- und Landschaftsgärtner",
         "lat": "48.243053",
         "lon": "16.338341",
         "timestamp": ["1904-12-18", "1904-12-20"],
         "importance": "2"
      }
      }
  ]
}