{
  "type": "FeatureCollection",
  "features": [
    {
      "type": "Feature", 
      "geometry": {
        "type": "LineString", 
        "coordinates": [
            [16.352811, 48.210713], 
            [16.372564182283, 48.201265597319], 
            [16.375811, 48.203191], 
            [16.365466, 48.214522], 
            [16.33472, 48.2304]
          ]
      },
      "properties": {
        "name": "23. März 1904"
      }
    },
    {
      "type": "Feature",
      "geometry": {
        "type": "Point",
        "coordinates": [
          16.375811, 48.203191
        ]
      },
      "properties": {
        "title": "Kaiserpanorama [Wien, Schubertring 4]",
        "timestamp": ["1904-03-23"],
        "pmb": "https://pmb.acdh.oeaw.ac.at/entity//"
      }
      },
    {
      "type": "Feature",
      "geometry": {
        "type": "Point",
        "coordinates": [
          16.365466, 48.214522
        ]
      },
      "properties": {
        "title": "Hohenstaufengasse 12",
        "timestamp": ["1904-03-23"],
        "pmb": "https://pmb.acdh.oeaw.ac.at/entity//"
      }
      },
    {
      "type": "Feature",
      "geometry": {
        "type": "Point",
        "coordinates": [
          16.372564182283, 48.201265597319
        ]
      },
      "properties": {
        "title": "Musikverein",
        "timestamp": ["1904-03-23"],
        "pmb": "https://pmb.acdh.oeaw.ac.at/entity//"
      }
      },
    {
      "type": "Feature",
      "geometry": {
        "type": "Point",
        "coordinates": [
          16.33472, 48.2304
        ]
      },
      "properties": {
        "title": "Edmund-Weiß-Gasse 7",
        "timestamp": ["1904-03-23"],
        "pmb": "https://pmb.acdh.oeaw.ac.at/entity//"
      }
      },
    {
      "type": "Feature",
      "geometry": {
        "type": "Point",
        "coordinates": [
          16.352811, 48.210713
        ]
      },
      "properties": {
        "title": "Sanatorium Fürth",
        "timestamp": ["1904-03-23"],
        "pmb": "https://pmb.acdh.oeaw.ac.at/entity//"
      }
      }
  ]
}