{
  "type": "FeatureCollection",
  "features": [
    {
      "type": "Feature",
      "geometry": {
        "type": "Point",
        "coordinates": [16.373056, 48.208333]
      },
      "properties": {
         "id": "pmb50",
         "title": "Wien",
         "lat": "48.208333",
         "lon": "16.373056",
         "timestamp": ["1904-09-01", "1904-09-02", "1904-09-03", "1904-09-20", "1904-09-21", "1904-09-22", "1904-09-23", "1904-09-24", "1904-09-25", "1904-09-26", "1904-09-27", "1904-09-28", "1904-09-29", "1904-09-30"],
         "importance": "14"
      }
      }, 
    {
      "type": "Feature",
      "geometry": {
        "type": "Point",
        "coordinates": [16.337778, 48.196667]
      },
      "properties": {
         "id": "pmb184918",
         "title": "Westbahnhof",
         "lat": "48.196667",
         "lon": "16.337778",
         "timestamp": ["1904-09-23"],
         "importance": "1"
      }
      }, 
    {
      "type": "Feature",
      "geometry": {
        "type": "Point",
        "coordinates": [13.043904, 47.801903]
      },
      "properties": {
         "id": "pmb181",
         "title": "Café Bazar",
         "lat": "47.801903",
         "lon": "13.043904",
         "timestamp": ["1904-09-20"],
         "importance": "1"
      }
      }, 
    {
      "type": "Feature",
      "geometry": {
        "type": "Point",
        "coordinates": [13.042019, 47.805528]
      },
      "properties": {
         "id": "pmb180",
         "title": "Mirabell",
         "lat": "47.805528",
         "lon": "13.042019",
         "timestamp": ["1904-09-17", "1904-09-18", "1904-09-19"],
         "importance": "3"
      }
      }, 
    {
      "type": "Feature",
      "geometry": {
        "type": "Point",
        "coordinates": [16.368902, 48.20539]
      },
      "properties": {
         "id": "pmb192966",
         "title": "Lobkowitzplatz 1",
         "lat": "48.20539",
         "lon": "16.368902",
         "timestamp": ["1904-09-28"],
         "importance": "1"
      }
      }, 
    {
      "type": "Feature",
      "geometry": {
        "type": "Point",
        "coordinates": [16.35736, 48.21533]
      },
      "properties": {
         "id": "pmb168934",
         "title": "Frankgasse 1",
         "lat": "48.21533",
         "lon": "16.35736",
         "timestamp": ["1904-09-21", "1904-09-23", "1904-09-27", "1904-09-30"],
         "importance": "4"
      }
      }, 
    {
      "type": "Feature",
      "geometry": {
        "type": "Point",
        "coordinates": [16.258056, 48.201667]
      },
      "properties": {
         "id": "pmb271",
         "title": "Hütteldorf",
         "lat": "48.201667",
         "lon": "16.258056",
         "timestamp": ["1904-09-23"],
         "importance": "1"
      }
      }, 
    {
      "type": "Feature",
      "geometry": {
        "type": "Point",
        "coordinates": [13.047256, 47.794967]
      },
      "properties": {
         "id": "pmb638",
         "title": "Festung Hohensalzburg",
         "lat": "47.794967",
         "lon": "13.047256",
         "timestamp": ["1904-09-17"],
         "importance": "1"
      }
      }, 
    {
      "type": "Feature",
      "geometry": {
        "type": "Point",
        "coordinates": [13.60412, 47.711737]
      },
      "properties": {
         "id": "pmb92134",
         "title": "Ahornbühel",
         "lat": "47.711737",
         "lon": "13.60412",
         "timestamp": ["1904-09-04"],
         "importance": "1"
      }
      }, 
    {
      "type": "Feature",
      "geometry": {
        "type": "Point",
        "coordinates": [13.61926, 47.71356]
      },
      "properties": {
         "id": "pmb655",
         "title": "Hotel Kaiserkrone",
         "lat": "47.71356",
         "lon": "13.61926",
         "timestamp": ["1904-09-03", "1904-09-04", "1904-09-05"],
         "importance": "3"
      }
      }, 
    {
      "type": "Feature",
      "geometry": {
        "type": "Point",
        "coordinates": [13.045, 47.799167]
      },
      "properties": {
         "id": "pmb41187",
         "title": "Café Tomaselli",
         "lat": "47.799167",
         "lon": "13.045",
         "timestamp": ["1904-09-16", "1904-09-19"],
         "importance": "2"
      }
      }, 
    {
      "type": "Feature",
      "geometry": {
        "type": "Point",
        "coordinates": [13.045555555556, 47.796666666667]
      },
      "properties": {
         "id": "pmb190342",
         "title": "Petersfriedhof",
         "lat": "47.796666666667",
         "lon": "13.045555555556",
         "timestamp": ["1904-09-19"],
         "importance": "1"
      }
      }, 
    {
      "type": "Feature",
      "geometry": {
        "type": "Point",
        "coordinates": [16.375135, 48.204532]
      },
      "properties": {
         "id": "pmb199692",
         "title": "Schellinggasse 6",
         "lat": "48.204532",
         "lon": "16.375135",
         "timestamp": ["1904-09-02"],
         "importance": "1"
      }
      }, 
    {
      "type": "Feature",
      "geometry": {
        "type": "Point",
        "coordinates": [13.04777778, 47.79861111]
      },
      "properties": {
         "id": "pmb200926",
         "title": "Salzburg Museum",
         "lat": "47.79861111",
         "lon": "13.04777778",
         "timestamp": ["1904-09-17"],
         "importance": "1"
      }
      }, 
    {
      "type": "Feature",
      "geometry": {
        "type": "Point",
        "coordinates": [16.257741, 48.139276]
      },
      "properties": {
         "id": "pmb231810",
         "title": "Willergasse 2",
         "lat": "48.139276",
         "lon": "16.257741",
         "timestamp": ["1904-09-25"],
         "importance": "1"
      }
      }, 
    {
      "type": "Feature",
      "geometry": {
        "type": "Point",
        "coordinates": [16.361349, 48.223406]
      },
      "properties": {
         "id": "pmb231945",
         "title": "Porzellangasse 45",
         "lat": "48.223406",
         "lon": "16.361349",
         "timestamp": ["1904-09-01"],
         "importance": "1"
      }
      }, 
    {
      "type": "Feature",
      "geometry": {
        "type": "Point",
        "coordinates": [16.361751, 48.215689]
      },
      "properties": {
         "id": "pmb232256",
         "title": "Kolingasse 3",
         "lat": "48.215689",
         "lon": "16.361751",
         "timestamp": ["1904-09-02", "1904-09-26"],
         "importance": "2"
      }
      }, 
    {
      "type": "Feature",
      "geometry": {
        "type": "Point",
        "coordinates": [16.33472, 48.2304]
      },
      "properties": {
         "id": "pmb168940",
         "title": "Edmund-Weiß-Gasse 7",
         "lat": "48.2304",
         "lon": "16.33472",
         "timestamp": ["1904-09-20", "1904-09-23", "1904-09-24", "1904-09-27", "1904-09-29", "1904-09-30"],
         "importance": "6"
      }
      }, 
    {
      "type": "Feature",
      "geometry": {
        "type": "Point",
        "coordinates": [13.372111, 47.753992]
      },
      "properties": {
         "id": "pmb824",
         "title": "Hotel und Pension Lueg",
         "lat": "47.753992",
         "lon": "13.372111",
         "timestamp": ["1904-09-05", "1904-09-06", "1904-09-07", "1904-09-08", "1904-09-09", "1904-09-10", "1904-09-11", "1904-09-12", "1904-09-13", "1904-09-14", "1904-09-15"],
         "importance": "11"
      }
      }, 
    {
      "type": "Feature",
      "geometry": {
        "type": "Point",
        "coordinates": [13.38834286, 47.78689302]
      },
      "properties": {
         "id": "pmb234384",
         "title": "Burgruine Hüttenstein",
         "lat": "47.78689302",
         "lon": "13.38834286",
         "timestamp": ["1904-09-05"],
         "importance": "1"
      }
      }, 
    {
      "type": "Feature",
      "geometry": {
        "type": "Point",
        "coordinates": [13.38864326, 47.78265381]
      },
      "properties": {
         "id": "pmb234389",
         "title": "Krottensee",
         "lat": "47.78265381",
         "lon": "13.38864326",
         "timestamp": ["1904-09-05"],
         "importance": "1"
      }
      }, 
    {
      "type": "Feature",
      "geometry": {
        "type": "Point",
        "coordinates": [13.385272, 47.74443]
      },
      "properties": {
         "id": "pmb234399",
         "title": "Franzosenschanze 4",
         "lat": "47.74443",
         "lon": "13.385272",
         "timestamp": ["1904-09-06", "1904-09-16"],
         "importance": "2"
      }
      }, 
    {
      "type": "Feature",
      "geometry": {
        "type": "Point",
        "coordinates": [13.39757, 47.758296]
      },
      "properties": {
         "id": "pmb234404",
         "title": "Falkensteinwand St.Gilgen",
         "lat": "47.758296",
         "lon": "13.39757",
         "timestamp": ["1904-09-12"],
         "importance": "1"
      }
      }, 
    {
      "type": "Feature",
      "geometry": {
        "type": "Point",
        "coordinates": [13.372211, 47.754041]
      },
      "properties": {
         "id": "pmb186",
         "title": "Lueg am Wolfgangsee",
         "lat": "47.754041",
         "lon": "13.372211",
         "timestamp": ["1904-09-16"],
         "importance": "1"
      }
      }, 
    {
      "type": "Feature",
      "geometry": {
        "type": "Point",
        "coordinates": [13.04367, 47.80308]
      },
      "properties": {
         "id": "pmb231",
         "title": "Hotel Bristol Salzburg",
         "lat": "47.80308",
         "lon": "13.04367",
         "timestamp": ["1904-09-16", "1904-09-17"],
         "importance": "2"
      }
      }, 
    {
      "type": "Feature",
      "geometry": {
        "type": "Point",
        "coordinates": [13.045141, 47.808997]
      },
      "properties": {
         "id": "pmb40804",
         "title": "Hotel und Pension Nelböck",
         "lat": "47.808997",
         "lon": "13.045141",
         "timestamp": ["1904-09-16", "1904-09-17", "1904-09-18", "1904-09-19", "1904-09-20"],
         "importance": "5"
      }
      }, 
    {
      "type": "Feature",
      "geometry": {
        "type": "Point",
        "coordinates": [13.054731, 47.796803]
      },
      "properties": {
         "id": "pmb1021",
         "title": "Künstlerhaus [Salzburg]",
         "lat": "47.796803",
         "lon": "13.054731",
         "timestamp": ["1904-09-19"],
         "importance": "1"
      }
      }, 
    {
      "type": "Feature",
      "geometry": {
        "type": "Point",
        "coordinates": [13.059584, 47.78663]
      },
      "properties": {
         "id": "pmb234411",
         "title": "Botanischer Garten der Universität Salzburg",
         "lat": "47.78663",
         "lon": "13.059584",
         "timestamp": ["1904-09-19"],
         "importance": "1"
      }
      }, 
    {
      "type": "Feature",
      "geometry": {
        "type": "Point",
        "coordinates": [16.389931, 48.219478]
      },
      "properties": {
         "id": "pmb234418",
         "title": "Nordbahnstraße 52–54",
         "lat": "48.219478",
         "lon": "16.389931",
         "timestamp": ["1904-09-24"],
         "importance": "1"
      }
      }, 
    {
      "type": "Feature",
      "geometry": {
        "type": "Point",
        "coordinates": [16.351379, 48.205168]
      },
      "properties": {
         "id": "pmb234425",
         "title": "Gustav Fimpel Robes et Costumes",
         "lat": "48.205168",
         "lon": "16.351379",
         "timestamp": ["1904-09-26", "1904-09-30"],
         "importance": "2"
      }
      }, 
    {
      "type": "Feature",
      "geometry": {
        "type": "Point",
        "coordinates": [16.363556, 48.211902]
      },
      "properties": {
         "id": "pmb234436",
         "title": "Teinfaltstraße 4",
         "lat": "48.211902",
         "lon": "16.363556",
         "timestamp": ["1904-09-28"],
         "importance": "1"
      }
      }
  ]
}