{
  "type": "FeatureCollection",
  "features": [
    {
      "type": "Feature",
      "geometry": {
        "type": "Point",
        "coordinates": [16.373056, 48.208333]
      },
      "properties": {
         "id": "pmb50",
         "title": "Wien",
         "lat": "48.208333",
         "lon": "16.373056",
         "timestamp": ["1904-07-01", "1904-07-02", "1904-07-03", "1904-07-04", "1904-07-05", "1904-07-06", "1904-07-07", "1904-07-08", "1904-07-09", "1904-07-10", "1904-07-11", "1904-07-23", "1904-07-24", "1904-07-25", "1904-07-26", "1904-07-27", "1904-07-28", "1904-07-29", "1904-07-30", "1904-07-31"],
         "importance": "20"
      }
      }, 
    {
      "type": "Feature",
      "geometry": {
        "type": "Point",
        "coordinates": [16.430054, 48.194558]
      },
      "properties": {
         "id": "pmb8",
         "title": "Prater",
         "lat": "48.194558",
         "lon": "16.430054",
         "timestamp": ["1904-07-07", "1904-07-30"],
         "importance": "2"
      }
      }, 
    {
      "type": "Feature",
      "geometry": {
        "type": "Point",
        "coordinates": [16.32522, 48.30521]
      },
      "properties": {
         "id": "pmb865",
         "title": "Klosterneuburg",
         "lat": "48.30521",
         "lon": "16.32522",
         "timestamp": ["1904-07-04"],
         "importance": "1"
      }
      }, 
    {
      "type": "Feature",
      "geometry": {
        "type": "Point",
        "coordinates": [16.33255, 48.27617]
      },
      "properties": {
         "id": "pmb574",
         "title": "Kahlenberg",
         "lat": "48.27617",
         "lon": "16.33255",
         "timestamp": ["1904-07-04"],
         "importance": "1"
      }
      }, 
    {
      "type": "Feature",
      "geometry": {
        "type": "Point",
        "coordinates": [15.83333, 47.7]
      },
      "properties": {
         "id": "pmb483",
         "title": "Reichenau an der Rax",
         "lat": "47.7",
         "lon": "15.83333",
         "timestamp": ["1904-07-16", "1904-07-19"],
         "importance": "2"
      }
      }, 
    {
      "type": "Feature",
      "geometry": {
        "type": "Point",
        "coordinates": [16.402222, 48.214722]
      },
      "properties": {
         "id": "pmb685",
         "title": "Wurstelprater",
         "lat": "48.214722",
         "lon": "16.402222",
         "timestamp": ["1904-07-07"],
         "importance": "1"
      }
      }, 
    {
      "type": "Feature",
      "geometry": {
        "type": "Point",
        "coordinates": [16.379685, 48.188208]
      },
      "properties": {
         "id": "pmb187206",
         "title": "Restauration »Am Südbahnhof«",
         "lat": "48.188208",
         "lon": "16.379685",
         "timestamp": ["1904-07-23"],
         "importance": "1"
      }
      }, 
    {
      "type": "Feature",
      "geometry": {
        "type": "Point",
        "coordinates": [16.371211, 48.206416]
      },
      "properties": {
         "id": "pmb96",
         "title": "Meissl & Schadn",
         "lat": "48.206416",
         "lon": "16.371211",
         "timestamp": ["1904-07-28"],
         "importance": "1"
      }
      }, 
    {
      "type": "Feature",
      "geometry": {
        "type": "Point",
        "coordinates": [16.333568462613, 48.235119783861]
      },
      "properties": {
         "id": "pmb113",
         "title": "Türkenschanzpark",
         "lat": "48.235119783861",
         "lon": "16.333568462613",
         "timestamp": ["1904-07-24", "1904-07-25"],
         "importance": "2"
      }
      }, 
    {
      "type": "Feature",
      "geometry": {
        "type": "Point",
        "coordinates": [16.276509500872, 48.241960480337]
      },
      "properties": {
         "id": "pmb176",
         "title": "Schwarzenbergpark",
         "lat": "48.241960480337",
         "lon": "16.276509500872",
         "timestamp": ["1904-07-02"],
         "importance": "1"
      }
      }, 
    {
      "type": "Feature",
      "geometry": {
        "type": "Point",
        "coordinates": [16.26269, 48.24616]
      },
      "properties": {
         "id": "pmb456",
         "title": "Rohrerhütte",
         "lat": "48.24616",
         "lon": "16.26269",
         "timestamp": ["1904-07-09"],
         "importance": "1"
      }
      }, 
    {
      "type": "Feature",
      "geometry": {
        "type": "Point",
        "coordinates": [16.300034240016, 48.246838181084]
      },
      "properties": {
         "id": "pmb169",
         "title": "Pötzleinsdorf",
         "lat": "48.246838181084",
         "lon": "16.300034240016",
         "timestamp": ["1904-07-02", "1904-07-03", "1904-07-06", "1904-07-08", "1904-07-09", "1904-07-25", "1904-07-26", "1904-07-31"],
         "importance": "8"
      }
      }, 
    {
      "type": "Feature",
      "geometry": {
        "type": "Point",
        "coordinates": [16.28610371233, 48.233119188484]
      },
      "properties": {
         "id": "pmb170",
         "title": "Neuwaldegg",
         "lat": "48.233119188484",
         "lon": "16.28610371233",
         "timestamp": ["1904-07-30", "1904-07-31"],
         "importance": "2"
      }
      }, 
    {
      "type": "Feature",
      "geometry": {
        "type": "Point",
        "coordinates": [16.35736, 48.21533]
      },
      "properties": {
         "id": "pmb168934",
         "title": "Frankgasse 1",
         "lat": "48.21533",
         "lon": "16.35736",
         "timestamp": ["1904-07-08"],
         "importance": "1"
      }
      }, 
    {
      "type": "Feature",
      "geometry": {
        "type": "Point",
        "coordinates": [15.8634, 47.69209]
      },
      "properties": {
         "id": "pmb948",
         "title": "Payerbach",
         "lat": "47.69209",
         "lon": "15.8634",
         "timestamp": ["1904-07-12", "1904-07-13", "1904-07-14", "1904-07-15", "1904-07-16", "1904-07-17", "1904-07-18", "1904-07-19", "1904-07-20", "1904-07-21", "1904-07-22", "1904-07-23"],
         "importance": "12"
      }
      }, 
    {
      "type": "Feature",
      "geometry": {
        "type": "Point",
        "coordinates": [15.73019, 47.77325]
      },
      "properties": {
         "id": "pmb90134",
         "title": "Singerin",
         "lat": "47.77325",
         "lon": "15.73019",
         "timestamp": ["1904-07-15"],
         "importance": "1"
      }
      }, 
    {
      "type": "Feature",
      "geometry": {
        "type": "Point",
        "coordinates": [16.258056, 48.201667]
      },
      "properties": {
         "id": "pmb271",
         "title": "Hütteldorf",
         "lat": "48.201667",
         "lon": "16.258056",
         "timestamp": ["1904-07-31"],
         "importance": "1"
      }
      }, 
    {
      "type": "Feature",
      "geometry": {
        "type": "Point",
        "coordinates": [16.16793, 48.24514]
      },
      "properties": {
         "id": "pmb942",
         "title": "Mauerbach",
         "lat": "48.24514",
         "lon": "16.16793",
         "timestamp": ["1904-07-31"],
         "importance": "1"
      }
      }, 
    {
      "type": "Feature",
      "geometry": {
        "type": "Point",
        "coordinates": [15.80915, 47.69255]
      },
      "properties": {
         "id": "pmb470",
         "title": "Edlach",
         "lat": "47.69255",
         "lon": "15.80915",
         "timestamp": ["1904-07-18"],
         "importance": "1"
      }
      }, 
    {
      "type": "Feature",
      "geometry": {
        "type": "Point",
        "coordinates": [15.71667, 47.7]
      },
      "properties": {
         "id": "pmb91572",
         "title": "Raxalpe",
         "lat": "47.7",
         "lon": "15.71667",
         "timestamp": ["1904-07-18", "1904-07-19", "1904-07-22"],
         "importance": "3"
      }
      }, 
    {
      "type": "Feature",
      "geometry": {
        "type": "Point",
        "coordinates": [16.23036, 48.246719]
      },
      "properties": {
         "id": "pmb539",
         "title": "Sophienalpe",
         "lat": "48.246719",
         "lon": "16.23036",
         "timestamp": ["1904-07-30"],
         "importance": "1"
      }
      }, 
    {
      "type": "Feature",
      "geometry": {
        "type": "Point",
        "coordinates": [15.84453, 47.69852]
      },
      "properties": {
         "id": "pmb44982",
         "title": "Kurhaus Rudolfsbad",
         "lat": "47.69852",
         "lon": "15.84453",
         "timestamp": ["1904-07-12", "1904-07-13", "1904-07-14", "1904-07-15", "1904-07-16", "1904-07-17", "1904-07-18", "1904-07-19", "1904-07-20", "1904-07-21", "1904-07-22", "1904-07-23"],
         "importance": "12"
      }
      }, 
    {
      "type": "Feature",
      "geometry": {
        "type": "Point",
        "coordinates": [16.33472, 48.2304]
      },
      "properties": {
         "id": "pmb168940",
         "title": "Edmund-Weiß-Gasse 7",
         "lat": "48.2304",
         "lon": "16.33472",
         "timestamp": ["1904-07-01", "1904-07-02", "1904-07-03", "1904-07-04", "1904-07-05", "1904-07-06", "1904-07-07", "1904-07-08", "1904-07-09", "1904-07-10", "1904-07-11", "1904-07-23", "1904-07-24", "1904-07-25", "1904-07-26", "1904-07-27", "1904-07-28", "1904-07-29", "1904-07-30", "1904-07-31"],
         "importance": "20"
      }
      }, 
    {
      "type": "Feature",
      "geometry": {
        "type": "Point",
        "coordinates": [15.8075, 47.775833]
      },
      "properties": {
         "id": "pmb5836",
         "title": "Hochschneeberg",
         "lat": "47.775833",
         "lon": "15.8075",
         "timestamp": ["1904-07-22"],
         "importance": "1"
      }
      }, 
    {
      "type": "Feature",
      "geometry": {
        "type": "Point",
        "coordinates": [16.320719, 48.238032]
      },
      "properties": {
         "id": "pmb248",
         "title": "Kratzer’s Restaurant Gersthof",
         "lat": "48.238032",
         "lon": "16.320719",
         "timestamp": ["1904-07-06", "1904-07-11"],
         "importance": "2"
      }
      }, 
    {
      "type": "Feature",
      "geometry": {
        "type": "Point",
        "coordinates": [16.314491, 48.242571]
      },
      "properties": {
         "id": "pmb231941",
         "title": "Starkfriedgasse 12",
         "lat": "48.242571",
         "lon": "16.314491",
         "timestamp": ["1904-07-06", "1904-07-09", "1904-07-25"],
         "importance": "3"
      }
      }, 
    {
      "type": "Feature",
      "geometry": {
        "type": "Point",
        "coordinates": [16.4031, 48.2105]
      },
      "properties": {
         "id": "pmb234204",
         "title": "Konstantinhügel",
         "lat": "48.2105",
         "lon": "16.4031",
         "timestamp": ["1904-07-07", "1904-07-30"],
         "importance": "2"
      }
      }, 
    {
      "type": "Feature",
      "geometry": {
        "type": "Point",
        "coordinates": [16.340833, 48.228984]
      },
      "properties": {
         "id": "pmb234238",
         "title": "Haizingergasse 29",
         "lat": "48.228984",
         "lon": "16.340833",
         "timestamp": ["1904-07-07"],
         "importance": "1"
      }
      }, 
    {
      "type": "Feature",
      "geometry": {
        "type": "Point",
        "coordinates": [16.328044, 48.238759]
      },
      "properties": {
         "id": "pmb841",
         "title": "Döblinger Friedhof",
         "lat": "48.238759",
         "lon": "16.328044",
         "timestamp": ["1904-07-07"],
         "importance": "1"
      }
      }, 
    {
      "type": "Feature",
      "geometry": {
        "type": "Point",
        "coordinates": [16.343483, 48.224117]
      },
      "properties": {
         "id": "pmb234221",
         "title": "Hotel Steinböck",
         "lat": "48.224117",
         "lon": "16.343483",
         "timestamp": ["1904-07-10"],
         "importance": "1"
      }
      }, 
    {
      "type": "Feature",
      "geometry": {
        "type": "Point",
        "coordinates": [15.66667, 47.73333]
      },
      "properties": {
         "id": "pmb40881",
         "title": "Nasswald",
         "lat": "47.73333",
         "lon": "15.66667",
         "timestamp": ["1904-07-15"],
         "importance": "1"
      }
      }, 
    {
      "type": "Feature",
      "geometry": {
        "type": "Point",
        "coordinates": [15.6707854, 47.71778962]
      },
      "properties": {
         "id": "pmb234252",
         "title": "Binder-Wirtshaus im Reisstal",
         "lat": "47.71778962",
         "lon": "15.6707854",
         "timestamp": ["1904-07-15", "1904-07-16"],
         "importance": "2"
      }
      }, 
    {
      "type": "Feature",
      "geometry": {
        "type": "Point",
        "coordinates": [15.697778, 47.763781]
      },
      "properties": {
         "id": "pmb234255",
         "title": "Oberhof [Schwarzau]",
         "lat": "47.763781",
         "lon": "15.697778",
         "timestamp": ["1904-07-15"],
         "importance": "1"
      }
      }, 
    {
      "type": "Feature",
      "geometry": {
        "type": "Point",
        "coordinates": [15.81667, 47.71667]
      },
      "properties": {
         "id": "pmb90901",
         "title": "Höllental",
         "lat": "47.71667",
         "lon": "15.81667",
         "timestamp": ["1904-07-15"],
         "importance": "1"
      }
      }, 
    {
      "type": "Feature",
      "geometry": {
        "type": "Point",
        "coordinates": [15.66388888888889, 47.711666666666666]
      },
      "properties": {
         "id": "pmb234270",
         "title": "Nasskamm",
         "lat": "47.711666666666666",
         "lon": "15.66388888888889",
         "timestamp": ["1904-07-16"],
         "importance": "1"
      }
      }, 
    {
      "type": "Feature",
      "geometry": {
        "type": "Point",
        "coordinates": [15.86303, 47.6913]
      },
      "properties": {
         "id": "pmb234273",
         "title": "Franz Oberdorfer",
         "lat": "47.6913",
         "lon": "15.86303",
         "timestamp": ["1904-07-16"],
         "importance": "1"
      }
      }, 
    {
      "type": "Feature",
      "geometry": {
        "type": "Point",
        "coordinates": [15.62863, 47.64784]
      },
      "properties": {
         "id": "pmb90995",
         "title": "Kapellen",
         "lat": "47.64784",
         "lon": "15.62863",
         "timestamp": ["1904-07-16"],
         "importance": "1"
      }
      }, 
    {
      "type": "Feature",
      "geometry": {
        "type": "Point",
        "coordinates": [15.7621, 47.7132]
      },
      "properties": {
         "id": "pmb234277",
         "title": "Otto-Schutzhaus",
         "lat": "47.7132",
         "lon": "15.7621",
         "timestamp": ["1904-07-18"],
         "importance": "1"
      }
      }, 
    {
      "type": "Feature",
      "geometry": {
        "type": "Point",
        "coordinates": [15.68948, 47.68897]
      },
      "properties": {
         "id": "pmb20756",
         "title": "Rax",
         "lat": "47.68897",
         "lon": "15.68948",
         "timestamp": ["1904-07-18"],
         "importance": "1"
      }
      }, 
    {
      "type": "Feature",
      "geometry": {
        "type": "Point",
        "coordinates": [15.7042, 47.6886]
      },
      "properties": {
         "id": "pmb234288",
         "title": "Karl-Ludwig-Haus",
         "lat": "47.6886",
         "lon": "15.7042",
         "timestamp": ["1904-07-18", "1904-07-19"],
         "importance": "2"
      }
      }, 
    {
      "type": "Feature",
      "geometry": {
        "type": "Point",
        "coordinates": [15.7596, 47.6757]
      },
      "properties": {
         "id": "pmb51370",
         "title": "Hotel Preinerwand",
         "lat": "47.6757",
         "lon": "15.7596",
         "timestamp": ["1904-07-19", "1904-07-22"],
         "importance": "2"
      }
      }, 
    {
      "type": "Feature",
      "geometry": {
        "type": "Point",
        "coordinates": [15.84714, 47.694292]
      },
      "properties": {
         "id": "pmb234301",
         "title": "August Königseder",
         "lat": "47.694292",
         "lon": "15.84714",
         "timestamp": ["1904-07-21"],
         "importance": "1"
      }
      }, 
    {
      "type": "Feature",
      "geometry": {
        "type": "Point",
        "coordinates": [16.243324956494, 48.217820644817]
      },
      "properties": {
         "id": "pmb550",
         "title": "Knödelhütte",
         "lat": "48.217820644817",
         "lon": "16.243324956494",
         "timestamp": ["1904-07-30"],
         "importance": "1"
      }
      }
  ]
}