{
  "type": "FeatureCollection",
  "features": [
    {
      "type": "Feature", 
      "geometry": {
        "type": "LineString", 
        "coordinates": [
            [16.30202, 48.18636], 
            [16.30202, 48.18636], 
            [16.373056, 48.208333], 
            [16.370342, 48.211369], 
            [16.353908, 48.222789], 
            [16.33472, 48.2304]
          ]
      },
      "properties": {
        "name": "31. Oktober 1904"
      }
    },
    {
      "type": "Feature",
      "geometry": {
        "type": "Point",
        "coordinates": [
          16.373056, 48.208333
        ]
      },
      "properties": {
        "title": "Wien",
        "timestamp": ["1904-10-31"],
        "pmb": "https://pmb.acdh.oeaw.ac.at/entity//", 
        "wikipedia": "https://de.wikipedia.org/wiki/Wien"
      }
      },
    {
      "type": "Feature",
      "geometry": {
        "type": "Point",
        "coordinates": [
          16.30202, 48.18636
        ]
      },
      "properties": {
        "title": "Ottakringer Bräu",
        "timestamp": ["1904-10-31"],
        "pmb": "https://pmb.acdh.oeaw.ac.at/entity//"
      }
      },
    {
      "type": "Feature",
      "geometry": {
        "type": "Point",
        "coordinates": [
          16.370342, 48.211369
        ]
      },
      "properties": {
        "title": "Jordangasse 9",
        "timestamp": ["1904-10-31"],
        "pmb": "https://pmb.acdh.oeaw.ac.at/entity//"
      }
      },
    {
      "type": "Feature",
      "geometry": {
        "type": "Point",
        "coordinates": [
          16.30202, 48.18636
        ]
      },
      "properties": {
        "title": "Ottakringer Bräu",
        "timestamp": ["1904-10-31"],
        "pmb": "https://pmb.acdh.oeaw.ac.at/entity//"
      }
      },
    {
      "type": "Feature",
      "geometry": {
        "type": "Point",
        "coordinates": [
          16.353908, 48.222789
        ]
      },
      "properties": {
        "title": "Nussdorfer Straße 4",
        "timestamp": ["1904-10-31"],
        "pmb": "https://pmb.acdh.oeaw.ac.at/entity//"
      }
      },
    {
      "type": "Feature",
      "geometry": {
        "type": "Point",
        "coordinates": [
          16.33472, 48.2304
        ]
      },
      "properties": {
        "title": "Edmund-Weiß-Gasse 7",
        "timestamp": ["1904-10-31"],
        "pmb": "https://pmb.acdh.oeaw.ac.at/entity//"
      }
      }
  ]
}