{
  "type": "FeatureCollection",
  "features": [
    {
      "type": "Feature",
      "geometry": {
        "type": "Point",
        "coordinates": [16.373056, 48.208333]
      },
      "properties": {
         "id": "pmb50",
         "title": "Wien",
         "lat": "48.208333",
         "lon": "16.373056",
         "timestamp": ["1904-04-01", "1904-04-02", "1904-04-03", "1904-04-04", "1904-04-05", "1904-04-06", "1904-04-07", "1904-04-08", "1904-04-09", "1904-04-10", "1904-04-11", "1904-04-12", "1904-04-13", "1904-04-14", "1904-04-15", "1904-04-16", "1904-04-17", "1904-04-18", "1904-04-19", "1904-04-20", "1904-04-21", "1904-04-22", "1904-04-23", "1904-04-24", "1904-04-25", "1904-04-26", "1904-04-27", "1904-04-28", "1904-04-29", "1904-04-30"],
         "importance": "30"
      }
      }, 
    {
      "type": "Feature",
      "geometry": {
        "type": "Point",
        "coordinates": [16.3691, 48.203]
      },
      "properties": {
         "id": "pmb15",
         "title": "Oper",
         "lat": "48.203",
         "lon": "16.3691",
         "timestamp": ["1904-04-22"],
         "importance": "1"
      }
      }, 
    {
      "type": "Feature",
      "geometry": {
        "type": "Point",
        "coordinates": [16.36756870745, 48.244596474277]
      },
      "properties": {
         "id": "pmb159",
         "title": "Heiligenstadt",
         "lat": "48.244596474277",
         "lon": "16.36756870745",
         "timestamp": ["1904-04-17"],
         "importance": "1"
      }
      }, 
    {
      "type": "Feature",
      "geometry": {
        "type": "Point",
        "coordinates": [16.29101, 48.17547]
      },
      "properties": {
         "id": "pmb63",
         "title": "XIII., Hietzing",
         "lat": "48.17547",
         "lon": "16.29101",
         "timestamp": ["1904-04-14", "1904-04-27"],
         "importance": "2"
      }
      }, 
    {
      "type": "Feature",
      "geometry": {
        "type": "Point",
        "coordinates": [16.379829498031, 48.187455471378]
      },
      "properties": {
         "id": "pmb132",
         "title": "Südbahnhof",
         "lat": "48.187455471378",
         "lon": "16.379829498031",
         "timestamp": ["1904-04-04", "1904-04-24", "1904-04-30"],
         "importance": "3"
      }
      }, 
    {
      "type": "Feature",
      "geometry": {
        "type": "Point",
        "coordinates": [16.02433, 48.17936]
      },
      "properties": {
         "id": "pmb11543",
         "title": "Rekawinkel",
         "lat": "48.17936",
         "lon": "16.02433",
         "timestamp": ["1904-04-17"],
         "importance": "1"
      }
      }, 
    {
      "type": "Feature",
      "geometry": {
        "type": "Point",
        "coordinates": [16.3566, 48.205142]
      },
      "properties": {
         "id": "pmb20",
         "title": "Volkstheater",
         "lat": "48.205142",
         "lon": "16.3566",
         "timestamp": ["1904-04-05", "1904-04-07"],
         "importance": "2"
      }
      }, 
    {
      "type": "Feature",
      "geometry": {
        "type": "Point",
        "coordinates": [16.367998, 48.203159]
      },
      "properties": {
         "id": "pmb185989",
         "title": "Opernrestaurant",
         "lat": "48.203159",
         "lon": "16.367998",
         "timestamp": ["1904-04-25"],
         "importance": "1"
      }
      }, 
    {
      "type": "Feature",
      "geometry": {
        "type": "Point",
        "coordinates": [16.06409, 48.33327]
      },
      "properties": {
         "id": "pmb41239",
         "title": "Tulln an der Donau",
         "lat": "48.33327",
         "lon": "16.06409",
         "timestamp": ["1904-04-17"],
         "importance": "1"
      }
      }, 
    {
      "type": "Feature",
      "geometry": {
        "type": "Point",
        "coordinates": [16.371211, 48.206416]
      },
      "properties": {
         "id": "pmb96",
         "title": "Meissl & Schadn",
         "lat": "48.206416",
         "lon": "16.371211",
         "timestamp": ["1904-04-08", "1904-04-23", "1904-04-28"],
         "importance": "3"
      }
      }, 
    {
      "type": "Feature",
      "geometry": {
        "type": "Point",
        "coordinates": [16.30114, 48.1666]
      },
      "properties": {
         "id": "pmb18027",
         "title": "Hetzendorf",
         "lat": "48.1666",
         "lon": "16.30114",
         "timestamp": ["1904-04-14"],
         "importance": "1"
      }
      }, 
    {
      "type": "Feature",
      "geometry": {
        "type": "Point",
        "coordinates": [16.28929, 48.17381]
      },
      "properties": {
         "id": "pmb24136",
         "title": "Lainz",
         "lat": "48.17381",
         "lon": "16.28929",
         "timestamp": ["1904-04-14"],
         "importance": "1"
      }
      }, 
    {
      "type": "Feature",
      "geometry": {
        "type": "Point",
        "coordinates": [16.300034240016, 48.246838181084]
      },
      "properties": {
         "id": "pmb169",
         "title": "Pötzleinsdorf",
         "lat": "48.246838181084",
         "lon": "16.300034240016",
         "timestamp": ["1904-04-12", "1904-04-15", "1904-04-24"],
         "importance": "3"
      }
      }, 
    {
      "type": "Feature",
      "geometry": {
        "type": "Point",
        "coordinates": [16.28610371233, 48.233119188484]
      },
      "properties": {
         "id": "pmb170",
         "title": "Neuwaldegg",
         "lat": "48.233119188484",
         "lon": "16.28610371233",
         "timestamp": ["1904-04-03", "1904-04-20", "1904-04-24"],
         "importance": "3"
      }
      }, 
    {
      "type": "Feature",
      "geometry": {
        "type": "Point",
        "coordinates": [16.209444, 48.327778]
      },
      "properties": {
         "id": "pmb1246",
         "title": "St. Andrä-Wördern",
         "lat": "48.327778",
         "lon": "16.209444",
         "timestamp": ["1904-04-17"],
         "importance": "1"
      }
      }, 
    {
      "type": "Feature",
      "geometry": {
        "type": "Point",
        "coordinates": [16.35736, 48.21533]
      },
      "properties": {
         "id": "pmb168934",
         "title": "Frankgasse 1",
         "lat": "48.21533",
         "lon": "16.35736",
         "timestamp": ["1904-04-24", "1904-04-30"],
         "importance": "2"
      }
      }, 
    {
      "type": "Feature",
      "geometry": {
        "type": "Point",
        "coordinates": [16.258056, 48.201667]
      },
      "properties": {
         "id": "pmb271",
         "title": "Hütteldorf",
         "lat": "48.201667",
         "lon": "16.258056",
         "timestamp": ["1904-04-03"],
         "importance": "1"
      }
      }, 
    {
      "type": "Feature",
      "geometry": {
        "type": "Point",
        "coordinates": [16.383445, 48.201636]
      },
      "properties": {
         "id": "pmb199403",
         "title": "Reisnerstraße 13",
         "lat": "48.201636",
         "lon": "16.383445",
         "timestamp": ["1904-04-29"],
         "importance": "1"
      }
      }, 
    {
      "type": "Feature",
      "geometry": {
        "type": "Point",
        "coordinates": [16.375135, 48.204532]
      },
      "properties": {
         "id": "pmb199692",
         "title": "Schellinggasse 6",
         "lat": "48.204532",
         "lon": "16.375135",
         "timestamp": ["1904-04-01", "1904-04-08"],
         "importance": "2"
      }
      }, 
    {
      "type": "Feature",
      "geometry": {
        "type": "Point",
        "coordinates": [16.368738, 48.213038]
      },
      "properties": {
         "id": "pmb207296",
         "title": "Tiefer Graben 23",
         "lat": "48.213038",
         "lon": "16.368738",
         "timestamp": ["1904-04-04", "1904-04-09", "1904-04-19", "1904-04-26"],
         "importance": "4"
      }
      }, 
    {
      "type": "Feature",
      "geometry": {
        "type": "Point",
        "coordinates": [16.328822485916, 48.231291362993]
      },
      "properties": {
         "id": "pmb291",
         "title": "Gersthof",
         "lat": "48.231291362993",
         "lon": "16.328822485916",
         "timestamp": ["1904-04-12"],
         "importance": "1"
      }
      }, 
    {
      "type": "Feature",
      "geometry": {
        "type": "Point",
        "coordinates": [16.2911, 48.2553]
      },
      "properties": {
         "id": "pmb242",
         "title": "Salmannsdorf",
         "lat": "48.2553",
         "lon": "16.2911",
         "timestamp": ["1904-04-10"],
         "importance": "1"
      }
      }, 
    {
      "type": "Feature",
      "geometry": {
        "type": "Point",
        "coordinates": [16.362746, 48.21997]
      },
      "properties": {
         "id": "pmb231653",
         "title": "Müllnergasse 3",
         "lat": "48.21997",
         "lon": "16.362746",
         "timestamp": ["1904-04-03"],
         "importance": "1"
      }
      }, 
    {
      "type": "Feature",
      "geometry": {
        "type": "Point",
        "coordinates": [16.353571, 48.239999]
      },
      "properties": {
         "id": "pmb231906",
         "title": "Dollinergasse 8",
         "lat": "48.239999",
         "lon": "16.353571",
         "timestamp": ["1904-04-29"],
         "importance": "1"
      }
      }, 
    {
      "type": "Feature",
      "geometry": {
        "type": "Point",
        "coordinates": [16.283758, 48.1803]
      },
      "properties": {
         "id": "pmb232311",
         "title": "Münichreiterstraße 1",
         "lat": "48.1803",
         "lon": "16.283758",
         "timestamp": ["1904-04-14"],
         "importance": "1"
      }
      }, 
    {
      "type": "Feature",
      "geometry": {
        "type": "Point",
        "coordinates": [16.33472, 48.2304]
      },
      "properties": {
         "id": "pmb168940",
         "title": "Edmund-Weiß-Gasse 7",
         "lat": "48.2304",
         "lon": "16.33472",
         "timestamp": ["1904-04-01", "1904-04-02", "1904-04-03", "1904-04-04", "1904-04-05", "1904-04-06", "1904-04-07", "1904-04-08", "1904-04-09", "1904-04-10", "1904-04-11", "1904-04-12", "1904-04-13", "1904-04-14", "1904-04-15", "1904-04-16", "1904-04-17", "1904-04-18", "1904-04-19", "1904-04-20", "1904-04-21", "1904-04-22", "1904-04-23", "1904-04-24", "1904-04-25", "1904-04-26", "1904-04-27", "1904-04-28", "1904-04-29", "1904-04-30"],
         "importance": "30"
      }
      }, 
    {
      "type": "Feature",
      "geometry": {
        "type": "Point",
        "coordinates": [16.353908, 48.222789]
      },
      "properties": {
         "id": "pmb236593",
         "title": "Nussdorfer Straße 4",
         "lat": "48.222789",
         "lon": "16.353908",
         "timestamp": ["1904-04-23"],
         "importance": "1"
      }
      }, 
    {
      "type": "Feature",
      "geometry": {
        "type": "Point",
        "coordinates": [16.375811, 48.203191]
      },
      "properties": {
         "id": "pmb233517",
         "title": "Kaiserpanorama [Wien, Schubertring 4]",
         "lat": "48.203191",
         "lon": "16.375811",
         "timestamp": ["1904-04-04", "1904-04-15", "1904-04-18", "1904-04-19", "1904-04-29"],
         "importance": "5"
      }
      }, 
    {
      "type": "Feature",
      "geometry": {
        "type": "Point",
        "coordinates": [16.37171, 48.206559]
      },
      "properties": {
         "id": "pmb233917",
         "title": "Ernst Wahliss Porzellan-, Glas und Gemischtwarenhandlung",
         "lat": "48.206559",
         "lon": "16.37171",
         "timestamp": ["1904-04-07"],
         "importance": "1"
      }
      }, 
    {
      "type": "Feature",
      "geometry": {
        "type": "Point",
        "coordinates": [16.394539, 48.203093]
      },
      "properties": {
         "id": "pmb233934",
         "title": "Atelier und Kunstanstalt J. Loewy",
         "lat": "48.203093",
         "lon": "16.394539",
         "timestamp": ["1904-04-13", "1904-04-16"],
         "importance": "2"
      }
      }, 
    {
      "type": "Feature",
      "geometry": {
        "type": "Point",
        "coordinates": [16.343738, 48.212072]
      },
      "properties": {
         "id": "pmb233937",
         "title": "Florianigasse 58",
         "lat": "48.212072",
         "lon": "16.343738",
         "timestamp": ["1904-04-13"],
         "importance": "1"
      }
      }, 
    {
      "type": "Feature",
      "geometry": {
        "type": "Point",
        "coordinates": [16.00249, 48.204892]
      },
      "properties": {
         "id": "pmb92351",
         "title": "Kronstein",
         "lat": "48.204892",
         "lon": "16.00249",
         "timestamp": ["1904-04-17"],
         "importance": "1"
      }
      }, 
    {
      "type": "Feature",
      "geometry": {
        "type": "Point",
        "coordinates": [16.33615, 48.200628]
      },
      "properties": {
         "id": "pmb233980",
         "title": "Zirkus Schumann",
         "lat": "48.200628",
         "lon": "16.33615",
         "timestamp": ["1904-04-25"],
         "importance": "1"
      }
      }, 
    {
      "type": "Feature",
      "geometry": {
        "type": "Point",
        "coordinates": [16.360753, 48.201693]
      },
      "properties": {
         "id": "pmb200490",
         "title": "Mariahilfer Straße 1b",
         "lat": "48.201693",
         "lon": "16.360753",
         "timestamp": ["1904-04-28"],
         "importance": "1"
      }
      }
  ]
}