{
  "type": "FeatureCollection",
  "features": [
    {
      "type": "Feature", 
      "geometry": {
        "type": "LineString", 
        "coordinates": [
            [16.354292, 48.201096], 
            [16.374629, 48.196855], 
            [16.366111, 48.209167], 
            [16.3538456, 48.2134031], 
            [16.33472, 48.2304]
          ]
      },
      "properties": {
        "name": "1. Dezember 1904"
      }
    },
    {
      "type": "Feature",
      "geometry": {
        "type": "Point",
        "coordinates": [
          16.3538456, 48.2134031
        ]
      },
      "properties": {
        "title": "Riedhof",
        "timestamp": ["1904-12-01"],
        "pmb": "https://pmb.acdh.oeaw.ac.at/entity//", 
        "wiengeschichtewiki": "https://www.geschichtewiki.wien.gv.at/Riedhof"
      }
      },
    {
      "type": "Feature",
      "geometry": {
        "type": "Point",
        "coordinates": [
          16.354292, 48.201096
        ]
      },
      "properties": {
        "title": "Lindengasse 7",
        "timestamp": ["1904-12-01"],
        "pmb": "https://pmb.acdh.oeaw.ac.at/entity//"
      }
      },
    {
      "type": "Feature",
      "geometry": {
        "type": "Point",
        "coordinates": [
          16.374629, 48.196855
        ]
      },
      "properties": {
        "title": "Wohllebengasse 6",
        "timestamp": ["1904-12-01"],
        "pmb": "https://pmb.acdh.oeaw.ac.at/entity//"
      }
      },
    {
      "type": "Feature",
      "geometry": {
        "type": "Point",
        "coordinates": [
          16.366111, 48.209167
        ]
      },
      "properties": {
        "title": "Bösendorfer-Saal",
        "timestamp": ["1904-12-01"],
        "pmb": "https://pmb.acdh.oeaw.ac.at/entity//", 
        "wikipedia": "https://de.wikipedia.org/wiki/B%C3%B6sendorfer-Saal"
      }
      },
    {
      "type": "Feature",
      "geometry": {
        "type": "Point",
        "coordinates": [
          16.33472, 48.2304
        ]
      },
      "properties": {
        "title": "Edmund-Weiß-Gasse 7",
        "timestamp": ["1904-12-01"],
        "pmb": "https://pmb.acdh.oeaw.ac.at/entity//"
      }
      }
  ]
}