{
  "type": "FeatureCollection",
  "features": [
    {
      "type": "Feature", 
      "geometry": {
        "type": "LineString", 
        "coordinates": [
            [13.385556, 52.518889], 
            [13.384577, 52.51861], 
            [13.383708, 52.516981], 
            [13.41053, 52.52437], 
            [13.388194, 52.521572]
          ]
      },
      "properties": {
        "name": "16. Februar 1904"
      }
    },
    {
      "type": "Feature",
      "geometry": {
        "type": "Point",
        "coordinates": [
          13.41053, 52.52437
        ]
      },
      "properties": {
        "title": "Berlin",
        "timestamp": ["1904-02-16"],
        "pmb": "https://pmb.acdh.oeaw.ac.at/entity//", 
        "wikipedia": "https://de.wikipedia.org/wiki/Berlin"
      }
      },
    {
      "type": "Feature",
      "geometry": {
        "type": "Point",
        "coordinates": [
          13.385556, 52.518889
        ]
      },
      "properties": {
        "title": "Hotel Continental [Berlin]",
        "timestamp": ["1904-02-16"],
        "pmb": "https://pmb.acdh.oeaw.ac.at/entity//"
      }
      },
    {
      "type": "Feature",
      "geometry": {
        "type": "Point",
        "coordinates": [
          13.388194, 52.521572
        ]
      },
      "properties": {
        "title": "Hotel Savoy [Berlin]",
        "timestamp": ["1904-02-16"],
        "pmb": "https://pmb.acdh.oeaw.ac.at/entity//", 
        "wikipedia": "https://de.wikipedia.org/wiki/Savoy_Hotel_(Berlin)"
      }
      },
    {
      "type": "Feature",
      "geometry": {
        "type": "Point",
        "coordinates": [
          13.383708, 52.516981
        ]
      },
      "properties": {
        "title": "Restaurant Hiller",
        "timestamp": ["1904-02-16"],
        "pmb": "https://pmb.acdh.oeaw.ac.at/entity//"
      }
      },
    {
      "type": "Feature",
      "geometry": {
        "type": "Point",
        "coordinates": [
          13.384577, 52.51861
        ]
      },
      "properties": {
        "title": "Hotel Prinz-Friedrich-Carl",
        "timestamp": ["1904-02-16"],
        "pmb": "https://pmb.acdh.oeaw.ac.at/entity//"
      }
      }
  ]
}