{
  "type": "FeatureCollection",
  "features": [
    {
      "type": "Feature",
      "geometry": {
        "type": "Point",
        "coordinates": [16.373056, 48.208333]
      },
      "properties": {
         "id": "pmb50",
         "title": "Wien",
         "lat": "48.208333",
         "lon": "16.373056",
         "timestamp": ["1904-11-01", "1904-11-02", "1904-11-03", "1904-11-04", "1904-11-05", "1904-11-06", "1904-11-07", "1904-11-08", "1904-11-09", "1904-11-10", "1904-11-11", "1904-11-12", "1904-11-24", "1904-11-25", "1904-11-26", "1904-11-27", "1904-11-28", "1904-11-29", "1904-11-30"],
         "importance": "19"
      }
      }, 
    {
      "type": "Feature",
      "geometry": {
        "type": "Point",
        "coordinates": [16.372564182283, 48.201265597319]
      },
      "properties": {
         "id": "pmb516",
         "title": "Musikverein",
         "lat": "48.201265597319",
         "lon": "16.372564182283",
         "timestamp": ["1904-11-30"],
         "importance": "1"
      }
      }, 
    {
      "type": "Feature",
      "geometry": {
        "type": "Point",
        "coordinates": [16.3538456, 48.2134031]
      },
      "properties": {
         "id": "pmb44",
         "title": "Riedhof",
         "lat": "48.2134031",
         "lon": "16.3538456",
         "timestamp": ["1904-11-08"],
         "importance": "1"
      }
      }, 
    {
      "type": "Feature",
      "geometry": {
        "type": "Point",
        "coordinates": [13.41053, 52.52437]
      },
      "properties": {
         "id": "pmb168",
         "title": "Berlin",
         "lat": "52.52437",
         "lon": "13.41053",
         "timestamp": ["1904-11-13", "1904-11-14", "1904-11-15", "1904-11-16", "1904-11-17", "1904-11-18", "1904-11-19", "1904-11-20", "1904-11-21", "1904-11-22", "1904-11-23"],
         "importance": "11"
      }
      }, 
    {
      "type": "Feature",
      "geometry": {
        "type": "Point",
        "coordinates": [16.3566, 48.205142]
      },
      "properties": {
         "id": "pmb20",
         "title": "Volkstheater",
         "lat": "48.205142",
         "lon": "16.3566",
         "timestamp": ["1904-11-03", "1904-11-08"],
         "importance": "2"
      }
      }, 
    {
      "type": "Feature",
      "geometry": {
        "type": "Point",
        "coordinates": [16.300034240016, 48.246838181084]
      },
      "properties": {
         "id": "pmb169",
         "title": "Pötzleinsdorf",
         "lat": "48.246838181084",
         "lon": "16.300034240016",
         "timestamp": ["1904-11-04", "1904-11-27"],
         "importance": "2"
      }
      }, 
    {
      "type": "Feature",
      "geometry": {
        "type": "Point",
        "coordinates": [16.342154562605, 48.250804274577]
      },
      "properties": {
         "id": "pmb225",
         "title": "Grinzing",
         "lat": "48.250804274577",
         "lon": "16.342154562605",
         "timestamp": ["1904-11-06"],
         "importance": "1"
      }
      }, 
    {
      "type": "Feature",
      "geometry": {
        "type": "Point",
        "coordinates": [16.28610371233, 48.233119188484]
      },
      "properties": {
         "id": "pmb170",
         "title": "Neuwaldegg",
         "lat": "48.233119188484",
         "lon": "16.28610371233",
         "timestamp": ["1904-11-27"],
         "importance": "1"
      }
      }, 
    {
      "type": "Feature",
      "geometry": {
        "type": "Point",
        "coordinates": [16.35736, 48.21533]
      },
      "properties": {
         "id": "pmb168934",
         "title": "Frankgasse 1",
         "lat": "48.21533",
         "lon": "16.35736",
         "timestamp": ["1904-11-04", "1904-11-05", "1904-11-11", "1904-11-12", "1904-11-24", "1904-11-25", "1904-11-29"],
         "importance": "7"
      }
      }, 
    {
      "type": "Feature",
      "geometry": {
        "type": "Point",
        "coordinates": [16.258056, 48.201667]
      },
      "properties": {
         "id": "pmb271",
         "title": "Hütteldorf",
         "lat": "48.201667",
         "lon": "16.258056",
         "timestamp": ["1904-11-26"],
         "importance": "1"
      }
      }, 
    {
      "type": "Feature",
      "geometry": {
        "type": "Point",
        "coordinates": [13.376389, 52.5225]
      },
      "properties": {
         "id": "pmb18",
         "title": "Lessing-Theater",
         "lat": "52.5225",
         "lon": "13.376389",
         "timestamp": ["1904-11-14", "1904-11-15", "1904-11-17", "1904-11-20", "1904-11-23"],
         "importance": "5"
      }
      }, 
    {
      "type": "Feature",
      "geometry": {
        "type": "Point",
        "coordinates": [16.375135, 48.204532]
      },
      "properties": {
         "id": "pmb199692",
         "title": "Schellinggasse 6",
         "lat": "48.204532",
         "lon": "16.375135",
         "timestamp": ["1904-11-25", "1904-11-29"],
         "importance": "2"
      }
      }, 
    {
      "type": "Feature",
      "geometry": {
        "type": "Point",
        "coordinates": [13.386111, 52.521667]
      },
      "properties": {
         "id": "pmb720",
         "title": "Neues Theater",
         "lat": "52.521667",
         "lon": "13.386111",
         "timestamp": ["1904-11-13", "1904-11-18"],
         "importance": "2"
      }
      }, 
    {
      "type": "Feature",
      "geometry": {
        "type": "Point",
        "coordinates": [13.388194, 52.521572]
      },
      "properties": {
         "id": "pmb545",
         "title": "Hotel Savoy [Berlin]",
         "lat": "52.521572",
         "lon": "13.388194",
         "timestamp": ["1904-11-16", "1904-11-18", "1904-11-20"],
         "importance": "3"
      }
      }, 
    {
      "type": "Feature",
      "geometry": {
        "type": "Point",
        "coordinates": [16.368738, 48.213038]
      },
      "properties": {
         "id": "pmb207296",
         "title": "Tiefer Graben 23",
         "lat": "48.213038",
         "lon": "16.368738",
         "timestamp": ["1904-11-28"],
         "importance": "1"
      }
      }, 
    {
      "type": "Feature",
      "geometry": {
        "type": "Point",
        "coordinates": [16.2911, 48.2553]
      },
      "properties": {
         "id": "pmb242",
         "title": "Salmannsdorf",
         "lat": "48.2553",
         "lon": "16.2911",
         "timestamp": ["1904-11-04", "1904-11-27"],
         "importance": "2"
      }
      }, 
    {
      "type": "Feature",
      "geometry": {
        "type": "Point",
        "coordinates": [16.362746, 48.21997]
      },
      "properties": {
         "id": "pmb231653",
         "title": "Müllnergasse 3",
         "lat": "48.21997",
         "lon": "16.362746",
         "timestamp": ["1904-11-12", "1904-11-24"],
         "importance": "2"
      }
      }, 
    {
      "type": "Feature",
      "geometry": {
        "type": "Point",
        "coordinates": [16.353571, 48.239999]
      },
      "properties": {
         "id": "pmb231906",
         "title": "Dollinergasse 8",
         "lat": "48.239999",
         "lon": "16.353571",
         "timestamp": ["1904-11-25"],
         "importance": "1"
      }
      }, 
    {
      "type": "Feature",
      "geometry": {
        "type": "Point",
        "coordinates": [16.31268, 48.2629]
      },
      "properties": {
         "id": "pmb285",
         "title": "Am Himmel",
         "lat": "48.2629",
         "lon": "16.31268",
         "timestamp": ["1904-11-06"],
         "importance": "1"
      }
      }, 
    {
      "type": "Feature",
      "geometry": {
        "type": "Point",
        "coordinates": [16.373845, 48.209544]
      },
      "properties": {
         "id": "pmb231687",
         "title": "Wollzeile 1",
         "lat": "48.209544",
         "lon": "16.373845",
         "timestamp": ["1904-11-01"],
         "importance": "1"
      }
      }, 
    {
      "type": "Feature",
      "geometry": {
        "type": "Point",
        "coordinates": [13.383456, 52.516152]
      },
      "properties": {
         "id": "pmb127",
         "title": "Hotel Bristol Berlin",
         "lat": "52.516152",
         "lon": "13.383456",
         "timestamp": ["1904-11-13", "1904-11-14", "1904-11-15", "1904-11-16", "1904-11-17", "1904-11-18", "1904-11-19", "1904-11-20", "1904-11-21", "1904-11-22", "1904-11-23"],
         "importance": "11"
      }
      }, 
    {
      "type": "Feature",
      "geometry": {
        "type": "Point",
        "coordinates": [16.361349, 48.223406]
      },
      "properties": {
         "id": "pmb231945",
         "title": "Porzellangasse 45",
         "lat": "48.223406",
         "lon": "16.361349",
         "timestamp": ["1904-11-01", "1904-11-29"],
         "importance": "2"
      }
      }, 
    {
      "type": "Feature",
      "geometry": {
        "type": "Point",
        "coordinates": [13.318058, 52.511709]
      },
      "properties": {
         "id": "pmb334",
         "title": "Schiller-Theater",
         "lat": "52.511709",
         "lon": "13.318058",
         "timestamp": ["1904-11-21"],
         "importance": "1"
      }
      }, 
    {
      "type": "Feature",
      "geometry": {
        "type": "Point",
        "coordinates": [16.361751, 48.215689]
      },
      "properties": {
         "id": "pmb232256",
         "title": "Kolingasse 3",
         "lat": "48.215689",
         "lon": "16.361751",
         "timestamp": ["1904-11-10"],
         "importance": "1"
      }
      }, 
    {
      "type": "Feature",
      "geometry": {
        "type": "Point",
        "coordinates": [16.36376, 48.202278]
      },
      "properties": {
         "id": "pmb232325",
         "title": "Nibelungengasse 8",
         "lat": "48.202278",
         "lon": "16.36376",
         "timestamp": ["1904-11-11"],
         "importance": "1"
      }
      }, 
    {
      "type": "Feature",
      "geometry": {
        "type": "Point",
        "coordinates": [13.394075, 52.519377]
      },
      "properties": {
         "id": "pmb232501",
         "title": "Hotel und Restaurant »Prinz Wilhelm«",
         "lat": "52.519377",
         "lon": "13.394075",
         "timestamp": ["1904-11-14", "1904-11-15", "1904-11-21", "1904-11-22"],
         "importance": "4"
      }
      }, 
    {
      "type": "Feature",
      "geometry": {
        "type": "Point",
        "coordinates": [16.33472, 48.2304]
      },
      "properties": {
         "id": "pmb168940",
         "title": "Edmund-Weiß-Gasse 7",
         "lat": "48.2304",
         "lon": "16.33472",
         "timestamp": ["1904-11-01", "1904-11-02", "1904-11-03", "1904-11-04", "1904-11-05", "1904-11-06", "1904-11-07", "1904-11-08", "1904-11-09", "1904-11-10", "1904-11-11", "1904-11-12", "1904-11-24", "1904-11-25", "1904-11-26", "1904-11-27", "1904-11-28", "1904-11-29", "1904-11-30"],
         "importance": "19"
      }
      }, 
    {
      "type": "Feature",
      "geometry": {
        "type": "Point",
        "coordinates": [16.30202, 48.18636]
      },
      "properties": {
         "id": "pmb304",
         "title": "Ottakringer Bräu",
         "lat": "48.18636",
         "lon": "16.30202",
         "timestamp": ["1904-11-01"],
         "importance": "1"
      }
      }, 
    {
      "type": "Feature",
      "geometry": {
        "type": "Point",
        "coordinates": [16.327352524714, 48.267145622591]
      },
      "properties": {
         "id": "pmb301",
         "title": "Krapfenwaldl",
         "lat": "48.267145622591",
         "lon": "16.327352524714",
         "timestamp": ["1904-11-06"],
         "importance": "1"
      }
      }, 
    {
      "type": "Feature",
      "geometry": {
        "type": "Point",
        "coordinates": [13.36774, 52.52031]
      },
      "properties": {
         "id": "pmb237370",
         "title": "Kronprinzenufer 7/In den Zelten 14",
         "lat": "52.52031",
         "lon": "13.36774",
         "timestamp": ["1904-11-13", "1904-11-14", "1904-11-22"],
         "importance": "3"
      }
      }, 
    {
      "type": "Feature",
      "geometry": {
        "type": "Point",
        "coordinates": [13.387871, 52.524582]
      },
      "properties": {
         "id": "pmb233736",
         "title": "Weinstube Eggebrecht",
         "lat": "52.524582",
         "lon": "13.387871",
         "timestamp": ["1904-11-16"],
         "importance": "1"
      }
      }, 
    {
      "type": "Feature",
      "geometry": {
        "type": "Point",
        "coordinates": [13.360365, 52.498452]
      },
      "properties": {
         "id": "pmb233777",
         "title": "Bülowstraße 90",
         "lat": "52.498452",
         "lon": "13.360365",
         "timestamp": ["1904-11-22"],
         "importance": "1"
      }
      }, 
    {
      "type": "Feature",
      "geometry": {
        "type": "Point",
        "coordinates": [13.389167, 52.517222]
      },
      "properties": {
         "id": "pmb208",
         "title": "Kleines Theater",
         "lat": "52.517222",
         "lon": "13.389167",
         "timestamp": ["1904-11-14", "1904-11-15", "1904-11-17", "1904-11-18", "1904-11-19", "1904-11-21", "1904-11-22"],
         "importance": "7"
      }
      }, 
    {
      "type": "Feature",
      "geometry": {
        "type": "Point",
        "coordinates": [16.394539, 48.203093]
      },
      "properties": {
         "id": "pmb233934",
         "title": "Atelier und Kunstanstalt J. Loewy",
         "lat": "48.203093",
         "lon": "16.394539",
         "timestamp": ["1904-11-07"],
         "importance": "1"
      }
      }, 
    {
      "type": "Feature",
      "geometry": {
        "type": "Point",
        "coordinates": [16.363556, 48.211902]
      },
      "properties": {
         "id": "pmb234436",
         "title": "Teinfaltstraße 4",
         "lat": "48.211902",
         "lon": "16.363556",
         "timestamp": ["1904-11-29"],
         "importance": "1"
      }
      }, 
    {
      "type": "Feature",
      "geometry": {
        "type": "Point",
        "coordinates": [16.354292, 48.201096]
      },
      "properties": {
         "id": "pmb234569",
         "title": "Lindengasse 7",
         "lat": "48.201096",
         "lon": "16.354292",
         "timestamp": ["1904-11-07"],
         "importance": "1"
      }
      }, 
    {
      "type": "Feature",
      "geometry": {
        "type": "Point",
        "coordinates": [13.390262, 52.515056]
      },
      "properties": {
         "id": "pmb234614",
         "title": "F. W. Borchardt",
         "lat": "52.515056",
         "lon": "13.390262",
         "timestamp": ["1904-11-17", "1904-11-18", "1904-11-19"],
         "importance": "3"
      }
      }, 
    {
      "type": "Feature",
      "geometry": {
        "type": "Point",
        "coordinates": [13.388305555556, 52.516194444444]
      },
      "properties": {
         "id": "pmb185920",
         "title": "Passage-Theater",
         "lat": "52.516194444444",
         "lon": "13.388305555556",
         "timestamp": ["1904-11-19"],
         "importance": "1"
      }
      }, 
    {
      "type": "Feature",
      "geometry": {
        "type": "Point",
        "coordinates": [16.248125, 48.203822]
      },
      "properties": {
         "id": "pmb234669",
         "title": "Linzerstraße 464",
         "lat": "48.203822",
         "lon": "16.248125",
         "timestamp": ["1904-11-26"],
         "importance": "1"
      }
      }
  ]
}