{
  "type": "FeatureCollection",
  "features": [
    {
      "type": "Feature",
      "geometry": {
        "type": "Point",
        "coordinates": [16.373056, 48.208333]
      },
      "properties": {
         "id": "pmb50",
         "title": "Wien",
         "lat": "48.208333",
         "lon": "16.373056",
         "timestamp": ["1904-12-01", "1904-12-02", "1904-12-03", "1904-12-04", "1904-12-05", "1904-12-06", "1904-12-07", "1904-12-08", "1904-12-09", "1904-12-10", "1904-12-11", "1904-12-12", "1904-12-13", "1904-12-14", "1904-12-15", "1904-12-16", "1904-12-17", "1904-12-18", "1904-12-19", "1904-12-20", "1904-12-21", "1904-12-22", "1904-12-23", "1904-12-24", "1904-12-25", "1904-12-26", "1904-12-31"],
         "importance": "27"
      }
      }, 
    {
      "type": "Feature",
      "geometry": {
        "type": "Point",
        "coordinates": [16.372564182283, 48.201265597319]
      },
      "properties": {
         "id": "pmb516",
         "title": "Musikverein",
         "lat": "48.201265597319",
         "lon": "16.372564182283",
         "timestamp": ["1904-12-14", "1904-12-22"],
         "importance": "2"
      }
      }, 
    {
      "type": "Feature",
      "geometry": {
        "type": "Point",
        "coordinates": [16.384444, 48.215]
      },
      "properties": {
         "id": "pmb118",
         "title": "Carl-Theater",
         "lat": "48.215",
         "lon": "16.384444",
         "timestamp": ["1904-12-07", "1904-12-10", "1904-12-12"],
         "importance": "3"
      }
      }, 
    {
      "type": "Feature",
      "geometry": {
        "type": "Point",
        "coordinates": [16.366111, 48.209167]
      },
      "properties": {
         "id": "pmb4",
         "title": "Bösendorfer-Saal",
         "lat": "48.209167",
         "lon": "16.366111",
         "timestamp": ["1904-12-01", "1904-12-02", "1904-12-20"],
         "importance": "3"
      }
      }, 
    {
      "type": "Feature",
      "geometry": {
        "type": "Point",
        "coordinates": [16.33306, 48.25]
      },
      "properties": {
         "id": "pmb69",
         "title": "XIX., Döbling",
         "lat": "48.25",
         "lon": "16.33306",
         "timestamp": ["1904-12-04"],
         "importance": "1"
      }
      }, 
    {
      "type": "Feature",
      "geometry": {
        "type": "Point",
        "coordinates": [16.3538456, 48.2134031]
      },
      "properties": {
         "id": "pmb44",
         "title": "Riedhof",
         "lat": "48.2134031",
         "lon": "16.3538456",
         "timestamp": ["1904-12-01", "1904-12-22", "1904-12-23"],
         "importance": "3"
      }
      }, 
    {
      "type": "Feature",
      "geometry": {
        "type": "Point",
        "coordinates": [13.04532, 47.80067]
      },
      "properties": {
         "id": "pmb30",
         "title": "Salzburg",
         "lat": "47.80067",
         "lon": "13.04532",
         "timestamp": ["1904-12-26"],
         "importance": "1"
      }
      }, 
    {
      "type": "Feature",
      "geometry": {
        "type": "Point",
        "coordinates": [16.371211, 48.206416]
      },
      "properties": {
         "id": "pmb96",
         "title": "Meissl & Schadn",
         "lat": "48.206416",
         "lon": "16.371211",
         "timestamp": ["1904-12-02", "1904-12-14"],
         "importance": "2"
      }
      }, 
    {
      "type": "Feature",
      "geometry": {
        "type": "Point",
        "coordinates": [16.333568462613, 48.235119783861]
      },
      "properties": {
         "id": "pmb113",
         "title": "Türkenschanzpark",
         "lat": "48.235119783861",
         "lon": "16.333568462613",
         "timestamp": ["1904-12-21"],
         "importance": "1"
      }
      }, 
    {
      "type": "Feature",
      "geometry": {
        "type": "Point",
        "coordinates": [16.300034240016, 48.246838181084]
      },
      "properties": {
         "id": "pmb169",
         "title": "Pötzleinsdorf",
         "lat": "48.246838181084",
         "lon": "16.300034240016",
         "timestamp": ["1904-12-25"],
         "importance": "1"
      }
      }, 
    {
      "type": "Feature",
      "geometry": {
        "type": "Point",
        "coordinates": [16.342154562605, 48.250804274577]
      },
      "properties": {
         "id": "pmb225",
         "title": "Grinzing",
         "lat": "48.250804274577",
         "lon": "16.342154562605",
         "timestamp": ["1904-12-18"],
         "importance": "1"
      }
      }, 
    {
      "type": "Feature",
      "geometry": {
        "type": "Point",
        "coordinates": [16.35736, 48.21533]
      },
      "properties": {
         "id": "pmb168934",
         "title": "Frankgasse 1",
         "lat": "48.21533",
         "lon": "16.35736",
         "timestamp": ["1904-12-04", "1904-12-09", "1904-12-31"],
         "importance": "3"
      }
      }, 
    {
      "type": "Feature",
      "geometry": {
        "type": "Point",
        "coordinates": [16.340393, 48.232254]
      },
      "properties": {
         "id": "pmb199147",
         "title": "Anastasius-Grün-Gasse 54",
         "lat": "48.232254",
         "lon": "16.340393",
         "timestamp": ["1904-12-21"],
         "importance": "1"
      }
      }, 
    {
      "type": "Feature",
      "geometry": {
        "type": "Point",
        "coordinates": [16.375135, 48.204532]
      },
      "properties": {
         "id": "pmb199692",
         "title": "Schellinggasse 6",
         "lat": "48.204532",
         "lon": "16.375135",
         "timestamp": ["1904-12-12", "1904-12-24"],
         "importance": "2"
      }
      }, 
    {
      "type": "Feature",
      "geometry": {
        "type": "Point",
        "coordinates": [16.368738, 48.213038]
      },
      "properties": {
         "id": "pmb207296",
         "title": "Tiefer Graben 23",
         "lat": "48.213038",
         "lon": "16.368738",
         "timestamp": ["1904-12-23"],
         "importance": "1"
      }
      }, 
    {
      "type": "Feature",
      "geometry": {
        "type": "Point",
        "coordinates": [16.2911, 48.2553]
      },
      "properties": {
         "id": "pmb242",
         "title": "Salmannsdorf",
         "lat": "48.2553",
         "lon": "16.2911",
         "timestamp": ["1904-12-04"],
         "importance": "1"
      }
      }, 
    {
      "type": "Feature",
      "geometry": {
        "type": "Point",
        "coordinates": [16.353571, 48.239999]
      },
      "properties": {
         "id": "pmb231906",
         "title": "Dollinergasse 8",
         "lat": "48.239999",
         "lon": "16.353571",
         "timestamp": ["1904-12-19"],
         "importance": "1"
      }
      }, 
    {
      "type": "Feature",
      "geometry": {
        "type": "Point",
        "coordinates": [16.361751, 48.215689]
      },
      "properties": {
         "id": "pmb232256",
         "title": "Kolingasse 3",
         "lat": "48.215689",
         "lon": "16.361751",
         "timestamp": ["1904-12-15", "1904-12-16", "1904-12-17"],
         "importance": "3"
      }
      }, 
    {
      "type": "Feature",
      "geometry": {
        "type": "Point",
        "coordinates": [16.33472, 48.2304]
      },
      "properties": {
         "id": "pmb168940",
         "title": "Edmund-Weiß-Gasse 7",
         "lat": "48.2304",
         "lon": "16.33472",
         "timestamp": ["1904-12-01", "1904-12-02", "1904-12-03", "1904-12-04", "1904-12-05", "1904-12-06", "1904-12-07", "1904-12-08", "1904-12-09", "1904-12-10", "1904-12-11", "1904-12-12", "1904-12-13", "1904-12-14", "1904-12-15", "1904-12-16", "1904-12-17", "1904-12-18", "1904-12-19", "1904-12-20", "1904-12-21", "1904-12-22", "1904-12-23", "1904-12-24", "1904-12-25", "1904-12-26", "1904-12-31"],
         "importance": "27"
      }
      }, 
    {
      "type": "Feature",
      "geometry": {
        "type": "Point",
        "coordinates": [16.28606, 48.25849]
      },
      "properties": {
         "id": "pmb537",
         "title": "Dreimarkstein [Wien]",
         "lat": "48.25849",
         "lon": "16.28606",
         "timestamp": ["1904-12-04"],
         "importance": "1"
      }
      }, 
    {
      "type": "Feature",
      "geometry": {
        "type": "Point",
        "coordinates": [13.372111, 47.753992]
      },
      "properties": {
         "id": "pmb824",
         "title": "Hotel und Pension Lueg",
         "lat": "47.753992",
         "lon": "13.372111",
         "timestamp": ["1904-12-26", "1904-12-27", "1904-12-28", "1904-12-29", "1904-12-30"],
         "importance": "5"
      }
      }, 
    {
      "type": "Feature",
      "geometry": {
        "type": "Point",
        "coordinates": [13.372211, 47.754041]
      },
      "properties": {
         "id": "pmb186",
         "title": "Lueg am Wolfgangsee",
         "lat": "47.754041",
         "lon": "13.372211",
         "timestamp": ["1904-12-26", "1904-12-27", "1904-12-28", "1904-12-29", "1904-12-30"],
         "importance": "5"
      }
      }, 
    {
      "type": "Feature",
      "geometry": {
        "type": "Point",
        "coordinates": [13.385272, 47.74443]
      },
      "properties": {
         "id": "pmb234399",
         "title": "Franzosenschanze 4",
         "lat": "47.74443",
         "lon": "13.385272",
         "timestamp": ["1904-12-27", "1904-12-29"],
         "importance": "2"
      }
      }, 
    {
      "type": "Feature",
      "geometry": {
        "type": "Point",
        "coordinates": [16.354292, 48.201096]
      },
      "properties": {
         "id": "pmb234569",
         "title": "Lindengasse 7",
         "lat": "48.201096",
         "lon": "16.354292",
         "timestamp": ["1904-12-01", "1904-12-02", "1904-12-05", "1904-12-07", "1904-12-16", "1904-12-23"],
         "importance": "6"
      }
      }, 
    {
      "type": "Feature",
      "geometry": {
        "type": "Point",
        "coordinates": [16.374629, 48.196855]
      },
      "properties": {
         "id": "pmb234683",
         "title": "Wohllebengasse 6",
         "lat": "48.196855",
         "lon": "16.374629",
         "timestamp": ["1904-12-01"],
         "importance": "1"
      }
      }, 
    {
      "type": "Feature",
      "geometry": {
        "type": "Point",
        "coordinates": [16.352895, 48.238067]
      },
      "properties": {
         "id": "pmb234737",
         "title": "Reithlegasse 9",
         "lat": "48.238067",
         "lon": "16.352895",
         "timestamp": ["1904-12-17"],
         "importance": "1"
      }
      }, 
    {
      "type": "Feature",
      "geometry": {
        "type": "Point",
        "coordinates": [16.338341, 48.243053]
      },
      "properties": {
         "id": "pmb234753",
         "title": "Wilhelm Hohm. Zier- und Landschaftsgärtner",
         "lat": "48.243053",
         "lon": "16.338341",
         "timestamp": ["1904-12-18", "1904-12-20"],
         "importance": "2"
      }
      }
  ]
}