{
  "type": "FeatureCollection",
  "features": [
    {
      "type": "Feature", 
      "geometry": {
        "type": "LineString", 
        "coordinates": [
            [16.373056, 48.208333], 
            [16.353571, 48.239999], 
            [16.333568462613, 48.235119783861], 
            [16.331527, 48.23428], 
            [16.33472, 48.2304]
          ]
      },
      "properties": {
        "name": "12. September 1905"
      }
    },
    {
      "type": "Feature",
      "geometry": {
        "type": "Point",
        "coordinates": [
          16.373056, 48.208333
        ]
      },
      "properties": {
        "title": "Wien",
        "timestamp": ["1905-09-12"],
        "pmb": "https://pmb.acdh.oeaw.ac.at/entity//", 
        "wikipedia": "https://de.wikipedia.org/wiki/Wien"
      }
      },
    {
      "type": "Feature",
      "geometry": {
        "type": "Point",
        "coordinates": [
          16.331527, 48.23428
        ]
      },
      "properties": {
        "title": "Restauration Türkenschanz-Park",
        "timestamp": ["1905-09-12"],
        "pmb": "https://pmb.acdh.oeaw.ac.at/entity//"
      }
      },
    {
      "type": "Feature",
      "geometry": {
        "type": "Point",
        "coordinates": [
          16.333568462613, 48.235119783861
        ]
      },
      "properties": {
        "title": "Türkenschanzpark",
        "timestamp": ["1905-09-12"],
        "pmb": "https://pmb.acdh.oeaw.ac.at/entity//"
      }
      },
    {
      "type": "Feature",
      "geometry": {
        "type": "Point",
        "coordinates": [
          16.33472, 48.2304
        ]
      },
      "properties": {
        "title": "Edmund-Weiß-Gasse 7",
        "timestamp": ["1905-09-12"],
        "pmb": "https://pmb.acdh.oeaw.ac.at/entity//"
      }
      },
    {
      "type": "Feature",
      "geometry": {
        "type": "Point",
        "coordinates": [
          16.353571, 48.239999
        ]
      },
      "properties": {
        "title": "Dollinergasse 8",
        "timestamp": ["1905-09-12"],
        "pmb": "https://pmb.acdh.oeaw.ac.at/entity//"
      }
      }
  ]
}