{
  "type": "FeatureCollection",
  "features": [
    {
      "type": "Feature",
      "geometry": {
        "type": "Point",
        "coordinates": [16.372564182283, 48.201265597319]
      },
      "properties": {
         "id": "pmb516",
         "title": "Musikverein",
         "lat": "48.201265597319",
         "lon": "16.372564182283",
         "timestamp": ["1905-04-17"],
         "importance": "1"
      }
      }, 
    {
      "type": "Feature",
      "geometry": {
        "type": "Point",
        "coordinates": [16.3691, 48.203]
      },
      "properties": {
         "id": "pmb15",
         "title": "Oper",
         "lat": "48.203",
         "lon": "16.3691",
         "timestamp": ["1905-04-15"],
         "importance": "1"
      }
      }, 
    {
      "type": "Feature",
      "geometry": {
        "type": "Point",
        "coordinates": [16.373056, 48.208333]
      },
      "properties": {
         "id": "pmb50",
         "title": "Wien",
         "lat": "48.208333",
         "lon": "16.373056",
         "timestamp": ["1905-04-01", "1905-04-02", "1905-04-03", "1905-04-04", "1905-04-05", "1905-04-06", "1905-04-08", "1905-04-09", "1905-04-10", "1905-04-11", "1905-04-12", "1905-04-13", "1905-04-14", "1905-04-15", "1905-04-16", "1905-04-17", "1905-04-18", "1905-04-19", "1905-04-20", "1905-04-21", "1905-04-22", "1905-04-23", "1905-04-24", "1905-04-25", "1905-04-26", "1905-04-27", "1905-04-28", "1905-04-29", "1905-04-30"],
         "importance": "29"
      }
      }, 
    {
      "type": "Feature",
      "geometry": {
        "type": "Point",
        "coordinates": [16.299116267833, 48.230916826952]
      },
      "properties": {
         "id": "pmb499",
         "title": "Dornbach",
         "lat": "48.230916826952",
         "lon": "16.299116267833",
         "timestamp": ["1905-04-23"],
         "importance": "1"
      }
      }, 
    {
      "type": "Feature",
      "geometry": {
        "type": "Point",
        "coordinates": [16.3538456, 48.2134031]
      },
      "properties": {
         "id": "pmb44",
         "title": "Riedhof",
         "lat": "48.2134031",
         "lon": "16.3538456",
         "timestamp": ["1905-04-13"],
         "importance": "1"
      }
      }, 
    {
      "type": "Feature",
      "geometry": {
        "type": "Point",
        "coordinates": [16.3566, 48.205142]
      },
      "properties": {
         "id": "pmb20",
         "title": "Volkstheater",
         "lat": "48.205142",
         "lon": "16.3566",
         "timestamp": ["1905-04-13"],
         "importance": "1"
      }
      }, 
    {
      "type": "Feature",
      "geometry": {
        "type": "Point",
        "coordinates": [16.371211, 48.206416]
      },
      "properties": {
         "id": "pmb96",
         "title": "Meissl & Schadn",
         "lat": "48.206416",
         "lon": "16.371211",
         "timestamp": ["1905-04-15"],
         "importance": "1"
      }
      }, 
    {
      "type": "Feature",
      "geometry": {
        "type": "Point",
        "coordinates": [15.8241, 47.64224]
      },
      "properties": {
         "id": "pmb189",
         "title": "Semmering",
         "lat": "47.64224",
         "lon": "15.8241",
         "timestamp": ["1905-04-30"],
         "importance": "1"
      }
      }, 
    {
      "type": "Feature",
      "geometry": {
        "type": "Point",
        "coordinates": [16.35736, 48.21533]
      },
      "properties": {
         "id": "pmb168934",
         "title": "Frankgasse 1",
         "lat": "48.21533",
         "lon": "16.35736",
         "timestamp": ["1905-04-06", "1905-04-07", "1905-04-11", "1905-04-14", "1905-04-21", "1905-04-24", "1905-04-28"],
         "importance": "7"
      }
      }, 
    {
      "type": "Feature",
      "geometry": {
        "type": "Point",
        "coordinates": [16.382549, 48.21387]
      },
      "properties": {
         "id": "pmb199587",
         "title": "Praterstraße 21",
         "lat": "48.21387",
         "lon": "16.382549",
         "timestamp": ["1905-04-01"],
         "importance": "1"
      }
      }, 
    {
      "type": "Feature",
      "geometry": {
        "type": "Point",
        "coordinates": [16.364283, 48.201813]
      },
      "properties": {
         "id": "pmb206958",
         "title": "Gauermanngasse 4",
         "lat": "48.201813",
         "lon": "16.364283",
         "timestamp": ["1905-04-04"],
         "importance": "1"
      }
      }, 
    {
      "type": "Feature",
      "geometry": {
        "type": "Point",
        "coordinates": [16.441111, 48.149444]
      },
      "properties": {
         "id": "pmb41376",
         "title": "Wiener Zentralfriedhof",
         "lat": "48.149444",
         "lon": "16.441111",
         "timestamp": ["1905-04-04"],
         "importance": "1"
      }
      }, 
    {
      "type": "Feature",
      "geometry": {
        "type": "Point",
        "coordinates": [16.362746, 48.21997]
      },
      "properties": {
         "id": "pmb231653",
         "title": "Müllnergasse 3",
         "lat": "48.21997",
         "lon": "16.362746",
         "timestamp": ["1905-04-01", "1905-04-04", "1905-04-20"],
         "importance": "3"
      }
      }, 
    {
      "type": "Feature",
      "geometry": {
        "type": "Point",
        "coordinates": [16.24924, 48.08736]
      },
      "properties": {
         "id": "pmb145165",
         "title": "Hauptstraße 56",
         "lat": "48.08736",
         "lon": "16.24924",
         "timestamp": ["1905-04-09"],
         "importance": "1"
      }
      }, 
    {
      "type": "Feature",
      "geometry": {
        "type": "Point",
        "coordinates": [16.361349, 48.223406]
      },
      "properties": {
         "id": "pmb231945",
         "title": "Porzellangasse 45",
         "lat": "48.223406",
         "lon": "16.361349",
         "timestamp": ["1905-04-07"],
         "importance": "1"
      }
      }, 
    {
      "type": "Feature",
      "geometry": {
        "type": "Point",
        "coordinates": [16.363991, 48.202709]
      },
      "properties": {
         "id": "pmb232585",
         "title": "Elisabethstraße 13",
         "lat": "48.202709",
         "lon": "16.363991",
         "timestamp": ["1905-04-22"],
         "importance": "1"
      }
      }, 
    {
      "type": "Feature",
      "geometry": {
        "type": "Point",
        "coordinates": [16.33472, 48.2304]
      },
      "properties": {
         "id": "pmb168940",
         "title": "Edmund-Weiß-Gasse 7",
         "lat": "48.2304",
         "lon": "16.33472",
         "timestamp": ["1905-04-01", "1905-04-02", "1905-04-03", "1905-04-04", "1905-04-05", "1905-04-06", "1905-04-07", "1905-04-08", "1905-04-09", "1905-04-10", "1905-04-12", "1905-04-13", "1905-04-14", "1905-04-15", "1905-04-16", "1905-04-17", "1905-04-18", "1905-04-19", "1905-04-20", "1905-04-21", "1905-04-22", "1905-04-23", "1905-04-24", "1905-04-25", "1905-04-26", "1905-04-27", "1905-04-28", "1905-04-29", "1905-04-30"],
         "importance": "29"
      }
      }, 
    {
      "type": "Feature",
      "geometry": {
        "type": "Point",
        "coordinates": [16.30202, 48.18636]
      },
      "properties": {
         "id": "pmb304",
         "title": "Ottakringer Bräu",
         "lat": "48.18636",
         "lon": "16.30202",
         "timestamp": ["1905-04-20"],
         "importance": "1"
      }
      }, 
    {
      "type": "Feature",
      "geometry": {
        "type": "Point",
        "coordinates": [16.375811, 48.203191]
      },
      "properties": {
         "id": "pmb233517",
         "title": "Kaiserpanorama [Wien]",
         "lat": "48.203191",
         "lon": "16.375811",
         "timestamp": ["1905-04-22"],
         "importance": "1"
      }
      }, 
    {
      "type": "Feature",
      "geometry": {
        "type": "Point",
        "coordinates": [16.452131168486, 48.148682596879]
      },
      "properties": {
         "id": "pmb841",
         "title": "Döblinger Friedhof",
         "lat": "48.148682596879",
         "lon": "16.452131168486",
         "timestamp": ["1905-04-27"],
         "importance": "1"
      }
      }, 
    {
      "type": "Feature",
      "geometry": {
        "type": "Point",
        "coordinates": [16.389931, 48.219478]
      },
      "properties": {
         "id": "pmb234418",
         "title": "Nordbahnstraße 52–54",
         "lat": "48.219478",
         "lon": "16.389931",
         "timestamp": ["1905-04-17"],
         "importance": "1"
      }
      }, 
    {
      "type": "Feature",
      "geometry": {
        "type": "Point",
        "coordinates": [16.370342, 48.211369]
      },
      "properties": {
         "id": "pmb234548",
         "title": "Jordangasse 9",
         "lat": "48.211369",
         "lon": "16.370342",
         "timestamp": ["1905-04-03"],
         "importance": "1"
      }
      }, 
    {
      "type": "Feature",
      "geometry": {
        "type": "Point",
        "coordinates": [16.380897, 48.208627]
      },
      "properties": {
         "id": "pmb235381",
         "title": "Biberstraße 8",
         "lat": "48.208627",
         "lon": "16.380897",
         "timestamp": ["1905-04-01", "1905-04-18"],
         "importance": "2"
      }
      }, 
    {
      "type": "Feature",
      "geometry": {
        "type": "Point",
        "coordinates": [16.355352, 48.250319]
      },
      "properties": {
         "id": "pmb235406",
         "title": "Hohe Warte 50",
         "lat": "48.250319",
         "lon": "16.355352",
         "timestamp": ["1905-04-07"],
         "importance": "1"
      }
      }, 
    {
      "type": "Feature",
      "geometry": {
        "type": "Point",
        "coordinates": [16.367896, 48.209138]
      },
      "properties": {
         "id": "pmb235412",
         "title": "J. W. Brooke, Luxus- und Gebrauchsgegenstände",
         "lat": "48.209138",
         "lon": "16.367896",
         "timestamp": ["1905-04-07"],
         "importance": "1"
      }
      }, 
    {
      "type": "Feature",
      "geometry": {
        "type": "Point",
        "coordinates": [16.23114, 48.012864]
      },
      "properties": {
         "id": "pmb92195",
         "title": "Curpark",
         "lat": "48.012864",
         "lon": "16.23114",
         "timestamp": ["1905-04-08"],
         "importance": "1"
      }
      }, 
    {
      "type": "Feature",
      "geometry": {
        "type": "Point",
        "coordinates": [16.376308, 48.195468]
      },
      "properties": {
         "id": "pmb235422",
         "title": "Prinz-Eugen-Straße 18",
         "lat": "48.195468",
         "lon": "16.376308",
         "timestamp": ["1905-04-08"],
         "importance": "1"
      }
      }, 
    {
      "type": "Feature",
      "geometry": {
        "type": "Point",
        "coordinates": [16.371056, 48.20473]
      },
      "properties": {
         "id": "pmb235441",
         "title": "Wilhelm Pohl Spielwarenhandlung [Kärntner Straße 39]",
         "lat": "48.20473",
         "lon": "16.371056",
         "timestamp": ["1905-04-11"],
         "importance": "1"
      }
      }, 
    {
      "type": "Feature",
      "geometry": {
        "type": "Point",
        "coordinates": [16.300279, 48.241403]
      },
      "properties": {
         "id": "pmb92456",
         "title": "Pötzleinsdorfer Schlosspark",
         "lat": "48.241403",
         "lon": "16.300279",
         "timestamp": ["1905-04-23"],
         "importance": "1"
      }
      }
  ]
}