{
  "type": "FeatureCollection",
  "features": [
    {
      "type": "Feature", 
      "geometry": {
        "type": "LineString", 
        "coordinates": [
            [16.257741, 48.139276], 
            [16.255556, 48.133611], 
            [16.33472, 48.2304], 
            [16.28610371233, 48.233119188484], 
            [16.258056, 48.201667]
          ]
      },
      "properties": {
        "name": "1. Juli 1905"
      }
    },
    {
      "type": "Feature",
      "geometry": {
        "type": "Point",
        "coordinates": [
          16.258056, 48.201667
        ]
      },
      "properties": {
        "title": "Hütteldorf",
        "timestamp": ["1905-07-01"],
        "pmb": "https://pmb.acdh.oeaw.ac.at/entity//", 
        "wikipedia": "https://de.wikipedia.org/wiki/H%C3%BCtteldorf"
      }
      },
    {
      "type": "Feature",
      "geometry": {
        "type": "Point",
        "coordinates": [
          16.33472, 48.2304
        ]
      },
      "properties": {
        "title": "Edmund-Weiß-Gasse 7",
        "timestamp": ["1905-07-01"],
        "pmb": "https://pmb.acdh.oeaw.ac.at/entity//"
      }
      },
    {
      "type": "Feature",
      "geometry": {
        "type": "Point",
        "coordinates": [
          16.28610371233, 48.233119188484
        ]
      },
      "properties": {
        "title": "Neuwaldegg",
        "timestamp": ["1905-07-01"],
        "pmb": "https://pmb.acdh.oeaw.ac.at/entity//"
      }
      },
    {
      "type": "Feature",
      "geometry": {
        "type": "Point",
        "coordinates": [
          16.257741, 48.139276
        ]
      },
      "properties": {
        "title": "Willergasse 2",
        "timestamp": ["1905-07-01"],
        "pmb": "https://pmb.acdh.oeaw.ac.at/entity//"
      }
      },
    {
      "type": "Feature",
      "geometry": {
        "type": "Point",
        "coordinates": [
          16.255556, 48.133611
        ]
      },
      "properties": {
        "title": "Hofmannsthal-Schlössl",
        "timestamp": ["1905-07-01"],
        "pmb": "https://pmb.acdh.oeaw.ac.at/entity//", 
        "wikipedia": "https://de.wikipedia.org/wiki/Hofmannsthal-Schl%C3%B6ssl"
      }
      }
  ]
}