{
  "type": "FeatureCollection",
  "features": [
    {
      "type": "Feature",
      "geometry": {
        "type": "Point",
        "coordinates": [16.373056, 48.208333]
      },
      "properties": {
         "id": "pmb50",
         "title": "Wien",
         "lat": "48.208333",
         "lon": "16.373056",
         "timestamp": ["1905-03-01", "1905-03-02", "1905-03-03", "1905-03-18", "1905-03-19", "1905-03-20", "1905-03-21", "1905-03-22", "1905-03-23", "1905-03-24", "1905-03-25", "1905-03-26", "1905-03-27", "1905-03-28", "1905-03-29", "1905-03-30", "1905-03-31"],
         "importance": "17"
      }
      }, 
    {
      "type": "Feature",
      "geometry": {
        "type": "Point",
        "coordinates": [16.366111, 48.209167]
      },
      "properties": {
         "id": "pmb4",
         "title": "Bösendorfer-Saal",
         "lat": "48.209167",
         "lon": "16.366111",
         "timestamp": ["1905-03-30"],
         "importance": "1"
      }
      }, 
    {
      "type": "Feature",
      "geometry": {
        "type": "Point",
        "coordinates": [16.365278, 48.210278]
      },
      "properties": {
         "id": "pmb262",
         "title": "Café Central",
         "lat": "48.210278",
         "lon": "16.365278",
         "timestamp": ["1905-03-23"],
         "importance": "1"
      }
      }, 
    {
      "type": "Feature",
      "geometry": {
        "type": "Point",
        "coordinates": [16.33306, 48.25]
      },
      "properties": {
         "id": "pmb69",
         "title": "XIX., Döbling",
         "lat": "48.25",
         "lon": "16.33306",
         "timestamp": ["1905-03-25"],
         "importance": "1"
      }
      }, 
    {
      "type": "Feature",
      "geometry": {
        "type": "Point",
        "coordinates": [16.29101, 48.17547]
      },
      "properties": {
         "id": "pmb63",
         "title": "XIII., Hietzing",
         "lat": "48.17547",
         "lon": "16.29101",
         "timestamp": ["1905-03-02"],
         "importance": "1"
      }
      }, 
    {
      "type": "Feature",
      "geometry": {
        "type": "Point",
        "coordinates": [16.355191, 48.248422]
      },
      "properties": {
         "id": "pmb92292",
         "title": "Hohe Warte",
         "lat": "48.248422",
         "lon": "16.355191",
         "timestamp": ["1905-03-29"],
         "importance": "1"
      }
      }, 
    {
      "type": "Feature",
      "geometry": {
        "type": "Point",
        "coordinates": [14.44241, 45.32673]
      },
      "properties": {
         "id": "pmb902",
         "title": "Rijeka",
         "lat": "45.32673",
         "lon": "14.44241",
         "timestamp": ["1905-03-17"],
         "importance": "1"
      }
      }, 
    {
      "type": "Feature",
      "geometry": {
        "type": "Point",
        "coordinates": [14.30515, 45.33771]
      },
      "properties": {
         "id": "pmb38096",
         "title": "Opatija",
         "lat": "45.33771",
         "lon": "14.30515",
         "timestamp": ["1905-03-17"],
         "importance": "1"
      }
      }, 
    {
      "type": "Feature",
      "geometry": {
        "type": "Point",
        "coordinates": [16.379829498031, 48.187455471378]
      },
      "properties": {
         "id": "pmb132",
         "title": "Südbahnhof",
         "lat": "48.187455471378",
         "lon": "16.379829498031",
         "timestamp": ["1905-03-25"],
         "importance": "1"
      }
      }, 
    {
      "type": "Feature",
      "geometry": {
        "type": "Point",
        "coordinates": [16.371211, 48.206416]
      },
      "properties": {
         "id": "pmb96",
         "title": "Meissl & Schadn",
         "lat": "48.206416",
         "lon": "16.371211",
         "timestamp": ["1905-03-30"],
         "importance": "1"
      }
      }, 
    {
      "type": "Feature",
      "geometry": {
        "type": "Point",
        "coordinates": [16.300034240016, 48.246838181084]
      },
      "properties": {
         "id": "pmb169",
         "title": "Pötzleinsdorf",
         "lat": "48.246838181084",
         "lon": "16.300034240016",
         "timestamp": ["1905-03-25", "1905-03-26"],
         "importance": "2"
      }
      }, 
    {
      "type": "Feature",
      "geometry": {
        "type": "Point",
        "coordinates": [16.380905, 48.198484]
      },
      "properties": {
         "id": "pmb192623",
         "title": "Salesianergasse 12",
         "lat": "48.198484",
         "lon": "16.380905",
         "timestamp": ["1905-03-21"],
         "importance": "1"
      }
      }, 
    {
      "type": "Feature",
      "geometry": {
        "type": "Point",
        "coordinates": [16.342154562605, 48.250804274577]
      },
      "properties": {
         "id": "pmb225",
         "title": "Grinzing",
         "lat": "48.250804274577",
         "lon": "16.342154562605",
         "timestamp": ["1905-03-29"],
         "importance": "1"
      }
      }, 
    {
      "type": "Feature",
      "geometry": {
        "type": "Point",
        "coordinates": [16.28610371233, 48.233119188484]
      },
      "properties": {
         "id": "pmb170",
         "title": "Neuwaldegg",
         "lat": "48.233119188484",
         "lon": "16.28610371233",
         "timestamp": ["1905-03-26"],
         "importance": "1"
      }
      }, 
    {
      "type": "Feature",
      "geometry": {
        "type": "Point",
        "coordinates": [16.35736, 48.21533]
      },
      "properties": {
         "id": "pmb168934",
         "title": "Frankgasse 1",
         "lat": "48.21533",
         "lon": "16.35736",
         "timestamp": ["1905-03-01", "1905-03-18", "1905-03-19", "1905-03-21", "1905-03-23", "1905-03-24", "1905-03-26", "1905-03-28", "1905-03-31"],
         "importance": "9"
      }
      }, 
    {
      "type": "Feature",
      "geometry": {
        "type": "Point",
        "coordinates": [16.375135, 48.204532]
      },
      "properties": {
         "id": "pmb199692",
         "title": "Schellinggasse 6",
         "lat": "48.204532",
         "lon": "16.375135",
         "timestamp": ["1905-03-28"],
         "importance": "1"
      }
      }, 
    {
      "type": "Feature",
      "geometry": {
        "type": "Point",
        "coordinates": [16.364283, 48.201813]
      },
      "properties": {
         "id": "pmb206958",
         "title": "Gauermanngasse 4",
         "lat": "48.201813",
         "lon": "16.364283",
         "timestamp": ["1905-03-01"],
         "importance": "1"
      }
      }, 
    {
      "type": "Feature",
      "geometry": {
        "type": "Point",
        "coordinates": [16.368738, 48.213038]
      },
      "properties": {
         "id": "pmb207296",
         "title": "Tiefer Graben 23",
         "lat": "48.213038",
         "lon": "16.368738",
         "timestamp": ["1905-03-02", "1905-03-21"],
         "importance": "2"
      }
      }, 
    {
      "type": "Feature",
      "geometry": {
        "type": "Point",
        "coordinates": [16.433333, 43.5]
      },
      "properties": {
         "id": "pmb4231",
         "title": "Split",
         "lat": "43.5",
         "lon": "16.433333",
         "timestamp": ["1905-03-16"],
         "importance": "1"
      }
      }, 
    {
      "type": "Feature",
      "geometry": {
        "type": "Point",
        "coordinates": [18.09216, 42.64807]
      },
      "properties": {
         "id": "pmb682",
         "title": "Dubrovnik",
         "lat": "42.64807",
         "lon": "18.09216",
         "timestamp": ["1905-03-15"],
         "importance": "1"
      }
      }, 
    {
      "type": "Feature",
      "geometry": {
        "type": "Point",
        "coordinates": [18.76825, 42.42067]
      },
      "properties": {
         "id": "pmb1073",
         "title": "Kotor",
         "lat": "42.42067",
         "lon": "18.76825",
         "timestamp": ["1905-03-14"],
         "importance": "1"
      }
      }, 
    {
      "type": "Feature",
      "geometry": {
        "type": "Point",
        "coordinates": [18.07833, 42.66778]
      },
      "properties": {
         "id": "pmb91401",
         "title": "Ombla",
         "lat": "42.66778",
         "lon": "18.07833",
         "timestamp": ["1905-03-15"],
         "importance": "1"
      }
      }, 
    {
      "type": "Feature",
      "geometry": {
        "type": "Point",
        "coordinates": [16.5, 43.5]
      },
      "properties": {
         "id": "pmb453",
         "title": "Solin",
         "lat": "43.5",
         "lon": "16.5",
         "timestamp": ["1905-03-16"],
         "importance": "1"
      }
      }, 
    {
      "type": "Feature",
      "geometry": {
        "type": "Point",
        "coordinates": [7.42732, 43.73976]
      },
      "properties": {
         "id": "pmb5862",
         "title": "Monte Carlo",
         "lat": "43.73976",
         "lon": "7.42732",
         "timestamp": ["1905-03-06"],
         "importance": "1"
      }
      }, 
    {
      "type": "Feature",
      "geometry": {
        "type": "Point",
        "coordinates": [8.94439, 44.40478]
      },
      "properties": {
         "id": "pmb114105",
         "title": "Genua",
         "lat": "44.40478",
         "lon": "8.94439",
         "timestamp": ["1905-03-04", "1905-03-05"],
         "importance": "2"
      }
      }, 
    {
      "type": "Feature",
      "geometry": {
        "type": "Point",
        "coordinates": [16.2911, 48.2553]
      },
      "properties": {
         "id": "pmb242",
         "title": "Salmannsdorf",
         "lat": "48.2553",
         "lon": "16.2911",
         "timestamp": ["1905-03-26"],
         "importance": "1"
      }
      }, 
    {
      "type": "Feature",
      "geometry": {
        "type": "Point",
        "coordinates": [16.293147561818, 48.251927827778]
      },
      "properties": {
         "id": "pmb540",
         "title": "Hameau",
         "lat": "48.251927827778",
         "lon": "16.293147561818",
         "timestamp": ["1905-03-25"],
         "importance": "1"
      }
      }, 
    {
      "type": "Feature",
      "geometry": {
        "type": "Point",
        "coordinates": [16.261305, 48.186771]
      },
      "properties": {
         "id": "pmb207274",
         "title": "Haus Bahr",
         "lat": "48.186771",
         "lon": "16.261305",
         "timestamp": ["1905-03-30"],
         "importance": "1"
      }
      }, 
    {
      "type": "Feature",
      "geometry": {
        "type": "Point",
        "coordinates": [16.362746, 48.21997]
      },
      "properties": {
         "id": "pmb231653",
         "title": "Müllnergasse 3",
         "lat": "48.21997",
         "lon": "16.362746",
         "timestamp": ["1905-03-21"],
         "importance": "1"
      }
      }, 
    {
      "type": "Feature",
      "geometry": {
        "type": "Point",
        "coordinates": [16.361349, 48.223406]
      },
      "properties": {
         "id": "pmb231945",
         "title": "Porzellangasse 45",
         "lat": "48.223406",
         "lon": "16.361349",
         "timestamp": ["1905-03-24"],
         "importance": "1"
      }
      }, 
    {
      "type": "Feature",
      "geometry": {
        "type": "Point",
        "coordinates": [16.33472, 48.2304]
      },
      "properties": {
         "id": "pmb168940",
         "title": "Edmund-Weiß-Gasse 7",
         "lat": "48.2304",
         "lon": "16.33472",
         "timestamp": ["1905-03-01", "1905-03-02", "1905-03-03", "1905-03-18", "1905-03-19", "1905-03-20", "1905-03-21", "1905-03-22", "1905-03-23", "1905-03-24", "1905-03-25", "1905-03-26", "1905-03-27", "1905-03-28", "1905-03-29", "1905-03-30", "1905-03-31"],
         "importance": "17"
      }
      }, 
    {
      "type": "Feature",
      "geometry": {
        "type": "Point",
        "coordinates": [16.30202, 48.18636]
      },
      "properties": {
         "id": "pmb304",
         "title": "Ottakringer Bräu",
         "lat": "48.18636",
         "lon": "16.30202",
         "timestamp": ["1905-03-02"],
         "importance": "1"
      }
      }, 
    {
      "type": "Feature",
      "geometry": {
        "type": "Point",
        "coordinates": [16.353908, 48.222789]
      },
      "properties": {
         "id": "pmb236593",
         "title": "Nussdorfer Straße 4",
         "lat": "48.222789",
         "lon": "16.353908",
         "timestamp": ["1905-03-24"],
         "importance": "1"
      }
      }, 
    {
      "type": "Feature",
      "geometry": {
        "type": "Point",
        "coordinates": [16.28606, 48.25849]
      },
      "properties": {
         "id": "pmb537",
         "title": "Dreimarkstein [Wien]",
         "lat": "48.25849",
         "lon": "16.28606",
         "timestamp": ["1905-03-25"],
         "importance": "1"
      }
      }, 
    {
      "type": "Feature",
      "geometry": {
        "type": "Point",
        "coordinates": [14.26811, 40.85216]
      },
      "properties": {
         "id": "pmb595",
         "title": "Neapel",
         "lat": "40.85216",
         "lon": "14.26811",
         "timestamp": ["1905-03-08", "1905-03-09"],
         "importance": "2"
      }
      }, 
    {
      "type": "Feature",
      "geometry": {
        "type": "Point",
        "coordinates": [14.489722, 40.750556]
      },
      "properties": {
         "id": "pmb1283",
         "title": "Pompeji",
         "lat": "40.750556",
         "lon": "14.489722",
         "timestamp": ["1905-03-09"],
         "importance": "1"
      }
      }, 
    {
      "type": "Feature",
      "geometry": {
        "type": "Point",
        "coordinates": [13.33561, 38.13205]
      },
      "properties": {
         "id": "pmb901",
         "title": "Palermo",
         "lat": "38.13205",
         "lon": "13.33561",
         "timestamp": ["1905-03-10"],
         "importance": "1"
      }
      }, 
    {
      "type": "Feature",
      "geometry": {
        "type": "Point",
        "coordinates": [13.37560505, 38.11349215]
      },
      "properties": {
         "id": "pmb234064",
         "title": "Villa Giulia",
         "lat": "38.11349215",
         "lon": "13.37560505",
         "timestamp": ["1905-03-10"],
         "importance": "1"
      }
      }, 
    {
      "type": "Feature",
      "geometry": {
        "type": "Point",
        "coordinates": [13.3725, 38.1125]
      },
      "properties": {
         "id": "pmb234067",
         "title": "Orto botanico di Palermo",
         "lat": "38.1125",
         "lon": "13.3725",
         "timestamp": ["1905-03-10"],
         "importance": "1"
      }
      }, 
    {
      "type": "Feature",
      "geometry": {
        "type": "Point",
        "coordinates": [15.55256, 38.19394]
      },
      "properties": {
         "id": "pmb1277",
         "title": "Messina",
         "lat": "38.19394",
         "lon": "15.55256",
         "timestamp": ["1905-03-11"],
         "importance": "1"
      }
      }, 
    {
      "type": "Feature",
      "geometry": {
        "type": "Point",
        "coordinates": [16.328044, 48.238759]
      },
      "properties": {
         "id": "pmb841",
         "title": "Döblinger Friedhof",
         "lat": "48.238759",
         "lon": "16.328044",
         "timestamp": ["1905-03-29"],
         "importance": "1"
      }
      }, 
    {
      "type": "Feature",
      "geometry": {
        "type": "Point",
        "coordinates": [16.363556, 48.211902]
      },
      "properties": {
         "id": "pmb234436",
         "title": "Teinfaltstraße 4",
         "lat": "48.211902",
         "lon": "16.363556",
         "timestamp": ["1905-03-28"],
         "importance": "1"
      }
      }, 
    {
      "type": "Feature",
      "geometry": {
        "type": "Point",
        "coordinates": [8.81213, 44.42445]
      },
      "properties": {
         "id": "pmb41022",
         "title": "Pegli",
         "lat": "44.42445",
         "lon": "8.81213",
         "timestamp": ["1905-03-04"],
         "importance": "1"
      }
      }, 
    {
      "type": "Feature",
      "geometry": {
        "type": "Point",
        "coordinates": [8.817317, 44.42949]
      },
      "properties": {
         "id": "pmb235015",
         "title": "Villa Durazzo Pallavicini",
         "lat": "44.42949",
         "lon": "8.817317",
         "timestamp": ["1905-03-04"],
         "importance": "1"
      }
      }, 
    {
      "type": "Feature",
      "geometry": {
        "type": "Point",
        "coordinates": [9.95347, 44.29844]
      },
      "properties": {
         "id": "pmb92013",
         "title": "Villafranca in Lunigiana",
         "lat": "44.29844",
         "lon": "9.95347",
         "timestamp": ["1905-03-05", "1905-03-06"],
         "importance": "2"
      }
      }, 
    {
      "type": "Feature",
      "geometry": {
        "type": "Point",
        "coordinates": [7.41667, 43.73333]
      },
      "properties": {
         "id": "pmb12719",
         "title": "Monaco",
         "lat": "43.73333",
         "lon": "7.41667",
         "timestamp": ["1905-03-06"],
         "importance": "1"
      }
      }, 
    {
      "type": "Feature",
      "geometry": {
        "type": "Point",
        "coordinates": [7.48207, 43.76408]
      },
      "properties": {
         "id": "pmb90442",
         "title": "Roquebrune-Cap-Martin",
         "lat": "43.76408",
         "lon": "7.48207",
         "timestamp": ["1905-03-06"],
         "importance": "1"
      }
      }, 
    {
      "type": "Feature",
      "geometry": {
        "type": "Point",
        "coordinates": [7.50435, 43.77649]
      },
      "properties": {
         "id": "pmb36456",
         "title": "Menton",
         "lat": "43.77649",
         "lon": "7.50435",
         "timestamp": ["1905-03-06"],
         "importance": "1"
      }
      }, 
    {
      "type": "Feature",
      "geometry": {
        "type": "Point",
        "coordinates": [8.73812, 41.91886]
      },
      "properties": {
         "id": "pmb847",
         "title": "Ajaccio",
         "lat": "41.91886",
         "lon": "8.73812",
         "timestamp": ["1905-03-07"],
         "importance": "1"
      }
      }, 
    {
      "type": "Feature",
      "geometry": {
        "type": "Point",
        "coordinates": [8.73854, 41.91802]
      },
      "properties": {
         "id": "pmb45229",
         "title": "Maison Bonaparte",
         "lat": "41.91802",
         "lon": "8.73854",
         "timestamp": ["1905-03-07"],
         "importance": "1"
      }
      }, 
    {
      "type": "Feature",
      "geometry": {
        "type": "Point",
        "coordinates": [13.339167, 38.111667]
      },
      "properties": {
         "id": "pmb235020",
         "title": "Convento dei Cappuccini",
         "lat": "38.111667",
         "lon": "13.339167",
         "timestamp": ["1905-03-10"],
         "importance": "1"
      }
      }, 
    {
      "type": "Feature",
      "geometry": {
        "type": "Point",
        "coordinates": [13.354722222222, 38.109722222222]
      },
      "properties": {
         "id": "pmb235023",
         "title": "San Giovanni degli Eremiti",
         "lat": "38.109722222222",
         "lon": "13.354722222222",
         "timestamp": ["1905-03-10"],
         "importance": "1"
      }
      }, 
    {
      "type": "Feature",
      "geometry": {
        "type": "Point",
        "coordinates": [15.5426314, 38.1751401]
      },
      "properties": {
         "id": "pmb235028",
         "title": "Cimitero monumentale di Messina",
         "lat": "38.1751401",
         "lon": "15.5426314",
         "timestamp": ["1905-03-11"],
         "importance": "1"
      }
      }, 
    {
      "type": "Feature",
      "geometry": {
        "type": "Point",
        "coordinates": [15.55538889, 38.19218056]
      },
      "properties": {
         "id": "pmb235031",
         "title": "Duomo di Messina",
         "lat": "38.19218056",
         "lon": "15.55538889",
         "timestamp": ["1905-03-11"],
         "importance": "1"
      }
      }, 
    {
      "type": "Feature",
      "geometry": {
        "type": "Point",
        "coordinates": [15.537222222222, 38.276944444444]
      },
      "properties": {
         "id": "pmb235034",
         "title": "Massa San Giorgio",
         "lat": "38.276944444444",
         "lon": "15.537222222222",
         "timestamp": ["1905-03-11"],
         "importance": "1"
      }
      }, 
    {
      "type": "Feature",
      "geometry": {
        "type": "Point",
        "coordinates": [19.852222, 39.598055]
      },
      "properties": {
         "id": "pmb455",
         "title": "Korfu",
         "lat": "39.598055",
         "lon": "19.852222",
         "timestamp": ["1905-03-11", "1905-03-12", "1905-03-13"],
         "importance": "3"
      }
      }, 
    {
      "type": "Feature",
      "geometry": {
        "type": "Point",
        "coordinates": [19.90425, 39.562444444444]
      },
      "properties": {
         "id": "pmb235038",
         "title": "Achilleion",
         "lat": "39.562444444444",
         "lon": "19.90425",
         "timestamp": ["1905-03-13"],
         "importance": "1"
      }
      }, 
    {
      "type": "Feature",
      "geometry": {
        "type": "Point",
        "coordinates": [19.929444444444446, 39.623333333333335]
      },
      "properties": {
         "id": "pmb235041",
         "title": "Alte Festung",
         "lat": "39.623333333333335",
         "lon": "19.929444444444446",
         "timestamp": ["1905-03-13"],
         "importance": "1"
      }
      }, 
    {
      "type": "Feature",
      "geometry": {
        "type": "Point",
        "coordinates": [19.9239721, 39.624789]
      },
      "properties": {
         "id": "pmb235046",
         "title": "Grand Hotel Saint Georges",
         "lat": "39.624789",
         "lon": "19.9239721",
         "timestamp": ["1905-03-13"],
         "importance": "1"
      }
      }, 
    {
      "type": "Feature",
      "geometry": {
        "type": "Point",
        "coordinates": [19.916666666667, 39.6]
      },
      "properties": {
         "id": "pmb235049",
         "title": "Kanoni",
         "lat": "39.6",
         "lon": "19.916666666667",
         "timestamp": ["1905-03-13"],
         "importance": "1"
      }
      }, 
    {
      "type": "Feature",
      "geometry": {
        "type": "Point",
        "coordinates": [19.926111111111112, 39.60638888888889]
      },
      "properties": {
         "id": "pmb235052",
         "title": "Mon Repos",
         "lat": "39.60638888888889",
         "lon": "19.926111111111112",
         "timestamp": ["1905-03-13"],
         "importance": "1"
      }
      }, 
    {
      "type": "Feature",
      "geometry": {
        "type": "Point",
        "coordinates": [18.10491, 42.64262]
      },
      "properties": {
         "id": "pmb365",
         "title": "Grand Hotel Imperial [Dubrovnik]",
         "lat": "42.64262",
         "lon": "18.10491",
         "timestamp": ["1905-03-15"],
         "importance": "1"
      }
      }, 
    {
      "type": "Feature",
      "geometry": {
        "type": "Point",
        "coordinates": [16.438333333333, 43.508055555556]
      },
      "properties": {
         "id": "pmb235057",
         "title": "Diokletianspalast",
         "lat": "43.508055555556",
         "lon": "16.438333333333",
         "timestamp": ["1905-03-16"],
         "importance": "1"
      }
      }, 
    {
      "type": "Feature",
      "geometry": {
        "type": "Point",
        "coordinates": [16.37, 48.2]
      },
      "properties": {
         "id": "pmb235063",
         "title": "Ostbahnhof",
         "lat": "48.2",
         "lon": "16.37",
         "timestamp": ["1905-03-18"],
         "importance": "1"
      }
      }, 
    {
      "type": "Feature",
      "geometry": {
        "type": "Point",
        "coordinates": [16.358254, 48.216404]
      },
      "properties": {
         "id": "pmb231658",
         "title": "Günthergasse 1",
         "lat": "48.216404",
         "lon": "16.358254",
         "timestamp": ["1905-03-18"],
         "importance": "1"
      }
      }, 
    {
      "type": "Feature",
      "geometry": {
        "type": "Point",
        "coordinates": [16.356671, 48.214272]
      },
      "properties": {
         "id": "pmb235068",
         "title": "Universitätsstraße 11",
         "lat": "48.214272",
         "lon": "16.356671",
         "timestamp": ["1905-03-18", "1905-03-23"],
         "importance": "2"
      }
      }, 
    {
      "type": "Feature",
      "geometry": {
        "type": "Point",
        "coordinates": [16.356792, 48.226728]
      },
      "properties": {
         "id": "pmb235374",
         "title": "Liechtensteinstraße 68–70",
         "lat": "48.226728",
         "lon": "16.356792",
         "timestamp": ["1905-03-28"],
         "importance": "1"
      }
      }
  ]
}