{
  "type": "FeatureCollection",
  "features": [
    {
      "type": "Feature",
      "geometry": {
        "type": "Point",
        "coordinates": [16.373056, 48.208333]
      },
      "properties": {
         "id": "pmb50",
         "title": "Wien",
         "lat": "48.208333",
         "lon": "16.373056",
         "timestamp": ["1905-10-01", "1905-10-02", "1905-10-03", "1905-10-04", "1905-10-05", "1905-10-06", "1905-10-07", "1905-10-08", "1905-10-09", "1905-10-10", "1905-10-11", "1905-10-12", "1905-10-13", "1905-10-14", "1905-10-15", "1905-10-16", "1905-10-20", "1905-10-20", "1905-10-21", "1905-10-22", "1905-10-23", "1905-10-24", "1905-10-25", "1905-10-26", "1905-10-27", "1905-10-28", "1905-10-29", "1905-10-30", "1905-10-31"],
         "importance": "29"
      }
      }, 
    {
      "type": "Feature",
      "geometry": {
        "type": "Point",
        "coordinates": [16.351111, 48.209583]
      },
      "properties": {
         "id": "pmb40",
         "title": "Theater in der Josefstadt",
         "lat": "48.209583",
         "lon": "16.351111",
         "timestamp": ["1905-10-03", "1905-10-07"],
         "importance": "2"
      }
      }, 
    {
      "type": "Feature",
      "geometry": {
        "type": "Point",
        "coordinates": [16.361139, 48.210333]
      },
      "properties": {
         "id": "pmb14",
         "title": "Burgtheater",
         "lat": "48.210333",
         "lon": "16.361139",
         "timestamp": ["1905-10-05", "1905-10-06", "1905-10-09", "1905-10-10", "1905-10-11", "1905-10-12", "1905-10-14", "1905-10-15", "1905-10-28", "1905-10-31"],
         "importance": "10"
      }
      }, 
    {
      "type": "Feature",
      "geometry": {
        "type": "Point",
        "coordinates": [16.33306, 48.25]
      },
      "properties": {
         "id": "pmb69",
         "title": "XIX., Döbling",
         "lat": "48.25",
         "lon": "16.33306",
         "timestamp": ["1905-10-08"],
         "importance": "1"
      }
      }, 
    {
      "type": "Feature",
      "geometry": {
        "type": "Point",
        "coordinates": [16.3538456, 48.2134031]
      },
      "properties": {
         "id": "pmb44",
         "title": "Riedhof",
         "lat": "48.2134031",
         "lon": "16.3538456",
         "timestamp": ["1905-10-28"],
         "importance": "1"
      }
      }, 
    {
      "type": "Feature",
      "geometry": {
        "type": "Point",
        "coordinates": [16.341944, 48.233056]
      },
      "properties": {
         "id": "pmb533",
         "title": "Währinger Cottage",
         "lat": "48.233056",
         "lon": "16.341944",
         "timestamp": ["1905-10-22"],
         "importance": "1"
      }
      }, 
    {
      "type": "Feature",
      "geometry": {
        "type": "Point",
        "coordinates": [16.3566, 48.205142]
      },
      "properties": {
         "id": "pmb20",
         "title": "Volkstheater",
         "lat": "48.205142",
         "lon": "16.3566",
         "timestamp": ["1905-10-09", "1905-10-10", "1905-10-12", "1905-10-13", "1905-10-14", "1905-10-26"],
         "importance": "6"
      }
      }, 
    {
      "type": "Feature",
      "geometry": {
        "type": "Point",
        "coordinates": [16.37243, 48.19544]
      },
      "properties": {
         "id": "pmb50989",
         "title": "Taubstummengasse",
         "lat": "48.19544",
         "lon": "16.37243",
         "timestamp": ["1905-10-24"],
         "importance": "1"
      }
      }, 
    {
      "type": "Feature",
      "geometry": {
        "type": "Point",
        "coordinates": [16.371211, 48.206416]
      },
      "properties": {
         "id": "pmb96",
         "title": "Meissl & Schadn",
         "lat": "48.206416",
         "lon": "16.371211",
         "timestamp": ["1905-10-14", "1905-10-15"],
         "importance": "2"
      }
      }, 
    {
      "type": "Feature",
      "geometry": {
        "type": "Point",
        "coordinates": [16.34706, 48.21126]
      },
      "properties": {
         "id": "pmb58",
         "title": "VIII., Josefstadt",
         "lat": "48.21126",
         "lon": "16.34706",
         "timestamp": ["1905-10-03", "1905-10-07"],
         "importance": "2"
      }
      }, 
    {
      "type": "Feature",
      "geometry": {
        "type": "Point",
        "coordinates": [16.300034240016, 48.246838181084]
      },
      "properties": {
         "id": "pmb169",
         "title": "Pötzleinsdorf",
         "lat": "48.246838181084",
         "lon": "16.300034240016",
         "timestamp": ["1905-10-01", "1905-10-08", "1905-10-29", "1905-10-30"],
         "importance": "4"
      }
      }, 
    {
      "type": "Feature",
      "geometry": {
        "type": "Point",
        "coordinates": [15.8241, 47.64224]
      },
      "properties": {
         "id": "pmb189",
         "title": "Semmering",
         "lat": "47.64224",
         "lon": "15.8241",
         "timestamp": ["1905-10-16", "1905-10-17", "1905-10-18", "1905-10-19", "1905-10-20"],
         "importance": "5"
      }
      }, 
    {
      "type": "Feature",
      "geometry": {
        "type": "Point",
        "coordinates": [15.80388, 47.65736]
      },
      "properties": {
         "id": "pmb90192",
         "title": "Adlitzgraben",
         "lat": "47.65736",
         "lon": "15.80388",
         "timestamp": ["1905-10-19"],
         "importance": "1"
      }
      }, 
    {
      "type": "Feature",
      "geometry": {
        "type": "Point",
        "coordinates": [16.35736, 48.21533]
      },
      "properties": {
         "id": "pmb168934",
         "title": "Frankgasse 1",
         "lat": "48.21533",
         "lon": "16.35736",
         "timestamp": ["1905-10-03", "1905-10-05", "1905-10-06", "1905-10-10", "1905-10-11", "1905-10-12", "1905-10-22", "1905-10-27", "1905-10-29", "1905-10-31"],
         "importance": "10"
      }
      }, 
    {
      "type": "Feature",
      "geometry": {
        "type": "Point",
        "coordinates": [16.368738, 48.213038]
      },
      "properties": {
         "id": "pmb207296",
         "title": "Tiefer Graben 23",
         "lat": "48.213038",
         "lon": "16.368738",
         "timestamp": ["1905-10-25", "1905-10-31"],
         "importance": "2"
      }
      }, 
    {
      "type": "Feature",
      "geometry": {
        "type": "Point",
        "coordinates": [16.2911, 48.2553]
      },
      "properties": {
         "id": "pmb242",
         "title": "Salmannsdorf",
         "lat": "48.2553",
         "lon": "16.2911",
         "timestamp": ["1905-10-08"],
         "importance": "1"
      }
      }, 
    {
      "type": "Feature",
      "geometry": {
        "type": "Point",
        "coordinates": [16.362746, 48.21997]
      },
      "properties": {
         "id": "pmb231653",
         "title": "Müllnergasse 3",
         "lat": "48.21997",
         "lon": "16.362746",
         "timestamp": ["1905-10-03"],
         "importance": "1"
      }
      }, 
    {
      "type": "Feature",
      "geometry": {
        "type": "Point",
        "coordinates": [16.353571, 48.239999]
      },
      "properties": {
         "id": "pmb231906",
         "title": "Dollinergasse 8",
         "lat": "48.239999",
         "lon": "16.353571",
         "timestamp": ["1905-10-14"],
         "importance": "1"
      }
      }, 
    {
      "type": "Feature",
      "geometry": {
        "type": "Point",
        "coordinates": [16.361349, 48.223406]
      },
      "properties": {
         "id": "pmb231945",
         "title": "Porzellangasse 45",
         "lat": "48.223406",
         "lon": "16.361349",
         "timestamp": ["1905-10-26"],
         "importance": "1"
      }
      }, 
    {
      "type": "Feature",
      "geometry": {
        "type": "Point",
        "coordinates": [16.33472, 48.2304]
      },
      "properties": {
         "id": "pmb168940",
         "title": "Edmund-Weiß-Gasse 7",
         "lat": "48.2304",
         "lon": "16.33472",
         "timestamp": ["1905-10-01", "1905-10-02", "1905-10-03", "1905-10-04", "1905-10-05", "1905-10-06", "1905-10-07", "1905-10-08", "1905-10-09", "1905-10-10", "1905-10-11", "1905-10-12", "1905-10-13", "1905-10-14", "1905-10-15", "1905-10-16", "1905-10-20", "1905-10-21", "1905-10-22", "1905-10-23", "1905-10-24", "1905-10-25", "1905-10-26", "1905-10-27", "1905-10-28", "1905-10-29", "1905-10-30", "1905-10-31"],
         "importance": "28"
      }
      }, 
    {
      "type": "Feature",
      "geometry": {
        "type": "Point",
        "coordinates": [16.370342, 48.211369]
      },
      "properties": {
         "id": "pmb234548",
         "title": "Jordangasse 9",
         "lat": "48.211369",
         "lon": "16.370342",
         "timestamp": ["1905-10-24"],
         "importance": "1"
      }
      }, 
    {
      "type": "Feature",
      "geometry": {
        "type": "Point",
        "coordinates": [16.356671, 48.214272]
      },
      "properties": {
         "id": "pmb235068",
         "title": "Universitätsstraße 11",
         "lat": "48.214272",
         "lon": "16.356671",
         "timestamp": ["1905-10-31"],
         "importance": "1"
      }
      }, 
    {
      "type": "Feature",
      "geometry": {
        "type": "Point",
        "coordinates": [16.2507, 48.09033]
      },
      "properties": {
         "id": "pmb40512",
         "title": "Cur- und Wasserheilanstalt Hinterbrühl",
         "lat": "48.09033",
         "lon": "16.2507",
         "timestamp": ["1905-10-29"],
         "importance": "1"
      }
      }, 
    {
      "type": "Feature",
      "geometry": {
        "type": "Point",
        "coordinates": [16.344604, 48.227308]
      },
      "properties": {
         "id": "pmb235637",
         "title": "Edelhofgasse 3",
         "lat": "48.227308",
         "lon": "16.344604",
         "timestamp": ["1905-10-22"],
         "importance": "1"
      }
      }, 
    {
      "type": "Feature",
      "geometry": {
        "type": "Point",
        "coordinates": [15.81667, 47.65]
      },
      "properties": {
         "id": "pmb91482",
         "title": "Pinkenkogel",
         "lat": "47.65",
         "lon": "15.81667",
         "timestamp": ["1905-10-18"],
         "importance": "1"
      }
      }, 
    {
      "type": "Feature",
      "geometry": {
        "type": "Point",
        "coordinates": [15.83, 47.647222]
      },
      "properties": {
         "id": "pmb413",
         "title": "Südbahnhotel [Semmering]",
         "lat": "47.647222",
         "lon": "15.83",
         "timestamp": ["1905-10-16", "1905-10-17", "1905-10-18", "1905-10-19", "1905-10-20"],
         "importance": "5"
      }
      }, 
    {
      "type": "Feature",
      "geometry": {
        "type": "Point",
        "coordinates": [16.372054, 48.195488]
      },
      "properties": {
         "id": "pmb186993",
         "title": "Taubstummengasse 4",
         "lat": "48.195488",
         "lon": "16.372054",
         "timestamp": ["1905-10-24"],
         "importance": "1"
      }
      }, 
    {
      "type": "Feature",
      "geometry": {
        "type": "Point",
        "coordinates": [16.368132, 48.202367]
      },
      "properties": {
         "id": "pmb236570",
         "title": "Opernring 3",
         "lat": "48.202367",
         "lon": "16.368132",
         "timestamp": ["1905-10-25"],
         "importance": "1"
      }
      }, 
    {
      "type": "Feature",
      "geometry": {
        "type": "Point",
        "coordinates": [16.355107, 48.211405]
      },
      "properties": {
         "id": "pmb236580",
         "title": "Friedrich-Schmidt-Platz 5",
         "lat": "48.211405",
         "lon": "16.355107",
         "timestamp": ["1905-10-26"],
         "importance": "1"
      }
      }
  ]
}