{
  "type": "FeatureCollection",
  "features": [
    {
      "type": "Feature", 
      "geometry": {
        "type": "LineString", 
        "coordinates": [
            [16.339451, 48.206591], 
            [16.3691, 48.203], 
            [16.369444, 48.203889], 
            [16.371571, 48.208448], 
            [16.33472, 48.2304]
          ]
      },
      "properties": {
        "name": "10. November 1906"
      }
    },
    {
      "type": "Feature",
      "geometry": {
        "type": "Point",
        "coordinates": [
          16.3691, 48.203
        ]
      },
      "properties": {
        "title": "Oper",
        "timestamp": ["1906-11-10"],
        "pmb": "https://pmb.acdh.oeaw.ac.at/entity//", 
        "wikipedia": "https://de.wikipedia.org/wiki/Wiener_Staatsoper"
      }
      },
    {
      "type": "Feature",
      "geometry": {
        "type": "Point",
        "coordinates": [
          16.371571, 48.208448
        ]
      },
      "properties": {
        "title": "Goldschmiedgasse 1",
        "timestamp": ["1906-11-10"],
        "pmb": "https://pmb.acdh.oeaw.ac.at/entity//"
      }
      },
    {
      "type": "Feature",
      "geometry": {
        "type": "Point",
        "coordinates": [
          16.369444, 48.203889
        ]
      },
      "properties": {
        "title": "Hotel Sacher",
        "timestamp": ["1906-11-10"],
        "pmb": "https://pmb.acdh.oeaw.ac.at/entity//"
      }
      },
    {
      "type": "Feature",
      "geometry": {
        "type": "Point",
        "coordinates": [
          16.339451, 48.206591
        ]
      },
      "properties": {
        "title": "Kaiserstraße 103",
        "timestamp": ["1906-11-10"],
        "pmb": "https://pmb.acdh.oeaw.ac.at/entity//"
      }
      },
    {
      "type": "Feature",
      "geometry": {
        "type": "Point",
        "coordinates": [
          16.33472, 48.2304
        ]
      },
      "properties": {
        "title": "Edmund-Weiß-Gasse 7",
        "timestamp": ["1906-11-10"],
        "pmb": "https://pmb.acdh.oeaw.ac.at/entity//"
      }
      }
  ]
}