{
  "type": "FeatureCollection",
  "features": [
    {
      "type": "Feature", 
      "geometry": {
        "type": "LineString", 
        "coordinates": [
            [16.3642, 48.19941], 
            [16.371211, 48.206416], 
            [16.347492624475, 48.216264483348], 
            [16.33472, 48.2304], 
            [16.323195, 48.213619]
          ]
      },
      "properties": {
        "name": "21. Mai 1906"
      }
    },
    {
      "type": "Feature",
      "geometry": {
        "type": "Point",
        "coordinates": [
          16.371211, 48.206416
        ]
      },
      "properties": {
        "title": "Meissl & Schadn",
        "timestamp": ["1906-05-21"],
        "pmb": "https://pmb.acdh.oeaw.ac.at/entity//", 
        "wiengeschichtewiki": "https://www.geschichtewiki.wien.gv.at/Meissl_%26_Schadn"
      }
      },
    {
      "type": "Feature",
      "geometry": {
        "type": "Point",
        "coordinates": [
          16.323195, 48.213619
        ]
      },
      "properties": {
        "title": "Ottakringer Straße 114",
        "timestamp": ["1906-05-21"],
        "pmb": "https://pmb.acdh.oeaw.ac.at/entity//"
      }
      },
    {
      "type": "Feature",
      "geometry": {
        "type": "Point",
        "coordinates": [
          16.347492624475, 48.216264483348
        ]
      },
      "properties": {
        "title": "Sanatorium Loew",
        "timestamp": ["1906-05-21"],
        "pmb": "https://pmb.acdh.oeaw.ac.at/entity//"
      }
      },
    {
      "type": "Feature",
      "geometry": {
        "type": "Point",
        "coordinates": [
          16.3642, 48.19941
        ]
      },
      "properties": {
        "title": "Theater an der Wien",
        "timestamp": ["1906-05-21"],
        "pmb": "https://pmb.acdh.oeaw.ac.at/entity//"
      }
      },
    {
      "type": "Feature",
      "geometry": {
        "type": "Point",
        "coordinates": [
          16.33472, 48.2304
        ]
      },
      "properties": {
        "title": "Edmund-Weiß-Gasse 7",
        "timestamp": ["1906-05-21"],
        "pmb": "https://pmb.acdh.oeaw.ac.at/entity//"
      }
      }
  ]
}