{
  "type": "FeatureCollection",
  "features": [
    {
      "type": "Feature", 
      "geometry": {
        "type": "LineString", 
        "coordinates": [
            [16.3642, 48.19941], 
            [16.36471, 48.200556], 
            [16.373056, 48.208333], 
            [16.381369444444445, 48.20766944444444], 
            [16.33472, 48.2304]
          ]
      },
      "properties": {
        "name": "9. Juni 1906"
      }
    },
    {
      "type": "Feature",
      "geometry": {
        "type": "Point",
        "coordinates": [
          16.373056, 48.208333
        ]
      },
      "properties": {
        "title": "Wien",
        "timestamp": ["1906-06-09"],
        "pmb": "https://pmb.acdh.oeaw.ac.at/entity//", 
        "wikipedia": "https://de.wikipedia.org/wiki/Wien"
      }
      },
    {
      "type": "Feature",
      "geometry": {
        "type": "Point",
        "coordinates": [
          16.36471, 48.200556
        ]
      },
      "properties": {
        "title": "Zum Weingartl",
        "timestamp": ["1906-06-09"],
        "pmb": "https://pmb.acdh.oeaw.ac.at/entity//"
      }
      },
    {
      "type": "Feature",
      "geometry": {
        "type": "Point",
        "coordinates": [
          16.381369444444445, 48.20766944444444
        ]
      },
      "properties": {
        "title": "Museum für Angewandte Kunst",
        "timestamp": ["1906-06-09"],
        "pmb": "https://pmb.acdh.oeaw.ac.at/entity//", 
        "wikipedia": "https://de.wikipedia.org/wiki/Museum_f%C3%BCr_angewandte_Kunst_(Wien)"
      }
      },
    {
      "type": "Feature",
      "geometry": {
        "type": "Point",
        "coordinates": [
          16.3642, 48.19941
        ]
      },
      "properties": {
        "title": "Theater an der Wien",
        "timestamp": ["1906-06-09"],
        "pmb": "https://pmb.acdh.oeaw.ac.at/entity//"
      }
      },
    {
      "type": "Feature",
      "geometry": {
        "type": "Point",
        "coordinates": [
          16.33472, 48.2304
        ]
      },
      "properties": {
        "title": "Edmund-Weiß-Gasse 7",
        "timestamp": ["1906-06-09"],
        "pmb": "https://pmb.acdh.oeaw.ac.at/entity//"
      }
      }
  ]
}