{
  "type": "FeatureCollection",
  "features": [
    {
      "type": "Feature", 
      "geometry": {
        "type": "LineString", 
        "coordinates": [
            [13.736206, 51.0549041], 
            [13.7666, 51.0833], 
            [13.41053, 52.52437], 
            [13.394075, 52.519377], 
            [13.385556, 52.518889]
          ]
      },
      "properties": {
        "name": "18. Februar 1906"
      }
    },
    {
      "type": "Feature",
      "geometry": {
        "type": "Point",
        "coordinates": [
          13.7666, 51.0833
        ]
      },
      "properties": {
        "title": "Dresden",
        "timestamp": ["1906-02-18"],
        "pmb": "https://pmb.acdh.oeaw.ac.at/entity//", 
        "wikipedia": "https://de.wikipedia.org/wiki/Dresden"
      }
      },
    {
      "type": "Feature",
      "geometry": {
        "type": "Point",
        "coordinates": [
          13.736206, 51.0549041
        ]
      },
      "properties": {
        "title": "Hotel Bellevue [Dresden]",
        "timestamp": ["1906-02-18"],
        "pmb": "https://pmb.acdh.oeaw.ac.at/entity//", 
        "wikipedia": "https://de.wikipedia.org/wiki/Calberlasche_Zuckersiederei"
      }
      },
    {
      "type": "Feature",
      "geometry": {
        "type": "Point",
        "coordinates": [
          13.41053, 52.52437
        ]
      },
      "properties": {
        "title": "Berlin",
        "timestamp": ["1906-02-18"],
        "pmb": "https://pmb.acdh.oeaw.ac.at/entity//", 
        "wikipedia": "https://de.wikipedia.org/wiki/Berlin"
      }
      },
    {
      "type": "Feature",
      "geometry": {
        "type": "Point",
        "coordinates": [
          13.385556, 52.518889
        ]
      },
      "properties": {
        "title": "Hotel Continental [Berlin]",
        "timestamp": ["1906-02-18"],
        "pmb": "https://pmb.acdh.oeaw.ac.at/entity//"
      }
      },
    {
      "type": "Feature",
      "geometry": {
        "type": "Point",
        "coordinates": [
          13.394075, 52.519377
        ]
      },
      "properties": {
        "title": "Hotel und Restaurant »Prinz Wilhelm«",
        "timestamp": ["1906-02-18"],
        "pmb": "https://pmb.acdh.oeaw.ac.at/entity//"
      }
      }
  ]
}