{
  "type": "FeatureCollection",
  "features": [
    {
      "type": "Feature", 
      "geometry": {
        "type": "LineString", 
        "coordinates": [
            [16.241739, 48.090788], 
            [16.2507, 48.09033], 
            [16.2507, 48.09033], 
            [16.24809, 48.08611], 
            [16.373056, 48.208333], 
            [16.33472, 48.2304]
          ]
      },
      "properties": {
        "name": "7. Mai 1906"
      }
    },
    {
      "type": "Feature",
      "geometry": {
        "type": "Point",
        "coordinates": [
          16.24809, 48.08611
        ]
      },
      "properties": {
        "title": "Hinterbrühl",
        "timestamp": ["1906-05-07"],
        "pmb": "https://pmb.acdh.oeaw.ac.at/entity//", 
        "wikipedia": "https://de.wikipedia.org/wiki/Hinterbr%C3%BChl"
      }
      },
    {
      "type": "Feature",
      "geometry": {
        "type": "Point",
        "coordinates": [
          16.241739, 48.090788
        ]
      },
      "properties": {
        "title": "Hotel Radetzky",
        "timestamp": ["1906-05-07"],
        "pmb": "https://pmb.acdh.oeaw.ac.at/entity//"
      }
      },
    {
      "type": "Feature",
      "geometry": {
        "type": "Point",
        "coordinates": [
          16.373056, 48.208333
        ]
      },
      "properties": {
        "title": "Wien",
        "timestamp": ["1906-05-07"],
        "pmb": "https://pmb.acdh.oeaw.ac.at/entity//", 
        "wikipedia": "https://de.wikipedia.org/wiki/Wien"
      }
      },
    {
      "type": "Feature",
      "geometry": {
        "type": "Point",
        "coordinates": [
          16.2507, 48.09033
        ]
      },
      "properties": {
        "title": "Cur- und Wasserheilanstalt Hinterbrühl",
        "timestamp": ["1906-05-07"],
        "pmb": "https://pmb.acdh.oeaw.ac.at/entity//", 
        "wiengeschichtewiki": "https://regiowiki.at/wiki/Paulinenhof"
      }
      },
    {
      "type": "Feature",
      "geometry": {
        "type": "Point",
        "coordinates": [
          16.2507, 48.09033
        ]
      },
      "properties": {
        "title": "Cur- und Wasserheilanstalt Hinterbrühl",
        "timestamp": ["1906-05-07"],
        "pmb": "https://pmb.acdh.oeaw.ac.at/entity//", 
        "wiengeschichtewiki": "https://regiowiki.at/wiki/Paulinenhof"
      }
      },
    {
      "type": "Feature",
      "geometry": {
        "type": "Point",
        "coordinates": [
          16.33472, 48.2304
        ]
      },
      "properties": {
        "title": "Edmund-Weiß-Gasse 7",
        "timestamp": ["1906-05-07"],
        "pmb": "https://pmb.acdh.oeaw.ac.at/entity//"
      }
      }
  ]
}