{
  "type": "FeatureCollection",
  "features": [
    {
      "type": "Feature",
      "geometry": {
        "type": "Point",
        "coordinates": [16.373056, 48.208333]
      },
      "properties": {
         "id": "pmb50",
         "title": "Wien",
         "lat": "48.208333",
         "lon": "16.373056",
         "timestamp": ["1906-10-01", "1906-10-02", "1906-10-03", "1906-10-04", "1906-10-05", "1906-10-06", "1906-10-07", "1906-10-08", "1906-10-09", "1906-10-10", "1906-10-11", "1906-10-12", "1906-10-13", "1906-10-14", "1906-10-15", "1906-10-16", "1906-10-17", "1906-10-18", "1906-10-19", "1906-10-20", "1906-10-21", "1906-10-22", "1906-10-23", "1906-10-24", "1906-10-25", "1906-10-26", "1906-10-27", "1906-10-28", "1906-10-29", "1906-10-30", "1906-10-31"],
         "importance": "31"
      }
      }, 
    {
      "type": "Feature",
      "geometry": {
        "type": "Point",
        "coordinates": [16.372564182283, 48.201265597319]
      },
      "properties": {
         "id": "pmb516",
         "title": "Musikverein",
         "lat": "48.201265597319",
         "lon": "16.372564182283",
         "timestamp": ["1906-10-31"],
         "importance": "1"
      }
      }, 
    {
      "type": "Feature",
      "geometry": {
        "type": "Point",
        "coordinates": [16.3691, 48.203]
      },
      "properties": {
         "id": "pmb15",
         "title": "Oper",
         "lat": "48.203",
         "lon": "16.3691",
         "timestamp": ["1906-10-10"],
         "importance": "1"
      }
      }, 
    {
      "type": "Feature",
      "geometry": {
        "type": "Point",
        "coordinates": [16.3642, 48.19941]
      },
      "properties": {
         "id": "pmb37",
         "title": "Theater an der Wien",
         "lat": "48.19941",
         "lon": "16.3642",
         "timestamp": ["1906-10-30"],
         "importance": "1"
      }
      }, 
    {
      "type": "Feature",
      "geometry": {
        "type": "Point",
        "coordinates": [16.361139, 48.210333]
      },
      "properties": {
         "id": "pmb14",
         "title": "Burgtheater",
         "lat": "48.210333",
         "lon": "16.361139",
         "timestamp": ["1906-10-13"],
         "importance": "1"
      }
      }, 
    {
      "type": "Feature",
      "geometry": {
        "type": "Point",
        "coordinates": [16.33306, 48.25]
      },
      "properties": {
         "id": "pmb69",
         "title": "XIX., Döbling",
         "lat": "48.25",
         "lon": "16.33306",
         "timestamp": ["1906-10-21"],
         "importance": "1"
      }
      }, 
    {
      "type": "Feature",
      "geometry": {
        "type": "Point",
        "coordinates": [16.25, 48.26667]
      },
      "properties": {
         "id": "pmb473",
         "title": "Weidlingbach",
         "lat": "48.26667",
         "lon": "16.25",
         "timestamp": ["1906-10-21"],
         "importance": "1"
      }
      }, 
    {
      "type": "Feature",
      "geometry": {
        "type": "Point",
        "coordinates": [16.37049, 48.20769]
      },
      "properties": {
         "id": "pmb51",
         "title": "I., Innere Stadt",
         "lat": "48.20769",
         "lon": "16.37049",
         "timestamp": ["1906-10-16", "1906-10-24"],
         "importance": "2"
      }
      }, 
    {
      "type": "Feature",
      "geometry": {
        "type": "Point",
        "coordinates": [16.3566, 48.205142]
      },
      "properties": {
         "id": "pmb20",
         "title": "Volkstheater",
         "lat": "48.205142",
         "lon": "16.3566",
         "timestamp": ["1906-10-06"],
         "importance": "1"
      }
      }, 
    {
      "type": "Feature",
      "geometry": {
        "type": "Point",
        "coordinates": [16.370064, 48.202791]
      },
      "properties": {
         "id": "pmb205",
         "title": "Hotel Bristol Wien",
         "lat": "48.202791",
         "lon": "16.370064",
         "timestamp": ["1906-10-25"],
         "importance": "1"
      }
      }, 
    {
      "type": "Feature",
      "geometry": {
        "type": "Point",
        "coordinates": [16.28610371233, 48.233119188484]
      },
      "properties": {
         "id": "pmb170",
         "title": "Neuwaldegg",
         "lat": "48.233119188484",
         "lon": "16.28610371233",
         "timestamp": ["1906-10-14"],
         "importance": "1"
      }
      }, 
    {
      "type": "Feature",
      "geometry": {
        "type": "Point",
        "coordinates": [16.35736, 48.21533]
      },
      "properties": {
         "id": "pmb168934",
         "title": "Frankgasse 1",
         "lat": "48.21533",
         "lon": "16.35736",
         "timestamp": ["1906-10-02", "1906-10-05", "1906-10-09", "1906-10-12", "1906-10-19", "1906-10-26"],
         "importance": "6"
      }
      }, 
    {
      "type": "Feature",
      "geometry": {
        "type": "Point",
        "coordinates": [16.339722, 48.192222]
      },
      "properties": {
         "id": "pmb77",
         "title": "Raimund-Theater",
         "lat": "48.192222",
         "lon": "16.339722",
         "timestamp": ["1906-10-08"],
         "importance": "1"
      }
      }, 
    {
      "type": "Feature",
      "geometry": {
        "type": "Point",
        "coordinates": [16.258056, 48.201667]
      },
      "properties": {
         "id": "pmb271",
         "title": "Hütteldorf",
         "lat": "48.201667",
         "lon": "16.258056",
         "timestamp": ["1906-10-14"],
         "importance": "1"
      }
      }, 
    {
      "type": "Feature",
      "geometry": {
        "type": "Point",
        "coordinates": [16.368738, 48.213038]
      },
      "properties": {
         "id": "pmb207296",
         "title": "Tiefer Graben 23",
         "lat": "48.213038",
         "lon": "16.368738",
         "timestamp": ["1906-10-22"],
         "importance": "1"
      }
      }, 
    {
      "type": "Feature",
      "geometry": {
        "type": "Point",
        "coordinates": [16.2911, 48.2553]
      },
      "properties": {
         "id": "pmb242",
         "title": "Salmannsdorf",
         "lat": "48.2553",
         "lon": "16.2911",
         "timestamp": ["1906-10-21"],
         "importance": "1"
      }
      }, 
    {
      "type": "Feature",
      "geometry": {
        "type": "Point",
        "coordinates": [16.33472, 48.2304]
      },
      "properties": {
         "id": "pmb168940",
         "title": "Edmund-Weiß-Gasse 7",
         "lat": "48.2304",
         "lon": "16.33472",
         "timestamp": ["1906-10-01", "1906-10-02", "1906-10-03", "1906-10-04", "1906-10-05", "1906-10-06", "1906-10-07", "1906-10-08", "1906-10-09", "1906-10-10", "1906-10-11", "1906-10-12", "1906-10-13", "1906-10-14", "1906-10-15", "1906-10-16", "1906-10-17", "1906-10-18", "1906-10-19", "1906-10-20", "1906-10-21", "1906-10-22", "1906-10-23", "1906-10-24", "1906-10-25", "1906-10-26", "1906-10-27", "1906-10-28", "1906-10-29", "1906-10-30", "1906-10-31"],
         "importance": "31"
      }
      }, 
    {
      "type": "Feature",
      "geometry": {
        "type": "Point",
        "coordinates": [16.371571, 48.208448]
      },
      "properties": {
         "id": "pmb232655",
         "title": "Goldschmiedgasse 1",
         "lat": "48.208448",
         "lon": "16.371571",
         "timestamp": ["1906-10-31"],
         "importance": "1"
      }
      }, 
    {
      "type": "Feature",
      "geometry": {
        "type": "Point",
        "coordinates": [16.29273, 48.23975]
      },
      "properties": {
         "id": "pmb532",
         "title": "Schafberg [Wien|",
         "lat": "48.23975",
         "lon": "16.29273",
         "timestamp": ["1906-10-14", "1906-10-23"],
         "importance": "2"
      }
      }, 
    {
      "type": "Feature",
      "geometry": {
        "type": "Point",
        "coordinates": [16.375811, 48.203191]
      },
      "properties": {
         "id": "pmb233517",
         "title": "Kaiserpanorama [Wien, Schubertring 4]",
         "lat": "48.203191",
         "lon": "16.375811",
         "timestamp": ["1906-10-02", "1906-10-09", "1906-10-22", "1906-10-31"],
         "importance": "4"
      }
      }, 
    {
      "type": "Feature",
      "geometry": {
        "type": "Point",
        "coordinates": [16.394539, 48.203093]
      },
      "properties": {
         "id": "pmb233934",
         "title": "Atelier und Kunstanstalt J. Loewy",
         "lat": "48.203093",
         "lon": "16.394539",
         "timestamp": ["1906-10-27"],
         "importance": "1"
      }
      }, 
    {
      "type": "Feature",
      "geometry": {
        "type": "Point",
        "coordinates": [16.370342, 48.211369]
      },
      "properties": {
         "id": "pmb234548",
         "title": "Jordangasse 9",
         "lat": "48.211369",
         "lon": "16.370342",
         "timestamp": ["1906-10-27"],
         "importance": "1"
      }
      }, 
    {
      "type": "Feature",
      "geometry": {
        "type": "Point",
        "coordinates": [16.353889, 48.1975]
      },
      "properties": {
         "id": "pmb52023",
         "title": "Apollo-Theater [Wien]",
         "lat": "48.1975",
         "lon": "16.353889",
         "timestamp": ["1906-10-11"],
         "importance": "1"
      }
      }, 
    {
      "type": "Feature",
      "geometry": {
        "type": "Point",
        "coordinates": [16.340771, 48.234702]
      },
      "properties": {
         "id": "pmb235682",
         "title": "Blaasstraße 7",
         "lat": "48.234702",
         "lon": "16.340771",
         "timestamp": ["1906-10-06", "1906-10-07"],
         "importance": "2"
      }
      }, 
    {
      "type": "Feature",
      "geometry": {
        "type": "Point",
        "coordinates": [16.37208, 48.212786]
      },
      "properties": {
         "id": "pmb236816",
         "title": "Fischerstiege 6",
         "lat": "48.212786",
         "lon": "16.37208",
         "timestamp": ["1906-10-30"],
         "importance": "1"
      }
      }, 
    {
      "type": "Feature",
      "geometry": {
        "type": "Point",
        "coordinates": [16.362438, 48.224113]
      },
      "properties": {
         "id": "pmb237309",
         "title": "Glasergasse 4a",
         "lat": "48.224113",
         "lon": "16.362438",
         "timestamp": ["1906-10-30"],
         "importance": "1"
      }
      }, 
    {
      "type": "Feature",
      "geometry": {
        "type": "Point",
        "coordinates": [16.337548, 48.257418]
      },
      "properties": {
         "id": "pmb238216",
         "title": "Feilergasse 5",
         "lat": "48.257418",
         "lon": "16.337548",
         "timestamp": ["1906-10-04", "1906-10-28"],
         "importance": "2"
      }
      }, 
    {
      "type": "Feature",
      "geometry": {
        "type": "Point",
        "coordinates": [16.355118, 48.254547]
      },
      "properties": {
         "id": "pmb237626",
         "title": "Armbrustergasse 6",
         "lat": "48.254547",
         "lon": "16.355118",
         "timestamp": ["1906-10-28"],
         "importance": "1"
      }
      }, 
    {
      "type": "Feature",
      "geometry": {
        "type": "Point",
        "coordinates": [16.33494, 48.23365]
      },
      "properties": {
         "id": "pmb235251",
         "title": "Hasenauerstraße 59",
         "lat": "48.23365",
         "lon": "16.33494",
         "timestamp": ["1906-10-31"],
         "importance": "1"
      }
      }, 
    {
      "type": "Feature",
      "geometry": {
        "type": "Point",
        "coordinates": [16.338443, 48.234039]
      },
      "properties": {
         "id": "pmb237633",
         "title": "Hasenauerstraße 46",
         "lat": "48.234039",
         "lon": "16.338443",
         "timestamp": ["1906-10-31"],
         "importance": "1"
      }
      }
  ]
}