{
  "type": "FeatureCollection",
  "features": [
    {
      "type": "Feature",
      "geometry": {
        "type": "Point",
        "coordinates": [12.22109, 46.72493]
      },
      "properties": {
         "id": "pmb987",
         "title": "Toblach",
         "lat": "46.72493",
         "lon": "12.22109",
         "timestamp": ["1907-07-05"],
         "importance": "1"
      }
      }, 
    {
      "type": "Feature",
      "geometry": {
        "type": "Point",
        "coordinates": [13.5, 46.8]
      },
      "properties": {
         "id": "pmb41052",
         "title": "Spittal an der Drau",
         "lat": "46.8",
         "lon": "13.5",
         "timestamp": ["1907-07-02", "1907-07-03"],
         "importance": "2"
      }
      }, 
    {
      "type": "Feature",
      "geometry": {
        "type": "Point",
        "coordinates": [13.8529, 46.61254]
      },
      "properties": {
         "id": "pmb40454",
         "title": "Villach",
         "lat": "46.61254",
         "lon": "13.8529",
         "timestamp": ["1907-07-01", "1907-07-02"],
         "importance": "2"
      }
      }, 
    {
      "type": "Feature",
      "geometry": {
        "type": "Point",
        "coordinates": [12.27855, 46.7324]
      },
      "properties": {
         "id": "pmb90929",
         "title": "Innichen",
         "lat": "46.7324",
         "lon": "12.27855",
         "timestamp": ["1907-07-03", "1907-07-04"],
         "importance": "2"
      }
      }, 
    {
      "type": "Feature",
      "geometry": {
        "type": "Point",
        "coordinates": [12.17266, 46.73781]
      },
      "properties": {
         "id": "pmb91350",
         "title": "Niederdorf",
         "lat": "46.73781",
         "lon": "12.17266",
         "timestamp": ["1907-07-16"],
         "importance": "1"
      }
      }, 
    {
      "type": "Feature",
      "geometry": {
        "type": "Point",
        "coordinates": [12.18531, 46.64949]
      },
      "properties": {
         "id": "pmb91490",
         "title": "Prato Piazza",
         "lat": "46.64949",
         "lon": "12.18531",
         "timestamp": ["1907-07-25"],
         "importance": "1"
      }
      }, 
    {
      "type": "Feature",
      "geometry": {
        "type": "Point",
        "coordinates": [12.101269, 46.751211]
      },
      "properties": {
         "id": "pmb723",
         "title": "Wildbad Waldbrunn",
         "lat": "46.751211",
         "lon": "12.101269",
         "timestamp": ["1907-07-04", "1907-07-05", "1907-07-06", "1907-07-07", "1907-07-08", "1907-07-09", "1907-07-10", "1907-07-11", "1907-07-12", "1907-07-13", "1907-07-14", "1907-07-15", "1907-07-16", "1907-07-17", "1907-07-18", "1907-07-19", "1907-07-20", "1907-07-21", "1907-07-22", "1907-07-23", "1907-07-24", "1907-07-25", "1907-07-26", "1907-07-27", "1907-07-28", "1907-07-29", "1907-07-30", "1907-07-31"],
         "importance": "28"
      }
      }, 
    {
      "type": "Feature",
      "geometry": {
        "type": "Point",
        "coordinates": [13.867222, 46.283889]
      },
      "properties": {
         "id": "pmb44456",
         "title": "Wocheiner See",
         "lat": "46.283889",
         "lon": "13.867222",
         "timestamp": ["1907-07-01"],
         "importance": "1"
      }
      }, 
    {
      "type": "Feature",
      "geometry": {
        "type": "Point",
        "coordinates": [14.11005, 46.36825]
      },
      "properties": {
         "id": "pmb92003",
         "title": "Obƒçina Bled",
         "lat": "46.36825",
         "lon": "14.11005",
         "timestamp": ["1907-07-01"],
         "importance": "1"
      }
      }, 
    {
      "type": "Feature",
      "geometry": {
        "type": "Point",
        "coordinates": [13.44333, 46.62694]
      },
      "properties": {
         "id": "pmb91542",
         "title": "Presseggersee",
         "lat": "46.62694",
         "lon": "13.44333",
         "timestamp": ["1907-07-02"],
         "importance": "1"
      }
      }, 
    {
      "type": "Feature",
      "geometry": {
        "type": "Point",
        "coordinates": [12.353684, 46.666799]
      },
      "properties": {
         "id": "pmb90156",
         "title": "Fischleinboden",
         "lat": "46.666799",
         "lon": "12.353684",
         "timestamp": ["1907-07-04"],
         "importance": "1"
      }
      }, 
    {
      "type": "Feature",
      "geometry": {
        "type": "Point",
        "coordinates": [12.11397, 46.76891]
      },
      "properties": {
         "id": "pmb91867",
         "title": "Taisten",
         "lat": "46.76891",
         "lon": "12.11397",
         "timestamp": ["1907-07-15", "1907-07-19"],
         "importance": "2"
      }
      }, 
    {
      "type": "Feature",
      "geometry": {
        "type": "Point",
        "coordinates": [12.02951, 46.76027]
      },
      "properties": {
         "id": "pmb90157",
         "title": "Olang",
         "lat": "46.76027",
         "lon": "12.02951",
         "timestamp": ["1907-07-17"],
         "importance": "1"
      }
      }, 
    {
      "type": "Feature",
      "geometry": {
        "type": "Point",
        "coordinates": [11.9449, 46.7963]
      },
      "properties": {
         "id": "pmb1236",
         "title": "Bruneck",
         "lat": "46.7963",
         "lon": "11.9449",
         "timestamp": ["1907-07-18"],
         "importance": "1"
      }
      }, 
    {
      "type": "Feature",
      "geometry": {
        "type": "Point",
        "coordinates": [11.33333, 46.51667]
      },
      "properties": {
         "id": "pmb11827",
         "title": "Gries",
         "lat": "46.51667",
         "lon": "11.33333",
         "timestamp": ["1907-07-21"],
         "importance": "1"
      }
      }
  ]
}