{
  "type": "FeatureCollection",
  "features": [
    {
      "type": "Feature",
      "geometry": {
        "type": "Point",
        "coordinates": [16.373056, 48.208333]
      },
      "properties": {
         "id": "pmb50",
         "title": "Wien",
         "lat": "48.208333",
         "lon": "16.373056",
         "timestamp": ["1908-09-14", "1908-09-15", "1908-09-16", "1908-09-17", "1908-09-18", "1908-09-20", "1908-09-21", "1908-09-22", "1908-09-23", "1908-09-24", "1908-09-26", "1908-09-27", "1908-09-28", "1908-09-29", "1908-09-30"],
         "importance": "15"
      }
      }, 
    {
      "type": "Feature",
      "geometry": {
        "type": "Point",
        "coordinates": [11.57549, 48.13743]
      },
      "properties": {
         "id": "pmb38129",
         "title": "München",
         "lat": "48.13743",
         "lon": "11.57549",
         "timestamp": ["1908-09-07", "1908-09-08", "1908-09-09", "1908-09-09", "1908-09-11", "1908-09-11", "1908-09-12", "1908-09-13"],
         "importance": "8"
      }
      }, 
    {
      "type": "Feature",
      "geometry": {
        "type": "Point",
        "coordinates": [11.33982, 46.49067]
      },
      "properties": {
         "id": "pmb6937",
         "title": "Bozen",
         "lat": "46.49067",
         "lon": "11.33982",
         "timestamp": ["1908-09-05", "1908-09-06"],
         "importance": "2"
      }
      }, 
    {
      "type": "Feature",
      "geometry": {
        "type": "Point",
        "coordinates": [16.276509500872, 48.241960480337]
      },
      "properties": {
         "id": "pmb176",
         "title": "Schwarzenbergpark",
         "lat": "48.241960480337",
         "lon": "16.276509500872",
         "timestamp": ["1908-09-15", "1908-09-20"],
         "importance": "2"
      }
      }, 
    {
      "type": "Feature",
      "geometry": {
        "type": "Point",
        "coordinates": [16.35736, 48.21533]
      },
      "properties": {
         "id": "pmb168934",
         "title": "Frankgasse 1",
         "lat": "48.21533",
         "lon": "16.35736",
         "timestamp": ["1908-09-17", "1908-09-18", "1908-09-22"],
         "importance": "3"
      }
      }, 
    {
      "type": "Feature",
      "geometry": {
        "type": "Point",
        "coordinates": [11.8, 46.26667]
      },
      "properties": {
         "id": "pmb1060",
         "title": "San Martino di Castrozza",
         "lat": "46.26667",
         "lon": "11.8",
         "timestamp": ["1908-09-03", "1908-09-04", "1908-09-05"],
         "importance": "3"
      }
      }, 
    {
      "type": "Feature",
      "geometry": {
        "type": "Point",
        "coordinates": [11.36266523227271, 46.50083719693118]
      },
      "properties": {
         "id": "pmb50817",
         "title": "Hotel Stiegl",
         "lat": "46.50083719693118",
         "lon": "11.36266523227271",
         "timestamp": ["1908-09-03"],
         "importance": "1"
      }
      }, 
    {
      "type": "Feature",
      "geometry": {
        "type": "Point",
        "coordinates": [15.707639, 47.605239]
      },
      "properties": {
         "id": "pmb714",
         "title": "Hotel Edlacherhof",
         "lat": "47.605239",
         "lon": "15.707639",
         "timestamp": ["1908-09-24", "1908-09-25"],
         "importance": "2"
      }
      }, 
    {
      "type": "Feature",
      "geometry": {
        "type": "Point",
        "coordinates": [16.293147561818, 48.251927827778]
      },
      "properties": {
         "id": "pmb540",
         "title": "Hameau",
         "lat": "48.251927827778",
         "lon": "16.293147561818",
         "timestamp": ["1908-09-15", "1908-09-20"],
         "importance": "2"
      }
      }, 
    {
      "type": "Feature",
      "geometry": {
        "type": "Point",
        "coordinates": [15.71667, 47.7]
      },
      "properties": {
         "id": "pmb91572",
         "title": "Raxalpe",
         "lat": "47.7",
         "lon": "15.71667",
         "timestamp": ["1908-09-25", "1908-09-26"],
         "importance": "2"
      }
      }, 
    {
      "type": "Feature",
      "geometry": {
        "type": "Point",
        "coordinates": [15.7621, 47.7132]
      },
      "properties": {
         "id": "pmb234277",
         "title": "Otto-Schutzhaus",
         "lat": "47.7132",
         "lon": "15.7621",
         "timestamp": ["1908-09-25"],
         "importance": "1"
      }
      }, 
    {
      "type": "Feature",
      "geometry": {
        "type": "Point",
        "coordinates": [15.7042, 47.6886]
      },
      "properties": {
         "id": "pmb234288",
         "title": "Karl-Ludwig-Haus",
         "lat": "47.6886",
         "lon": "15.7042",
         "timestamp": ["1908-09-25"],
         "importance": "1"
      }
      }, 
    {
      "type": "Feature",
      "geometry": {
        "type": "Point",
        "coordinates": [16.353889, 48.1975]
      },
      "properties": {
         "id": "pmb52023",
         "title": "Apollo-Theater [Wien]",
         "lat": "48.1975",
         "lon": "16.353889",
         "timestamp": ["1908-09-19"],
         "importance": "1"
      }
      }, 
    {
      "type": "Feature",
      "geometry": {
        "type": "Point",
        "coordinates": [16.37134, 48.205383]
      },
      "properties": {
         "id": "pmb186222",
         "title": "Cabaret Fledermaus",
         "lat": "48.205383",
         "lon": "16.37134",
         "timestamp": ["1908-09-20"],
         "importance": "1"
      }
      }, 
    {
      "type": "Feature",
      "geometry": {
        "type": "Point",
        "coordinates": [11.560026, 46.54555]
      },
      "properties": {
         "id": "pmb467",
         "title": "Villa Heufler",
         "lat": "46.54555",
         "lon": "11.560026",
         "timestamp": ["1908-09-01", "1908-09-02"],
         "importance": "2"
      }
      }, 
    {
      "type": "Feature",
      "geometry": {
        "type": "Point",
        "coordinates": [11.35345, 46.491277]
      },
      "properties": {
         "id": "pmb92584",
         "title": "Virgl",
         "lat": "46.491277",
         "lon": "11.35345",
         "timestamp": ["1908-09-02"],
         "importance": "1"
      }
      }, 
    {
      "type": "Feature",
      "geometry": {
        "type": "Point",
        "coordinates": [11.6026343821, 46.312656066]
      },
      "properties": {
         "id": "pmb92739",
         "title": "Nave d‘Oro",
         "lat": "46.312656066",
         "lon": "11.6026343821",
         "timestamp": ["1908-09-04"],
         "importance": "1"
      }
      }, 
    {
      "type": "Feature",
      "geometry": {
        "type": "Point",
        "coordinates": [11.605591, 48.138986]
      },
      "properties": {
         "id": "pmb703",
         "title": "Prinzregenten-Theater",
         "lat": "48.138986",
         "lon": "11.605591",
         "timestamp": ["1908-09-10"],
         "importance": "1"
      }
      }
  ]
}