{
  "type": "FeatureCollection",
  "features": [
    {
      "type": "Feature",
      "geometry": {
        "type": "Point",
        "coordinates": [16.375, 48.205139]
      },
      "properties": {
         "id": "pmb19",
         "title": "Ronacher",
         "lat": "48.205139",
         "lon": "16.375",
         "timestamp": ["1908-04-02"],
         "importance": "1"
      }
      }, 
    {
      "type": "Feature",
      "geometry": {
        "type": "Point",
        "coordinates": [16.3691, 48.203]
      },
      "properties": {
         "id": "pmb15",
         "title": "Oper",
         "lat": "48.203",
         "lon": "16.3691",
         "timestamp": ["1908-05-05", "1908-05-24"],
         "importance": "2"
      }
      }, 
    {
      "type": "Feature",
      "geometry": {
        "type": "Point",
        "coordinates": [16.351111, 48.209583]
      },
      "properties": {
         "id": "pmb40",
         "title": "Theater in der Josefstadt",
         "lat": "48.209583",
         "lon": "16.351111",
         "timestamp": ["1908-11-12"],
         "importance": "1"
      }
      }, 
    {
      "type": "Feature",
      "geometry": {
        "type": "Point",
        "coordinates": [16.366111, 48.209167]
      },
      "properties": {
         "id": "pmb4",
         "title": "Bösendorfer-Saal",
         "lat": "48.209167",
         "lon": "16.366111",
         "timestamp": ["1908-11-29"],
         "importance": "1"
      }
      }, 
    {
      "type": "Feature",
      "geometry": {
        "type": "Point",
        "coordinates": [16.3642, 48.19941]
      },
      "properties": {
         "id": "pmb37",
         "title": "Theater an der Wien",
         "lat": "48.19941",
         "lon": "16.3642",
         "timestamp": ["1908-03-30", "1908-05-30"],
         "importance": "2"
      }
      }, 
    {
      "type": "Feature",
      "geometry": {
        "type": "Point",
        "coordinates": [16.373056, 48.208333]
      },
      "properties": {
         "id": "pmb50",
         "title": "Wien",
         "lat": "48.208333",
         "lon": "16.373056",
         "timestamp": ["1908-01-01", "1908-01-02", "1908-01-03", "1908-01-04", "1908-01-05", "1908-01-06", "1908-01-07", "1908-01-08", "1908-01-09", "1908-01-10", "1908-01-11", "1908-01-12", "1908-01-13", "1908-01-14", "1908-01-15", "1908-01-16", "1908-01-17", "1908-01-18", "1908-01-19", "1908-01-20", "1908-01-21", "1908-01-22", "1908-01-23", "1908-01-24", "1908-01-25", "1908-01-26", "1908-01-27", "1908-01-28", "1908-01-29", "1908-01-30", "1908-01-31", "1908-02-01", "1908-02-02", "1908-02-03", "1908-02-23", "1908-02-24", "1908-02-25", "1908-02-26", "1908-02-27", "1908-02-28", "1908-02-29", "1908-03-01", "1908-03-02", "1908-03-03", "1908-03-04", "1908-03-05", "1908-03-06", "1908-03-07", "1908-03-08", "1908-03-09", "1908-03-10", "1908-03-11", "1908-03-12", "1908-03-13", "1908-03-14", "1908-03-15", "1908-03-17", "1908-03-18", "1908-03-19", "1908-03-20", "1908-03-21", "1908-03-22", "1908-03-23", "1908-03-24", "1908-03-25", "1908-03-26", "1908-03-27", "1908-03-28", "1908-03-29", "1908-03-30", "1908-03-31", "1908-04-01", "1908-04-02", "1908-04-03", "1908-04-04", "1908-04-05", "1908-04-06", "1908-04-07", "1908-04-08", "1908-04-09", "1908-04-10", "1908-04-11", "1908-04-13", "1908-04-14", "1908-04-15", "1908-04-16", "1908-04-17", "1908-04-18", "1908-04-19", "1908-04-20", "1908-04-21", "1908-04-22", "1908-04-23", "1908-04-24", "1908-04-25", "1908-05-14", "1908-05-15", "1908-05-16", "1908-05-17", "1908-05-18", "1908-05-19", "1908-05-20", "1908-05-21", "1908-05-22", "1908-05-23", "1908-05-24", "1908-05-25", "1908-05-27", "1908-05-28", "1908-05-29", "1908-05-30", "1908-05-31", "1908-06-01", "1908-06-02", "1908-06-03", "1908-06-04", "1908-06-05", "1908-06-06", "1908-06-07", "1908-06-08", "1908-06-09", "1908-06-10", "1908-06-11", "1908-06-12", "1908-06-13", "1908-06-14", "1908-06-15", "1908-06-16", "1908-06-17", "1908-06-18", "1908-06-19", "1908-09-14", "1908-09-15", "1908-09-16", "1908-09-17", "1908-09-18", "1908-09-20", "1908-09-21", "1908-09-22", "1908-09-23", "1908-09-24", "1908-09-26", "1908-09-27", "1908-09-28", "1908-09-29", "1908-09-30", "1908-10-01", "1908-10-02", "1908-10-03", "1908-10-04", "1908-10-05", "1908-10-08", "1908-10-09", "1908-10-10", "1908-10-11", "1908-10-12", "1908-10-13", "1908-10-14", "1908-10-15", "1908-10-16", "1908-10-17", "1908-10-18", "1908-10-19", "1908-10-20", "1908-10-21", "1908-10-22", "1908-10-23", "1908-10-24", "1908-10-25", "1908-10-26", "1908-10-27", "1908-10-28", "1908-10-29", "1908-10-30", "1908-10-31", "1908-11-02", "1908-11-03", "1908-11-04", "1908-11-05", "1908-11-06", "1908-11-11", "1908-11-12", "1908-11-13", "1908-11-14", "1908-11-15", "1908-11-16", "1908-11-17", "1908-11-18", "1908-11-19", "1908-11-20", "1908-11-21", "1908-11-22", "1908-11-23", "1908-11-24", "1908-11-25", "1908-11-26", "1908-11-27", "1908-11-28", "1908-11-29", "1908-11-30", "1908-12-01", "1908-12-02", "1908-12-03", "1908-12-07", "1908-12-08", "1908-12-09", "1908-12-10", "1908-12-11", "1908-12-12", "1908-12-13", "1908-12-14", "1908-12-15", "1908-12-16", "1908-12-21", "1908-12-22", "1908-12-23", "1908-12-24", "1908-12-25", "1908-12-26", "1908-12-28", "1908-12-29", "1908-12-30", "1908-12-31"],
         "importance": "223"
      }
      }, 
    {
      "type": "Feature",
      "geometry": {
        "type": "Point",
        "coordinates": [11.57549, 48.13743]
      },
      "properties": {
         "id": "pmb38129",
         "title": "München",
         "lat": "48.13743",
         "lon": "11.57549",
         "timestamp": ["1908-05-09", "1908-05-11", "1908-05-12", "1908-09-07", "1908-09-08", "1908-09-09", "1908-09-09", "1908-09-11", "1908-09-11", "1908-09-12", "1908-09-13"],
         "importance": "11"
      }
      }, 
    {
      "type": "Feature",
      "geometry": {
        "type": "Point",
        "coordinates": [16.361139, 48.210333]
      },
      "properties": {
         "id": "pmb14",
         "title": "Burgtheater",
         "lat": "48.210333",
         "lon": "16.361139",
         "timestamp": ["1908-03-07", "1908-10-25", "1908-10-27", "1908-11-18"],
         "importance": "4"
      }
      }, 
    {
      "type": "Feature",
      "geometry": {
        "type": "Point",
        "coordinates": [16.299116267833, 48.230916826952]
      },
      "properties": {
         "id": "pmb499",
         "title": "Dornbach",
         "lat": "48.230916826952",
         "lon": "16.299116267833",
         "timestamp": ["1908-05-28", "1908-11-01"],
         "importance": "2"
      }
      }, 
    {
      "type": "Feature",
      "geometry": {
        "type": "Point",
        "coordinates": [11.37706, 47.28433]
      },
      "properties": {
         "id": "pmb867",
         "title": "Innsbruck",
         "lat": "47.28433",
         "lon": "11.37706",
         "timestamp": ["1908-06-22", "1908-06-23"],
         "importance": "2"
      }
      }, 
    {
      "type": "Feature",
      "geometry": {
        "type": "Point",
        "coordinates": [13.78243, 47.60998]
      },
      "properties": {
         "id": "pmb415",
         "title": "Bad Aussee",
         "lat": "47.60998",
         "lon": "13.78243",
         "timestamp": ["1908-06-19", "1908-06-20", "1908-06-21", "1908-06-22"],
         "importance": "4"
      }
      }, 
    {
      "type": "Feature",
      "geometry": {
        "type": "Point",
        "coordinates": [11.33982, 46.49067]
      },
      "properties": {
         "id": "pmb6937",
         "title": "Bozen",
         "lat": "46.49067",
         "lon": "11.33982",
         "timestamp": ["1908-05-02", "1908-09-05", "1908-09-06"],
         "importance": "3"
      }
      }, 
    {
      "type": "Feature",
      "geometry": {
        "type": "Point",
        "coordinates": [16.355191, 48.248422]
      },
      "properties": {
         "id": "pmb92292",
         "title": "Hohe Warte",
         "lat": "48.248422",
         "lon": "16.355191",
         "timestamp": ["1908-04-12", "1908-12-27"],
         "importance": "2"
      }
      }, 
    {
      "type": "Feature",
      "geometry": {
        "type": "Point",
        "coordinates": [16.275701, 48.219421]
      },
      "properties": {
         "id": "pmb90687",
         "title": "Gallitzinberg",
         "lat": "48.219421",
         "lon": "16.275701",
         "timestamp": ["1908-11-01"],
         "importance": "1"
      }
      }, 
    {
      "type": "Feature",
      "geometry": {
        "type": "Point",
        "coordinates": [13.94306, 47.64972]
      },
      "properties": {
         "id": "pmb90072",
         "title": "Kammer See",
         "lat": "47.64972",
         "lon": "13.94306",
         "timestamp": ["1908-06-20"],
         "importance": "1"
      }
      }, 
    {
      "type": "Feature",
      "geometry": {
        "type": "Point",
        "coordinates": [13.92778, 47.64167]
      },
      "properties": {
         "id": "pmb91912",
         "title": "Toplitzsee",
         "lat": "47.64167",
         "lon": "13.92778",
         "timestamp": ["1908-06-20"],
         "importance": "1"
      }
      }, 
    {
      "type": "Feature",
      "geometry": {
        "type": "Point",
        "coordinates": [16.3566, 48.205142]
      },
      "properties": {
         "id": "pmb20",
         "title": "Volkstheater",
         "lat": "48.205142",
         "lon": "16.3566",
         "timestamp": ["1908-03-06", "1908-03-24", "1908-05-27", "1908-11-16", "1908-11-24", "1908-11-25", "1908-11-27"],
         "importance": "7"
      }
      }, 
    {
      "type": "Feature",
      "geometry": {
        "type": "Point",
        "coordinates": [16.37312, 48.20122]
      },
      "properties": {
         "id": "pmb43",
         "title": "Café Imperial",
         "lat": "48.20122",
         "lon": "16.37312",
         "timestamp": ["1908-10-29"],
         "importance": "1"
      }
      }, 
    {
      "type": "Feature",
      "geometry": {
        "type": "Point",
        "coordinates": [16.371211, 48.206416]
      },
      "properties": {
         "id": "pmb96",
         "title": "Meissl & Schadn",
         "lat": "48.206416",
         "lon": "16.371211",
         "timestamp": ["1908-02-28", "1908-11-16", "1908-11-26", "1908-11-28", "1908-11-29"],
         "importance": "5"
      }
      }, 
    {
      "type": "Feature",
      "geometry": {
        "type": "Point",
        "coordinates": [16.276509500872, 48.241960480337]
      },
      "properties": {
         "id": "pmb176",
         "title": "Schwarzenbergpark",
         "lat": "48.241960480337",
         "lon": "16.276509500872",
         "timestamp": ["1908-03-22", "1908-03-30", "1908-04-16", "1908-04-19", "1908-05-31", "1908-09-15", "1908-09-20", "1908-10-11", "1908-12-26"],
         "importance": "9"
      }
      }, 
    {
      "type": "Feature",
      "geometry": {
        "type": "Point",
        "coordinates": [10.88672, 45.91772]
      },
      "properties": {
         "id": "pmb39972",
         "title": "Arco",
         "lat": "45.91772",
         "lon": "10.88672",
         "timestamp": ["1908-04-27"],
         "importance": "1"
      }
      }, 
    {
      "type": "Feature",
      "geometry": {
        "type": "Point",
        "coordinates": [10.87561, 45.86951]
      },
      "properties": {
         "id": "pmb40294",
         "title": "Torbole sul Garda",
         "lat": "45.86951",
         "lon": "10.87561",
         "timestamp": ["1908-04-26"],
         "importance": "1"
      }
      }, 
    {
      "type": "Feature",
      "geometry": {
        "type": "Point",
        "coordinates": [15.8241, 47.64224]
      },
      "properties": {
         "id": "pmb189",
         "title": "Semmering",
         "lat": "47.64224",
         "lon": "15.8241",
         "timestamp": ["1908-11-08", "1908-12-04", "1908-12-05", "1908-12-06"],
         "importance": "4"
      }
      }, 
    {
      "type": "Feature",
      "geometry": {
        "type": "Point",
        "coordinates": [16.339722, 48.192222]
      },
      "properties": {
         "id": "pmb77",
         "title": "Raimund-Theater",
         "lat": "48.192222",
         "lon": "16.339722",
         "timestamp": ["1908-12-30"],
         "importance": "1"
      }
      }, 
    {
      "type": "Feature",
      "geometry": {
        "type": "Point",
        "coordinates": [16.35736, 48.21533]
      },
      "properties": {
         "id": "pmb168934",
         "title": "Frankgasse 1",
         "lat": "48.21533",
         "lon": "16.35736",
         "timestamp": ["1908-02-25", "1908-03-03", "1908-03-10", "1908-03-13", "1908-04-02", "1908-04-09", "1908-04-10", "1908-04-20", "1908-04-24", "1908-05-16", "1908-05-28", "1908-05-30", "1908-06-10", "1908-06-15", "1908-09-17", "1908-09-18", "1908-09-22", "1908-10-02", "1908-10-08", "1908-10-13", "1908-10-17", "1908-10-22", "1908-10-23", "1908-10-27", "1908-10-30", "1908-11-03", "1908-11-10", "1908-11-13", "1908-11-19", "1908-12-01", "1908-12-11", "1908-12-15", "1908-12-24", "1908-12-25", "1908-12-26", "1908-12-28", "1908-12-29"],
         "importance": "37"
      }
      }, 
    {
      "type": "Feature",
      "geometry": {
        "type": "Point",
        "coordinates": [16.43898217221, 48.19252071812]
      },
      "properties": {
         "id": "pmb185",
         "title": "Lusthaus",
         "lat": "48.19252071812",
         "lon": "16.43898217221",
         "timestamp": ["1908-05-15"],
         "importance": "1"
      }
      }, 
    {
      "type": "Feature",
      "geometry": {
        "type": "Point",
        "coordinates": [11.579322, 48.139603]
      },
      "properties": {
         "id": "pmb669",
         "title": "Bayerische Staatsoper",
         "lat": "48.139603",
         "lon": "11.579322",
         "timestamp": ["1908-05-07"],
         "importance": "1"
      }
      }, 
    {
      "type": "Feature",
      "geometry": {
        "type": "Point",
        "coordinates": [11.57475, 48.14293]
      },
      "properties": {
         "id": "pmb100",
         "title": "Café Luitpold",
         "lat": "48.14293",
         "lon": "11.57475",
         "timestamp": ["1908-05-02"],
         "importance": "1"
      }
      }, 
    {
      "type": "Feature",
      "geometry": {
        "type": "Point",
        "coordinates": [11.578786, 48.139944]
      },
      "properties": {
         "id": "pmb635",
         "title": "Residenztheater München",
         "lat": "48.139944",
         "lon": "11.578786",
         "timestamp": ["1908-05-06"],
         "importance": "1"
      }
      }, 
    {
      "type": "Feature",
      "geometry": {
        "type": "Point",
        "coordinates": [11.56255, 48.14641]
      },
      "properties": {
         "id": "pmb194970",
         "title": "Schack-Galerie München",
         "lat": "48.14641",
         "lon": "11.56255",
         "timestamp": ["1908-05-06"],
         "importance": "1"
      }
      }, 
    {
      "type": "Feature",
      "geometry": {
        "type": "Point",
        "coordinates": [11.571111, 48.149722]
      },
      "properties": {
         "id": "pmb101",
         "title": "Neue Pinakothek",
         "lat": "48.149722",
         "lon": "11.571111",
         "timestamp": ["1908-05-05"],
         "importance": "1"
      }
      }, 
    {
      "type": "Feature",
      "geometry": {
        "type": "Point",
        "coordinates": [11.565637, 48.146292]
      },
      "properties": {
         "id": "pmb102",
         "title": "Glyptothek",
         "lat": "48.146292",
         "lon": "11.565637",
         "timestamp": ["1908-05-06"],
         "importance": "1"
      }
      }, 
    {
      "type": "Feature",
      "geometry": {
        "type": "Point",
        "coordinates": [13.62156, 47.71319]
      },
      "properties": {
         "id": "pmb84",
         "title": "Hotel zum goldenen Kreuz",
         "lat": "47.71319",
         "lon": "13.62156",
         "timestamp": ["1908-06-21"],
         "importance": "1"
      }
      }, 
    {
      "type": "Feature",
      "geometry": {
        "type": "Point",
        "coordinates": [16.331527, 48.23428]
      },
      "properties": {
         "id": "pmb74",
         "title": "Restauration Türkenschanz-Park",
         "lat": "48.23428",
         "lon": "16.331527",
         "timestamp": ["1908-02-01", "1908-05-14", "1908-05-15", "1908-05-16", "1908-05-19", "1908-05-21", "1908-05-22", "1908-05-28", "1908-05-31", "1908-06-02", "1908-06-09", "1908-06-10", "1908-06-12", "1908-06-16", "1908-06-17", "1908-10-03"],
         "importance": "16"
      }
      }, 
    {
      "type": "Feature",
      "geometry": {
        "type": "Point",
        "coordinates": [16.258056, 48.201667]
      },
      "properties": {
         "id": "pmb271",
         "title": "Hütteldorf",
         "lat": "48.201667",
         "lon": "16.258056",
         "timestamp": ["1908-10-04"],
         "importance": "1"
      }
      }, 
    {
      "type": "Feature",
      "geometry": {
        "type": "Point",
        "coordinates": [11.591944, 48.152778]
      },
      "properties": {
         "id": "pmb706",
         "title": "Englischer Garten [München]",
         "lat": "48.152778",
         "lon": "11.591944",
         "timestamp": ["1908-05-03", "1908-05-04", "1908-05-08", "1908-05-13"],
         "importance": "4"
      }
      }, 
    {
      "type": "Feature",
      "geometry": {
        "type": "Point",
        "coordinates": [11.31187, 47.90348]
      },
      "properties": {
         "id": "pmb3684",
         "title": "Starnberger See",
         "lat": "47.90348",
         "lon": "11.31187",
         "timestamp": ["1908-05-11", "1908-05-12"],
         "importance": "2"
      }
      }, 
    {
      "type": "Feature",
      "geometry": {
        "type": "Point",
        "coordinates": [16.27, 48.0925]
      },
      "properties": {
         "id": "pmb91145",
         "title": "Burg Liechtenstein",
         "lat": "48.0925",
         "lon": "16.27",
         "timestamp": ["1908-06-08"],
         "importance": "1"
      }
      }, 
    {
      "type": "Feature",
      "geometry": {
        "type": "Point",
        "coordinates": [16.347492624475, 48.216264483348]
      },
      "properties": {
         "id": "pmb89",
         "title": "Sanatorium Loew",
         "lat": "48.216264483348",
         "lon": "16.347492624475",
         "timestamp": ["1908-10-21"],
         "importance": "1"
      }
      }, 
    {
      "type": "Feature",
      "geometry": {
        "type": "Point",
        "coordinates": [16.284544, 48.224174]
      },
      "properties": {
         "id": "pmb194925",
         "title": "Bieglerhütte",
         "lat": "48.224174",
         "lon": "16.284544",
         "timestamp": ["1908-05-31"],
         "importance": "1"
      }
      }, 
    {
      "type": "Feature",
      "geometry": {
        "type": "Point",
        "coordinates": [11.8, 46.26667]
      },
      "properties": {
         "id": "pmb1060",
         "title": "San Martino di Castrozza",
         "lat": "46.26667",
         "lon": "11.8",
         "timestamp": ["1908-09-03", "1908-09-04", "1908-09-05"],
         "importance": "3"
      }
      }, 
    {
      "type": "Feature",
      "geometry": {
        "type": "Point",
        "coordinates": [11.36266523227271, 46.50083719693118]
      },
      "properties": {
         "id": "pmb50817",
         "title": "Hotel Stiegl",
         "lat": "46.50083719693118",
         "lon": "11.36266523227271",
         "timestamp": ["1908-09-03"],
         "importance": "1"
      }
      }, 
    {
      "type": "Feature",
      "geometry": {
        "type": "Point",
        "coordinates": [15.707639, 47.605239]
      },
      "properties": {
         "id": "pmb714",
         "title": "Hotel Edlacherhof",
         "lat": "47.605239",
         "lon": "15.707639",
         "timestamp": ["1908-09-24", "1908-09-25", "1908-10-06", "1908-10-07"],
         "importance": "4"
      }
      }, 
    {
      "type": "Feature",
      "geometry": {
        "type": "Point",
        "coordinates": [16.39592, 48.21693]
      },
      "properties": {
         "id": "pmb1035",
         "title": "Riesenrad",
         "lat": "48.21693",
         "lon": "16.39592",
         "timestamp": ["1908-05-15"],
         "importance": "1"
      }
      }, 
    {
      "type": "Feature",
      "geometry": {
        "type": "Point",
        "coordinates": [16.41575606941028, 48.20508551408161]
      },
      "properties": {
         "id": "pmb53159",
         "title": "Hauptallee",
         "lat": "48.20508551408161",
         "lon": "16.41575606941028",
         "timestamp": ["1908-05-15"],
         "importance": "1"
      }
      }, 
    {
      "type": "Feature",
      "geometry": {
        "type": "Point",
        "coordinates": [16.2911, 48.2553]
      },
      "properties": {
         "id": "pmb242",
         "title": "Salmannsdorf",
         "lat": "48.2553",
         "lon": "16.2911",
         "timestamp": ["1908-03-07", "1908-11-04"],
         "importance": "2"
      }
      }, 
    {
      "type": "Feature",
      "geometry": {
        "type": "Point",
        "coordinates": [16.293147561818, 48.251927827778]
      },
      "properties": {
         "id": "pmb540",
         "title": "Hameau",
         "lat": "48.251927827778",
         "lon": "16.293147561818",
         "timestamp": ["1908-09-15", "1908-09-20"],
         "importance": "2"
      }
      }, 
    {
      "type": "Feature",
      "geometry": {
        "type": "Point",
        "coordinates": [11.53088, 46.59712]
      },
      "properties": {
         "id": "pmb92031",
         "title": "Waidbruck",
         "lat": "46.59712",
         "lon": "11.53088",
         "timestamp": ["1908-06-23"],
         "importance": "1"
      }
      }, 
    {
      "type": "Feature",
      "geometry": {
        "type": "Point",
        "coordinates": [11.55704, 46.47655]
      },
      "properties": {
         "id": "pmb92071",
         "title": "Lavina Bianca",
         "lat": "46.47655",
         "lon": "11.55704",
         "timestamp": ["1908-08-04", "1908-08-05"],
         "importance": "2"
      }
      }, 
    {
      "type": "Feature",
      "geometry": {
        "type": "Point",
        "coordinates": [16.31268, 48.2629]
      },
      "properties": {
         "id": "pmb285",
         "title": "Am Himmel",
         "lat": "48.2629",
         "lon": "16.31268",
         "timestamp": ["1908-01-15"],
         "importance": "1"
      }
      }, 
    {
      "type": "Feature",
      "geometry": {
        "type": "Point",
        "coordinates": [11.42961, 46.89313]
      },
      "properties": {
         "id": "pmb40302",
         "title": "Sterzing",
         "lat": "46.89313",
         "lon": "11.42961",
         "timestamp": ["1908-07-07", "1908-07-08"],
         "importance": "2"
      }
      }, 
    {
      "type": "Feature",
      "geometry": {
        "type": "Point",
        "coordinates": [16.29273, 48.23975]
      },
      "properties": {
         "id": "pmb532",
         "title": "Schafberg [Wien|",
         "lat": "48.23975",
         "lon": "16.29273",
         "timestamp": ["1908-05-28"],
         "importance": "1"
      }
      }, 
    {
      "type": "Feature",
      "geometry": {
        "type": "Point",
        "coordinates": [11.35552, 46.49817]
      },
      "properties": {
         "id": "pmb233170",
         "title": "Hotel Greif",
         "lat": "46.49817",
         "lon": "11.35552",
         "timestamp": ["1908-04-30", "1908-05-01"],
         "importance": "2"
      }
      }, 
    {
      "type": "Feature",
      "geometry": {
        "type": "Point",
        "coordinates": [15.8121, 47.644]
      },
      "properties": {
         "id": "pmb200876",
         "title": "Meierei des Südbahnhotels",
         "lat": "47.644",
         "lon": "15.8121",
         "timestamp": ["1908-02-04", "1908-02-05", "1908-02-09", "1908-02-18", "1908-02-21", "1908-11-07"],
         "importance": "6"
      }
      }, 
    {
      "type": "Feature",
      "geometry": {
        "type": "Point",
        "coordinates": [16.28606, 48.25849]
      },
      "properties": {
         "id": "pmb537",
         "title": "Dreimarkstein [Wien]",
         "lat": "48.25849",
         "lon": "16.28606",
         "timestamp": ["1908-03-15", "1908-03-29"],
         "importance": "2"
      }
      }, 
    {
      "type": "Feature",
      "geometry": {
        "type": "Point",
        "coordinates": [15.6707854, 47.71778962]
      },
      "properties": {
         "id": "pmb234252",
         "title": "Binder-Wirtshaus im Reisstal",
         "lat": "47.71778962",
         "lon": "15.6707854",
         "timestamp": ["1908-10-07"],
         "importance": "1"
      }
      }, 
    {
      "type": "Feature",
      "geometry": {
        "type": "Point",
        "coordinates": [15.81667, 47.71667]
      },
      "properties": {
         "id": "pmb90901",
         "title": "Höllental",
         "lat": "47.71667",
         "lon": "15.81667",
         "timestamp": ["1908-10-07"],
         "importance": "1"
      }
      }, 
    {
      "type": "Feature",
      "geometry": {
        "type": "Point",
        "coordinates": [15.71667, 47.7]
      },
      "properties": {
         "id": "pmb91572",
         "title": "Raxalpe",
         "lat": "47.7",
         "lon": "15.71667",
         "timestamp": ["1908-09-25", "1908-09-26"],
         "importance": "2"
      }
      }, 
    {
      "type": "Feature",
      "geometry": {
        "type": "Point",
        "coordinates": [15.7621, 47.7132]
      },
      "properties": {
         "id": "pmb234277",
         "title": "Otto-Schutzhaus",
         "lat": "47.7132",
         "lon": "15.7621",
         "timestamp": ["1908-09-25"],
         "importance": "1"
      }
      }, 
    {
      "type": "Feature",
      "geometry": {
        "type": "Point",
        "coordinates": [15.7042, 47.6886]
      },
      "properties": {
         "id": "pmb234288",
         "title": "Karl-Ludwig-Haus",
         "lat": "47.6886",
         "lon": "15.7042",
         "timestamp": ["1908-09-25"],
         "importance": "1"
      }
      }, 
    {
      "type": "Feature",
      "geometry": {
        "type": "Point",
        "coordinates": [16.362915, 48.214518]
      },
      "properties": {
         "id": "pmb234951",
         "title": "Reisebureau Schenker & Co.",
         "lat": "48.214518",
         "lon": "16.362915",
         "timestamp": ["1908-04-21"],
         "importance": "1"
      }
      }, 
    {
      "type": "Feature",
      "geometry": {
        "type": "Point",
        "coordinates": [16.353889, 48.1975]
      },
      "properties": {
         "id": "pmb52023",
         "title": "Apollo-Theater [Wien]",
         "lat": "48.1975",
         "lon": "16.353889",
         "timestamp": ["1908-03-16", "1908-09-19"],
         "importance": "2"
      }
      }, 
    {
      "type": "Feature",
      "geometry": {
        "type": "Point",
        "coordinates": [16.332073, 48.275685]
      },
      "properties": {
         "id": "pmb235667",
         "title": "Villenweg 46",
         "lat": "48.275685",
         "lon": "16.332073",
         "timestamp": ["1908-05-24"],
         "importance": "1"
      }
      }, 
    {
      "type": "Feature",
      "geometry": {
        "type": "Point",
        "coordinates": [16.344253, 48.236143]
      },
      "properties": {
         "id": "pmb236102",
         "title": "Lannerstraße 24",
         "lat": "48.236143",
         "lon": "16.344253",
         "timestamp": ["1908-04-23"],
         "importance": "1"
      }
      }, 
    {
      "type": "Feature",
      "geometry": {
        "type": "Point",
        "coordinates": [15.83, 47.647222]
      },
      "properties": {
         "id": "pmb413",
         "title": "Südbahnhotel [Semmering]",
         "lat": "47.647222",
         "lon": "15.83",
         "timestamp": ["1908-02-04", "1908-02-05", "1908-02-06", "1908-02-07", "1908-02-08", "1908-02-09", "1908-02-10", "1908-02-11", "1908-02-12", "1908-02-13", "1908-02-14", "1908-02-15", "1908-02-16", "1908-02-17", "1908-02-18", "1908-02-19", "1908-02-20", "1908-02-21", "1908-02-22"],
         "importance": "19"
      }
      }, 
    {
      "type": "Feature",
      "geometry": {
        "type": "Point",
        "coordinates": [16.3957, 48.21766]
      },
      "properties": {
         "id": "pmb1209",
         "title": "Lustspieltheater [Wien]",
         "lat": "48.21766",
         "lon": "16.3957",
         "timestamp": ["1908-05-26", "1908-11-07", "1908-11-09", "1908-11-10"],
         "importance": "4"
      }
      }, 
    {
      "type": "Feature",
      "geometry": {
        "type": "Point",
        "coordinates": [16.350361, 48.224472]
      },
      "properties": {
         "id": "pmb28",
         "title": "Volksoper",
         "lat": "48.224472",
         "lon": "16.350361",
         "timestamp": ["1908-04-15"],
         "importance": "1"
      }
      }, 
    {
      "type": "Feature",
      "geometry": {
        "type": "Point",
        "coordinates": [16.367413, 48.208484]
      },
      "properties": {
         "id": "pmb236233",
         "title": "Rozet & Fischmeister, Hofjuwelenhandlung",
         "lat": "48.208484",
         "lon": "16.367413",
         "timestamp": ["1908-02-25"],
         "importance": "1"
      }
      }, 
    {
      "type": "Feature",
      "geometry": {
        "type": "Point",
        "coordinates": [16.37134, 48.205383]
      },
      "properties": {
         "id": "pmb186222",
         "title": "Cabaret Fledermaus",
         "lat": "48.205383",
         "lon": "16.37134",
         "timestamp": ["1908-03-11", "1908-03-17", "1908-03-29", "1908-09-20", "1908-10-05"],
         "importance": "5"
      }
      }, 
    {
      "type": "Feature",
      "geometry": {
        "type": "Point",
        "coordinates": [10.852736, 45.883097]
      },
      "properties": {
         "id": "pmb40812",
         "title": "Hotel du Lac",
         "lat": "45.883097",
         "lon": "10.852736",
         "timestamp": ["1908-04-26", "1908-04-27", "1908-04-28", "1908-04-29", "1908-04-30"],
         "importance": "5"
      }
      }, 
    {
      "type": "Feature",
      "geometry": {
        "type": "Point",
        "coordinates": [11.43402, 48.26]
      },
      "properties": {
         "id": "pmb16805",
         "title": "Dachau",
         "lat": "48.26",
         "lon": "11.43402",
         "timestamp": ["1908-05-04"],
         "importance": "1"
      }
      }, 
    {
      "type": "Feature",
      "geometry": {
        "type": "Point",
        "coordinates": [11.5677720237734, 48.1400253963218]
      },
      "properties": {
         "id": "pmb184674",
         "title": "Künstlerhaus am Lenbachplatz",
         "lat": "48.1400253963218",
         "lon": "11.5677720237734",
         "timestamp": ["1908-05-04", "1908-05-10", "1908-05-13"],
         "importance": "3"
      }
      }, 
    {
      "type": "Feature",
      "geometry": {
        "type": "Point",
        "coordinates": [11.09576, 47.49209]
      },
      "properties": {
         "id": "pmb667",
         "title": "Garmisch-Partenkirchen",
         "lat": "47.49209",
         "lon": "11.09576",
         "timestamp": ["1908-05-11", "1908-05-12"],
         "importance": "2"
      }
      }, 
    {
      "type": "Feature",
      "geometry": {
        "type": "Point",
        "coordinates": [11.01481, 47.47399]
      },
      "properties": {
         "id": "pmb90294",
         "title": "Badersee",
         "lat": "47.47399",
         "lon": "11.01481",
         "timestamp": ["1908-05-11"],
         "importance": "1"
      }
      }, 
    {
      "type": "Feature",
      "geometry": {
        "type": "Point",
        "coordinates": [10.97311, 47.45601]
      },
      "properties": {
         "id": "pmb90567",
         "title": "Eibsee",
         "lat": "47.45601",
         "lon": "10.97311",
         "timestamp": ["1908-05-11"],
         "importance": "1"
      }
      }, 
    {
      "type": "Feature",
      "geometry": {
        "type": "Point",
        "coordinates": [11.26187, 47.4422]
      },
      "properties": {
         "id": "pmb91253",
         "title": "Mittenwald",
         "lat": "47.4422",
         "lon": "11.26187",
         "timestamp": ["1908-05-12"],
         "importance": "1"
      }
      }, 
    {
      "type": "Feature",
      "geometry": {
        "type": "Point",
        "coordinates": [11.34685, 47.59225]
      },
      "properties": {
         "id": "pmb92033",
         "title": "Walchensee",
         "lat": "47.59225",
         "lon": "11.34685",
         "timestamp": ["1908-05-12"],
         "importance": "1"
      }
      }, 
    {
      "type": "Feature",
      "geometry": {
        "type": "Point",
        "coordinates": [11.34071, 47.64448]
      },
      "properties": {
         "id": "pmb91046",
         "title": "Kochelsee",
         "lat": "47.64448",
         "lon": "11.34071",
         "timestamp": ["1908-05-12"],
         "importance": "1"
      }
      }, 
    {
      "type": "Feature",
      "geometry": {
        "type": "Point",
        "coordinates": [11.52148, 48.06122]
      },
      "properties": {
         "id": "pmb3534",
         "title": "Pullach im Isartal",
         "lat": "48.06122",
         "lon": "11.52148",
         "timestamp": ["1908-05-12"],
         "importance": "1"
      }
      }, 
    {
      "type": "Feature",
      "geometry": {
        "type": "Point",
        "coordinates": [11.555829781650656, 46.537267233027]
      },
      "properties": {
         "id": "pmb51945",
         "title": "Hotel Salegg",
         "lat": "46.537267233027",
         "lon": "11.555829781650656",
         "timestamp": ["1908-06-23", "1908-06-24"],
         "importance": "2"
      }
      }, 
    {
      "type": "Feature",
      "geometry": {
        "type": "Point",
        "coordinates": [11.560026, 46.54555]
      },
      "properties": {
         "id": "pmb467",
         "title": "Villa Heufler",
         "lat": "46.54555",
         "lon": "11.560026",
         "timestamp": ["1908-06-25", "1908-06-26", "1908-06-27", "1908-06-28", "1908-06-29", "1908-06-30", "1908-07-01", "1908-07-02", "1908-07-03", "1908-07-04", "1908-07-05", "1908-07-06", "1908-07-07", "1908-07-09", "1908-07-10", "1908-07-11", "1908-07-12", "1908-07-13", "1908-07-14", "1908-07-15", "1908-07-16", "1908-07-17", "1908-07-18", "1908-07-19", "1908-07-20", "1908-07-21", "1908-07-22", "1908-07-23", "1908-07-24", "1908-07-25", "1908-07-26", "1908-07-27", "1908-07-28", "1908-07-29", "1908-07-30", "1908-07-31", "1908-08-01", "1908-08-02", "1908-08-03", "1908-08-04", "1908-08-05", "1908-08-06", "1908-08-07", "1908-08-08", "1908-08-09", "1908-08-10", "1908-08-11", "1908-08-12", "1908-08-13", "1908-08-14", "1908-08-15", "1908-08-16", "1908-08-17", "1908-08-18", "1908-08-19", "1908-08-20", "1908-08-21", "1908-08-22", "1908-08-23", "1908-08-24", "1908-08-25", "1908-08-26", "1908-08-27", "1908-08-28", "1908-08-29", "1908-08-30", "1908-08-31", "1908-09-01", "1908-09-02"],
         "importance": "69"
      }
      }, 
    {
      "type": "Feature",
      "geometry": {
        "type": "Point",
        "coordinates": [11.44245, 46.93857]
      },
      "properties": {
         "id": "pmb40474",
         "title": "Gossensass",
         "lat": "46.93857",
         "lon": "11.44245",
         "timestamp": ["1908-07-07", "1908-07-08", "1908-07-09"],
         "importance": "3"
      }
      }, 
    {
      "type": "Feature",
      "geometry": {
        "type": "Point",
        "coordinates": [11.575073, 46.512275]
      },
      "properties": {
         "id": "pmb39874",
         "title": "Schlern",
         "lat": "46.512275",
         "lon": "11.575073",
         "timestamp": ["1908-08-05"],
         "importance": "1"
      }
      }, 
    {
      "type": "Feature",
      "geometry": {
        "type": "Point",
        "coordinates": [11.35345, 46.491277]
      },
      "properties": {
         "id": "pmb92584",
         "title": "Virgl",
         "lat": "46.491277",
         "lon": "11.35345",
         "timestamp": ["1908-09-02"],
         "importance": "1"
      }
      }, 
    {
      "type": "Feature",
      "geometry": {
        "type": "Point",
        "coordinates": [11.6026343821, 46.312656066]
      },
      "properties": {
         "id": "pmb92739",
         "title": "Nave d‘Oro",
         "lat": "46.312656066",
         "lon": "11.6026343821",
         "timestamp": ["1908-09-04"],
         "importance": "1"
      }
      }, 
    {
      "type": "Feature",
      "geometry": {
        "type": "Point",
        "coordinates": [11.605591, 48.138986]
      },
      "properties": {
         "id": "pmb703",
         "title": "Prinzregenten-Theater",
         "lat": "48.138986",
         "lon": "11.605591",
         "timestamp": ["1908-09-10"],
         "importance": "1"
      }
      }, 
    {
      "type": "Feature",
      "geometry": {
        "type": "Point",
        "coordinates": [16.368528, 48.202028]
      },
      "properties": {
         "id": "pmb86",
         "title": "Backhausen Joh. & Söhne, Möbelstoffe, Teppiche, Tisch- und Bettdecken",
         "lat": "48.202028",
         "lon": "16.368528",
         "timestamp": ["1908-10-23"],
         "importance": "1"
      }
      }, 
    {
      "type": "Feature",
      "geometry": {
        "type": "Point",
        "coordinates": [19.070833, 47.470833]
      },
      "properties": {
         "id": "pmb186247",
         "title": "Népszinház",
         "lat": "47.470833",
         "lon": "19.070833",
         "timestamp": ["1908-12-18"],
         "importance": "1"
      }
      }
  ]
}