{
  "type": "FeatureCollection",
  "features": [
    {
      "type": "Feature",
      "geometry": {
        "type": "Point",
        "coordinates": [16.3691, 48.203]
      },
      "properties": {
         "id": "pmb15",
         "title": "Oper",
         "lat": "48.203",
         "lon": "16.3691",
         "timestamp": ["1909-03-22", "1909-03-24"],
         "importance": "2"
      }
      }, 
    {
      "type": "Feature",
      "geometry": {
        "type": "Point",
        "coordinates": [16.351111, 48.209583]
      },
      "properties": {
         "id": "pmb40",
         "title": "Theater in der Josefstadt",
         "lat": "48.209583",
         "lon": "16.351111",
         "timestamp": ["1909-02-15"],
         "importance": "1"
      }
      }, 
    {
      "type": "Feature",
      "geometry": {
        "type": "Point",
        "coordinates": [16.384444, 48.215]
      },
      "properties": {
         "id": "pmb118",
         "title": "Carl-Theater",
         "lat": "48.215",
         "lon": "16.384444",
         "timestamp": ["1909-04-01"],
         "importance": "1"
      }
      }, 
    {
      "type": "Feature",
      "geometry": {
        "type": "Point",
        "coordinates": [16.3642, 48.19941]
      },
      "properties": {
         "id": "pmb37",
         "title": "Theater an der Wien",
         "lat": "48.19941",
         "lon": "16.3642",
         "timestamp": ["1909-01-18", "1909-04-16"],
         "importance": "2"
      }
      }, 
    {
      "type": "Feature",
      "geometry": {
        "type": "Point",
        "coordinates": [16.373056, 48.208333]
      },
      "properties": {
         "id": "pmb50",
         "title": "Wien",
         "lat": "48.208333",
         "lon": "16.373056",
         "timestamp": ["1909-01-01", "1909-01-02", "1909-01-03", "1909-01-04", "1909-01-05", "1909-01-06", "1909-01-07", "1909-01-08", "1909-01-09", "1909-01-10", "1909-01-11", "1909-01-12", "1909-01-13", "1909-01-14", "1909-01-15", "1909-01-16", "1909-01-17", "1909-01-18", "1909-01-19", "1909-01-20", "1909-01-21", "1909-01-22", "1909-01-23", "1909-01-24", "1909-01-31", "1909-02-01", "1909-02-02", "1909-02-03", "1909-02-04", "1909-02-05", "1909-02-06", "1909-02-07", "1909-02-08", "1909-02-09", "1909-02-10", "1909-02-11", "1909-02-12", "1909-02-13", "1909-02-14", "1909-02-15", "1909-02-16", "1909-02-17", "1909-02-18", "1909-02-19", "1909-02-20", "1909-02-21", "1909-02-22", "1909-02-23", "1909-02-24", "1909-02-25", "1909-02-26", "1909-02-27", "1909-02-28", "1909-03-01", "1909-03-02", "1909-03-03", "1909-03-04", "1909-03-05", "1909-03-06", "1909-03-07", "1909-03-08", "1909-03-09", "1909-03-10", "1909-03-11", "1909-03-12", "1909-03-13", "1909-03-14", "1909-03-15", "1909-03-16", "1909-03-17", "1909-03-18", "1909-03-19", "1909-03-20", "1909-03-21", "1909-03-22", "1909-03-23", "1909-03-24", "1909-03-25", "1909-03-26", "1909-03-27", "1909-03-29", "1909-03-30", "1909-03-31", "1909-04-01", "1909-04-02", "1909-04-03", "1909-04-04", "1909-04-05", "1909-04-06", "1909-04-07", "1909-04-08", "1909-04-09", "1909-04-10", "1909-04-11", "1909-04-12", "1909-04-13", "1909-04-14", "1909-04-15", "1909-04-16", "1909-04-17", "1909-04-19", "1909-04-20", "1909-04-21", "1909-04-26", "1909-04-27", "1909-04-28", "1909-04-29", "1909-04-30", "1909-05-01", "1909-05-02", "1909-05-03", "1909-05-04", "1909-05-05", "1909-05-06", "1909-05-07", "1909-05-08", "1909-05-09", "1909-05-13", "1909-05-14", "1909-05-15", "1909-05-17", "1909-05-18", "1909-05-19", "1909-05-20", "1909-05-21", "1909-05-22", "1909-05-23", "1909-05-24", "1909-05-25", "1909-05-26", "1909-05-27", "1909-05-28", "1909-05-29", "1909-05-30", "1909-05-31", "1909-06-01", "1909-06-02", "1909-06-03", "1909-06-04", "1909-06-05", "1909-06-06", "1909-06-07", "1909-06-08", "1909-06-09", "1909-06-10", "1909-06-11", "1909-06-12", "1909-06-13", "1909-06-14", "1909-06-21", "1909-06-22", "1909-06-23", "1909-06-24", "1909-06-25", "1909-06-26", "1909-06-27", "1909-06-28", "1909-06-29", "1909-06-30", "1909-08-07", "1909-08-21", "1909-08-22", "1909-08-23", "1909-09-02", "1909-09-03", "1909-09-04", "1909-09-06", "1909-09-07", "1909-09-08", "1909-09-09", "1909-09-10", "1909-09-11", "1909-09-12", "1909-09-13", "1909-09-14", "1909-09-15", "1909-09-16", "1909-09-17", "1909-09-18", "1909-09-19", "1909-09-20", "1909-09-21", "1909-09-22", "1909-09-23", "1909-09-24", "1909-09-25", "1909-09-26", "1909-09-27", "1909-09-28", "1909-09-29", "1909-09-30", "1909-10-01", "1909-10-02", "1909-10-03", "1909-10-04", "1909-10-05", "1909-10-06", "1909-10-07", "1909-10-08", "1909-10-09", "1909-10-10", "1909-10-11", "1909-10-12", "1909-10-13", "1909-10-14", "1909-10-15", "1909-10-16", "1909-10-17", "1909-10-18", "1909-10-19", "1909-10-20", "1909-10-21", "1909-10-22", "1909-10-23", "1909-10-24", "1909-10-25", "1909-10-26", "1909-10-27", "1909-10-28", "1909-10-29", "1909-10-30", "1909-10-31", "1909-11-01", "1909-11-02", "1909-11-03", "1909-11-04", "1909-11-05", "1909-11-06", "1909-11-07", "1909-11-08", "1909-11-09", "1909-11-10", "1909-11-16", "1909-11-17", "1909-11-18", "1909-11-19", "1909-11-21", "1909-11-22", "1909-11-23", "1909-11-24", "1909-11-25", "1909-11-26", "1909-11-27", "1909-11-28", "1909-11-29", "1909-11-30", "1909-12-01", "1909-12-02", "1909-12-03", "1909-12-04", "1909-12-05", "1909-12-06", "1909-12-08", "1909-12-09", "1909-12-10", "1909-12-11", "1909-12-12", "1909-12-13", "1909-12-14", "1909-12-16", "1909-12-17", "1909-12-18", "1909-12-19", "1909-12-20", "1909-12-21", "1909-12-22", "1909-12-23", "1909-12-24", "1909-12-25", "1909-12-26", "1909-12-27", "1909-12-28", "1909-12-29", "1909-12-30", "1909-12-31"],
         "importance": "275"
      }
      }, 
    {
      "type": "Feature",
      "geometry": {
        "type": "Point",
        "coordinates": [16.361139, 48.210333]
      },
      "properties": {
         "id": "pmb14",
         "title": "Burgtheater",
         "lat": "48.210333",
         "lon": "16.361139",
         "timestamp": ["1909-03-19", "1909-04-29", "1909-09-21", "1909-11-26", "1909-12-22"],
         "importance": "5"
      }
      }, 
    {
      "type": "Feature",
      "geometry": {
        "type": "Point",
        "coordinates": [16.3734013, 48.2098832]
      },
      "properties": {
         "id": "pmb42749",
         "title": "Stefanskeller",
         "lat": "48.2098832",
         "lon": "16.3734013",
         "timestamp": ["1909-10-10"],
         "importance": "1"
      }
      }, 
    {
      "type": "Feature",
      "geometry": {
        "type": "Point",
        "coordinates": [16.299116267833, 48.230916826952]
      },
      "properties": {
         "id": "pmb499",
         "title": "Dornbach",
         "lat": "48.230916826952",
         "lon": "16.299116267833",
         "timestamp": ["1909-01-24", "1909-03-24", "1909-03-30", "1909-04-12", "1909-05-20", "1909-06-06", "1909-12-08"],
         "importance": "7"
      }
      }, 
    {
      "type": "Feature",
      "geometry": {
        "type": "Point",
        "coordinates": [16.355191, 48.248422]
      },
      "properties": {
         "id": "pmb92292",
         "title": "Hohe Warte",
         "lat": "48.248422",
         "lon": "16.355191",
         "timestamp": ["1909-03-28", "1909-05-16", "1909-09-05", "1909-11-15"],
         "importance": "4"
      }
      }, 
    {
      "type": "Feature",
      "geometry": {
        "type": "Point",
        "coordinates": [16.371667, 48.200556]
      },
      "properties": {
         "id": "pmb21",
         "title": "Künstlerhaus",
         "lat": "48.200556",
         "lon": "16.371667",
         "timestamp": ["1909-03-18", "1909-11-29"],
         "importance": "2"
      }
      }, 
    {
      "type": "Feature",
      "geometry": {
        "type": "Point",
        "coordinates": [16.369444, 48.203889]
      },
      "properties": {
         "id": "pmb29",
         "title": "Hotel Sacher",
         "lat": "48.203889",
         "lon": "16.369444",
         "timestamp": ["1909-06-04", "1909-06-09"],
         "importance": "2"
      }
      }, 
    {
      "type": "Feature",
      "geometry": {
        "type": "Point",
        "coordinates": [16.379829498031, 48.187455471378]
      },
      "properties": {
         "id": "pmb132",
         "title": "Südbahnhof",
         "lat": "48.187455471378",
         "lon": "16.379829498031",
         "timestamp": ["1909-07-09"],
         "importance": "1"
      }
      }, 
    {
      "type": "Feature",
      "geometry": {
        "type": "Point",
        "coordinates": [13.7666, 51.0833]
      },
      "properties": {
         "id": "pmb866",
         "title": "Dresden",
         "lat": "51.0833",
         "lon": "13.7666",
         "timestamp": ["1909-04-24"],
         "importance": "1"
      }
      }, 
    {
      "type": "Feature",
      "geometry": {
        "type": "Point",
        "coordinates": [16.3566, 48.205142]
      },
      "properties": {
         "id": "pmb20",
         "title": "Volkstheater",
         "lat": "48.205142",
         "lon": "16.3566",
         "timestamp": ["1909-01-05", "1909-02-12", "1909-10-15", "1909-11-18", "1909-12-01", "1909-12-10", "1909-12-11"],
         "importance": "7"
      }
      }, 
    {
      "type": "Feature",
      "geometry": {
        "type": "Point",
        "coordinates": [16.3576, 48.21071]
      },
      "properties": {
         "id": "pmb373",
         "title": "Rathaus",
         "lat": "48.21071",
         "lon": "16.3576",
         "timestamp": ["1909-01-19"],
         "importance": "1"
      }
      }, 
    {
      "type": "Feature",
      "geometry": {
        "type": "Point",
        "coordinates": [16.3067984, 48.1806202]
      },
      "properties": {
         "id": "pmb92518",
         "title": "Schlosspark Schönbrunn",
         "lat": "48.1806202",
         "lon": "16.3067984",
         "timestamp": ["1909-03-11"],
         "importance": "1"
      }
      }, 
    {
      "type": "Feature",
      "geometry": {
        "type": "Point",
        "coordinates": [16.402222, 48.214722]
      },
      "properties": {
         "id": "pmb685",
         "title": "Wurstelprater",
         "lat": "48.214722",
         "lon": "16.402222",
         "timestamp": ["1909-05-19"],
         "importance": "1"
      }
      }, 
    {
      "type": "Feature",
      "geometry": {
        "type": "Point",
        "coordinates": [16.37312, 48.20122]
      },
      "properties": {
         "id": "pmb43",
         "title": "Café Imperial",
         "lat": "48.20122",
         "lon": "16.37312",
         "timestamp": ["1909-05-25", "1909-06-03", "1909-06-09"],
         "importance": "3"
      }
      }, 
    {
      "type": "Feature",
      "geometry": {
        "type": "Point",
        "coordinates": [16.371211, 48.206416]
      },
      "properties": {
         "id": "pmb96",
         "title": "Meissl & Schadn",
         "lat": "48.206416",
         "lon": "16.371211",
         "timestamp": ["1909-01-05", "1909-01-18", "1909-01-21", "1909-06-11", "1909-11-20", "1909-12-11"],
         "importance": "6"
      }
      }, 
    {
      "type": "Feature",
      "geometry": {
        "type": "Point",
        "coordinates": [16.333568462613, 48.235119783861]
      },
      "properties": {
         "id": "pmb113",
         "title": "Türkenschanzpark",
         "lat": "48.235119783861",
         "lon": "16.333568462613",
         "timestamp": ["1909-08-07"],
         "importance": "1"
      }
      }, 
    {
      "type": "Feature",
      "geometry": {
        "type": "Point",
        "coordinates": [16.276509500872, 48.241960480337]
      },
      "properties": {
         "id": "pmb176",
         "title": "Schwarzenbergpark",
         "lat": "48.241960480337",
         "lon": "16.276509500872",
         "timestamp": ["1909-01-01", "1909-01-03", "1909-01-17", "1909-02-14", "1909-05-09", "1909-09-04", "1909-09-23", "1909-10-12", "1909-11-28"],
         "importance": "9"
      }
      }, 
    {
      "type": "Feature",
      "geometry": {
        "type": "Point",
        "coordinates": [13.36667, 47.76667]
      },
      "properties": {
         "id": "pmb33",
         "title": "St. Gilgen",
         "lat": "47.76667",
         "lon": "13.36667",
         "timestamp": ["1909-06-14", "1909-06-15", "1909-06-16", "1909-06-17", "1909-06-18", "1909-06-19", "1909-06-20"],
         "importance": "7"
      }
      }, 
    {
      "type": "Feature",
      "geometry": {
        "type": "Point",
        "coordinates": [16.361378, 48.203661]
      },
      "properties": {
         "id": "pmb47660",
         "title": "Kunsthistorisches Museum",
         "lat": "48.203661",
         "lon": "16.361378",
         "timestamp": ["1909-10-10"],
         "importance": "1"
      }
      }, 
    {
      "type": "Feature",
      "geometry": {
        "type": "Point",
        "coordinates": [15.8241, 47.64224]
      },
      "properties": {
         "id": "pmb189",
         "title": "Semmering",
         "lat": "47.64224",
         "lon": "15.8241",
         "timestamp": ["1909-05-12", "1909-07-28", "1909-08-06"],
         "importance": "3"
      }
      }, 
    {
      "type": "Feature",
      "geometry": {
        "type": "Point",
        "coordinates": [16.359930555555554, 48.205130555555556]
      },
      "properties": {
         "id": "pmb192662",
         "title": "Naturhistorisches Museum",
         "lat": "48.205130555555556",
         "lon": "16.359930555555554",
         "timestamp": ["1909-09-18"],
         "importance": "1"
      }
      }, 
    {
      "type": "Feature",
      "geometry": {
        "type": "Point",
        "coordinates": [16.10973, 47.94567]
      },
      "properties": {
         "id": "pmb3417",
         "title": "Berndorf",
         "lat": "47.94567",
         "lon": "16.10973",
         "timestamp": ["1909-04-18"],
         "importance": "1"
      }
      }, 
    {
      "type": "Feature",
      "geometry": {
        "type": "Point",
        "coordinates": [16.339722, 48.192222]
      },
      "properties": {
         "id": "pmb77",
         "title": "Raimund-Theater",
         "lat": "48.192222",
         "lon": "16.339722",
         "timestamp": ["1909-12-29"],
         "importance": "1"
      }
      }, 
    {
      "type": "Feature",
      "geometry": {
        "type": "Point",
        "coordinates": [16.35736, 48.21533]
      },
      "properties": {
         "id": "pmb168934",
         "title": "Frankgasse 1",
         "lat": "48.21533",
         "lon": "16.35736",
         "timestamp": ["1909-01-02", "1909-01-04", "1909-01-06", "1909-01-16", "1909-01-19", "1909-01-22", "1909-02-05", "1909-02-09", "1909-02-26", "1909-03-04", "1909-03-05", "1909-04-02", "1909-04-09", "1909-04-12", "1909-04-20", "1909-04-29", "1909-04-30", "1909-05-14", "1909-06-01", "1909-06-08", "1909-06-10", "1909-06-24", "1909-06-28", "1909-09-03", "1909-09-17", "1909-10-01", "1909-10-15", "1909-11-05", "1909-12-10", "1909-12-31"],
         "importance": "30"
      }
      }, 
    {
      "type": "Feature",
      "geometry": {
        "type": "Point",
        "coordinates": [16.43898217221, 48.19252071812]
      },
      "properties": {
         "id": "pmb185",
         "title": "Lusthaus",
         "lat": "48.19252071812",
         "lon": "16.43898217221",
         "timestamp": ["1909-01-21", "1909-05-19"],
         "importance": "2"
      }
      }, 
    {
      "type": "Feature",
      "geometry": {
        "type": "Point",
        "coordinates": [16.359115820865, 48.21529247001]
      },
      "properties": {
         "id": "pmb526",
         "title": "Votivkirche",
         "lat": "48.21529247001",
         "lon": "16.359115820865",
         "timestamp": ["1909-10-10"],
         "importance": "1"
      }
      }, 
    {
      "type": "Feature",
      "geometry": {
        "type": "Point",
        "coordinates": [11.578786, 48.139944]
      },
      "properties": {
         "id": "pmb635",
         "title": "Residenztheater München",
         "lat": "48.139944",
         "lon": "11.578786",
         "timestamp": ["1909-08-28"],
         "importance": "1"
      }
      }, 
    {
      "type": "Feature",
      "geometry": {
        "type": "Point",
        "coordinates": [13.62156, 47.71319]
      },
      "properties": {
         "id": "pmb84",
         "title": "Hotel zum goldenen Kreuz",
         "lat": "47.71319",
         "lon": "13.62156",
         "timestamp": ["1909-06-20"],
         "importance": "1"
      }
      }, 
    {
      "type": "Feature",
      "geometry": {
        "type": "Point",
        "coordinates": [16.331527, 48.23428]
      },
      "properties": {
         "id": "pmb74",
         "title": "Restauration Türkenschanz-Park",
         "lat": "48.23428",
         "lon": "16.331527",
         "timestamp": ["1909-04-27", "1909-05-27", "1909-05-29", "1909-06-02", "1909-06-05", "1909-06-12", "1909-06-22", "1909-06-24", "1909-06-26", "1909-06-28"],
         "importance": "10"
      }
      }, 
    {
      "type": "Feature",
      "geometry": {
        "type": "Point",
        "coordinates": [16.258056, 48.201667]
      },
      "properties": {
         "id": "pmb271",
         "title": "Hütteldorf",
         "lat": "48.201667",
         "lon": "16.258056",
         "timestamp": ["1909-01-24", "1909-04-12"],
         "importance": "2"
      }
      }, 
    {
      "type": "Feature",
      "geometry": {
        "type": "Point",
        "coordinates": [13.62311, 47.71247]
      },
      "properties": {
         "id": "pmb1219",
         "title": "Ramsauer Garni Café",
         "lat": "47.71247",
         "lon": "13.62311",
         "timestamp": ["1909-06-20"],
         "importance": "1"
      }
      }, 
    {
      "type": "Feature",
      "geometry": {
        "type": "Point",
        "coordinates": [11.569993, 48.143395]
      },
      "properties": {
         "id": "pmb681",
         "title": "Hotel Continental [München]",
         "lat": "48.143395",
         "lon": "11.569993",
         "timestamp": ["1909-08-29"],
         "importance": "1"
      }
      }, 
    {
      "type": "Feature",
      "geometry": {
        "type": "Point",
        "coordinates": [11.591944, 48.152778]
      },
      "properties": {
         "id": "pmb706",
         "title": "Englischer Garten [München]",
         "lat": "48.152778",
         "lon": "11.591944",
         "timestamp": ["1909-08-24"],
         "importance": "1"
      }
      }, 
    {
      "type": "Feature",
      "geometry": {
        "type": "Point",
        "coordinates": [14.46667, 50.08333]
      },
      "properties": {
         "id": "pmb652",
         "title": "Prag",
         "lat": "50.08333",
         "lon": "14.46667",
         "timestamp": ["1909-04-22", "1909-04-23", "1909-04-24"],
         "importance": "3"
      }
      }, 
    {
      "type": "Feature",
      "geometry": {
        "type": "Point",
        "coordinates": [16.361963, 48.211271]
      },
      "properties": {
         "id": "pmb194883",
         "title": "Löwenbräu-Bierhalle",
         "lat": "48.211271",
         "lon": "16.361963",
         "timestamp": ["1909-09-21"],
         "importance": "1"
      }
      }, 
    {
      "type": "Feature",
      "geometry": {
        "type": "Point",
        "coordinates": [11.582478, 48.138122]
      },
      "properties": {
         "id": "pmb11",
         "title": "Münchner Schauspielhaus",
         "lat": "48.138122",
         "lon": "11.582478",
         "timestamp": ["1909-08-24"],
         "importance": "1"
      }
      }, 
    {
      "type": "Feature",
      "geometry": {
        "type": "Point",
        "coordinates": [15.707639, 47.605239]
      },
      "properties": {
         "id": "pmb714",
         "title": "Hotel Edlacherhof",
         "lat": "47.605239",
         "lon": "15.707639",
         "timestamp": ["1909-05-10", "1909-05-11", "1909-05-12", "1909-05-13", "1909-06-30", "1909-07-01", "1909-07-02", "1909-07-03", "1909-07-04", "1909-07-05", "1909-07-06", "1909-07-07", "1909-07-08", "1909-07-09", "1909-07-10", "1909-07-11", "1909-07-12", "1909-07-13", "1909-07-14", "1909-07-15", "1909-07-16", "1909-07-17", "1909-07-18", "1909-07-19", "1909-07-20", "1909-07-21", "1909-07-22", "1909-07-23", "1909-07-24", "1909-07-25", "1909-07-26", "1909-07-27", "1909-07-28", "1909-07-29", "1909-07-30", "1909-07-31", "1909-08-01", "1909-08-02", "1909-08-03", "1909-08-04", "1909-08-05", "1909-08-06", "1909-08-07", "1909-08-08", "1909-08-09", "1909-08-10", "1909-08-11", "1909-08-12", "1909-08-13", "1909-08-14", "1909-08-15", "1909-08-16", "1909-08-17", "1909-08-18", "1909-08-19", "1909-08-20", "1909-08-21"],
         "importance": "57"
      }
      }, 
    {
      "type": "Feature",
      "geometry": {
        "type": "Point",
        "coordinates": [16.23036, 48.246719]
      },
      "properties": {
         "id": "pmb539",
         "title": "Sophienalpe",
         "lat": "48.246719",
         "lon": "16.23036",
         "timestamp": ["1909-09-07"],
         "importance": "1"
      }
      }, 
    {
      "type": "Feature",
      "geometry": {
        "type": "Point",
        "coordinates": [15.84453, 47.69852]
      },
      "properties": {
         "id": "pmb44982",
         "title": "Kurhaus Rudolfsbad",
         "lat": "47.69852",
         "lon": "15.84453",
         "timestamp": ["1909-05-10"],
         "importance": "1"
      }
      }, 
    {
      "type": "Feature",
      "geometry": {
        "type": "Point",
        "coordinates": [16.322222222222, 48.263611111111]
      },
      "properties": {
         "id": "pmb194903",
         "title": "Am Kobenzl",
         "lat": "48.263611111111",
         "lon": "16.322222222222",
         "timestamp": ["1909-09-26"],
         "importance": "1"
      }
      }, 
    {
      "type": "Feature",
      "geometry": {
        "type": "Point",
        "coordinates": [16.2911, 48.2553]
      },
      "properties": {
         "id": "pmb242",
         "title": "Salmannsdorf",
         "lat": "48.2553",
         "lon": "16.2911",
         "timestamp": ["1909-01-01", "1909-01-17", "1909-03-30", "1909-12-08"],
         "importance": "4"
      }
      }, 
    {
      "type": "Feature",
      "geometry": {
        "type": "Point",
        "coordinates": [16.31268, 48.2629]
      },
      "properties": {
         "id": "pmb285",
         "title": "Am Himmel",
         "lat": "48.2629",
         "lon": "16.31268",
         "timestamp": ["1909-02-21", "1909-09-26"],
         "importance": "2"
      }
      }, 
    {
      "type": "Feature",
      "geometry": {
        "type": "Point",
        "coordinates": [16.33472, 48.2304]
      },
      "properties": {
         "id": "pmb168940",
         "title": "Edmund-Weiß-Gasse 7",
         "lat": "48.2304",
         "lon": "16.33472",
         "timestamp": ["1909-05-31", "1909-11-01"],
         "importance": "2"
      }
      }, 
    {
      "type": "Feature",
      "geometry": {
        "type": "Point",
        "coordinates": [16.29273, 48.23975]
      },
      "properties": {
         "id": "pmb532",
         "title": "Schafberg [Wien|",
         "lat": "48.23975",
         "lon": "16.29273",
         "timestamp": ["1909-10-02"],
         "importance": "1"
      }
      }, 
    {
      "type": "Feature",
      "geometry": {
        "type": "Point",
        "coordinates": [16.3025, 48.182222]
      },
      "properties": {
         "id": "pmb39607",
         "title": "Tiergarten Schönbrunn",
         "lat": "48.182222",
         "lon": "16.3025",
         "timestamp": ["1909-09-04"],
         "importance": "1"
      }
      }, 
    {
      "type": "Feature",
      "geometry": {
        "type": "Point",
        "coordinates": [15.85, 47.71667]
      },
      "properties": {
         "id": "pmb90587",
         "title": "Eng",
         "lat": "47.71667",
         "lon": "15.85",
         "timestamp": ["1909-08-12"],
         "importance": "1"
      }
      }, 
    {
      "type": "Feature",
      "geometry": {
        "type": "Point",
        "coordinates": [15.8121, 47.644]
      },
      "properties": {
         "id": "pmb200876",
         "title": "Meierei des Südbahnhotels",
         "lat": "47.644",
         "lon": "15.8121",
         "timestamp": ["1909-01-26"],
         "importance": "1"
      }
      }, 
    {
      "type": "Feature",
      "geometry": {
        "type": "Point",
        "coordinates": [13.735169, 51.054508]
      },
      "properties": {
         "id": "pmb1034",
         "title": "Semperoper",
         "lat": "51.054508",
         "lon": "13.735169",
         "timestamp": ["1909-04-25"],
         "importance": "1"
      }
      }, 
    {
      "type": "Feature",
      "geometry": {
        "type": "Point",
        "coordinates": [16.28606, 48.25849]
      },
      "properties": {
         "id": "pmb537",
         "title": "Dreimarkstein [Wien]",
         "lat": "48.25849",
         "lon": "16.28606",
         "timestamp": ["1909-05-23", "1909-09-12"],
         "importance": "2"
      }
      }, 
    {
      "type": "Feature",
      "geometry": {
        "type": "Point",
        "coordinates": [13.372111, 47.753992]
      },
      "properties": {
         "id": "pmb824",
         "title": "Hotel und Pension Lueg",
         "lat": "47.753992",
         "lon": "13.372111",
         "timestamp": ["1909-06-14", "1909-06-15", "1909-06-16", "1909-06-17", "1909-06-18", "1909-06-19", "1909-06-20"],
         "importance": "7"
      }
      }, 
    {
      "type": "Feature",
      "geometry": {
        "type": "Point",
        "coordinates": [16.369299, 48.207163]
      },
      "properties": {
         "id": "pmb234823",
         "title": "Dorotheergasse 11",
         "lat": "48.207163",
         "lon": "16.369299",
         "timestamp": ["1909-01-12"],
         "importance": "1"
      }
      }, 
    {
      "type": "Feature",
      "geometry": {
        "type": "Point",
        "coordinates": [16.353889, 48.1975]
      },
      "properties": {
         "id": "pmb52023",
         "title": "Apollo-Theater [Wien]",
         "lat": "48.1975",
         "lon": "16.353889",
         "timestamp": ["1909-12-07"],
         "importance": "1"
      }
      }, 
    {
      "type": "Feature",
      "geometry": {
        "type": "Point",
        "coordinates": [15.827286, 47.640258]
      },
      "properties": {
         "id": "pmb236041",
         "title": "Hochstraße [Semmering]",
         "lat": "47.640258",
         "lon": "15.827286",
         "timestamp": ["1909-11-11"],
         "importance": "1"
      }
      }, 
    {
      "type": "Feature",
      "geometry": {
        "type": "Point",
        "coordinates": [16.374224, 48.205181]
      },
      "properties": {
         "id": "pmb236225",
         "title": "Josef Nigst & Sohn, Taschner",
         "lat": "48.205181",
         "lon": "16.374224",
         "timestamp": ["1909-12-16"],
         "importance": "1"
      }
      }, 
    {
      "type": "Feature",
      "geometry": {
        "type": "Point",
        "coordinates": [15.83, 47.647222]
      },
      "properties": {
         "id": "pmb413",
         "title": "Südbahnhotel [Semmering]",
         "lat": "47.647222",
         "lon": "15.83",
         "timestamp": ["1909-01-25", "1909-01-26", "1909-01-27", "1909-01-28", "1909-01-29", "1909-01-30", "1909-11-11", "1909-11-12", "1909-11-13", "1909-11-14"],
         "importance": "10"
      }
      }, 
    {
      "type": "Feature",
      "geometry": {
        "type": "Point",
        "coordinates": [16.3957, 48.21766]
      },
      "properties": {
         "id": "pmb1209",
         "title": "Lustspieltheater [Wien]",
         "lat": "48.21766",
         "lon": "16.3957",
         "timestamp": ["1909-11-20", "1909-12-15"],
         "importance": "2"
      }
      }, 
    {
      "type": "Feature",
      "geometry": {
        "type": "Point",
        "coordinates": [16.350361, 48.224472]
      },
      "properties": {
         "id": "pmb28",
         "title": "Volksoper",
         "lat": "48.224472",
         "lon": "16.350361",
         "timestamp": ["1909-11-22"],
         "importance": "1"
      }
      }, 
    {
      "type": "Feature",
      "geometry": {
        "type": "Point",
        "coordinates": [16.371539, 48.208697]
      },
      "properties": {
         "id": "pmb236260",
         "title": "Koppel, Frisch & Cie., Mode- und Seidenwaren",
         "lat": "48.208697",
         "lon": "16.371539",
         "timestamp": ["1909-12-16"],
         "importance": "1"
      }
      }, 
    {
      "type": "Feature",
      "geometry": {
        "type": "Point",
        "coordinates": [16.368516, 48.209258]
      },
      "properties": {
         "id": "pmb236278",
         "title": "Johann Heinrich Ita, Hutniederlage",
         "lat": "48.209258",
         "lon": "16.368516",
         "timestamp": ["1909-12-16"],
         "importance": "1"
      }
      }, 
    {
      "type": "Feature",
      "geometry": {
        "type": "Point",
        "coordinates": [16.296768550115, 48.248935842869]
      },
      "properties": {
         "id": "pmb243",
         "title": "Sommerhaidenweg",
         "lat": "48.248935842869",
         "lon": "16.296768550115",
         "timestamp": ["1909-03-24", "1909-10-24"],
         "importance": "2"
      }
      }, 
    {
      "type": "Feature",
      "geometry": {
        "type": "Point",
        "coordinates": [16.367413, 48.208484]
      },
      "properties": {
         "id": "pmb236233",
         "title": "Rozet & Fischmeister, Hofjuwelenhandlung",
         "lat": "48.208484",
         "lon": "16.367413",
         "timestamp": ["1909-12-16"],
         "importance": "1"
      }
      }, 
    {
      "type": "Feature",
      "geometry": {
        "type": "Point",
        "coordinates": [16.37134, 48.205383]
      },
      "properties": {
         "id": "pmb186222",
         "title": "Cabaret Fledermaus",
         "lat": "48.205383",
         "lon": "16.37134",
         "timestamp": ["1909-03-04"],
         "importance": "1"
      }
      }, 
    {
      "type": "Feature",
      "geometry": {
        "type": "Point",
        "coordinates": [16.368528, 48.202028]
      },
      "properties": {
         "id": "pmb86",
         "title": "Backhausen Joh. & Söhne, Möbelstoffe, Teppiche, Tisch- und Bettdecken",
         "lat": "48.202028",
         "lon": "16.368528",
         "timestamp": ["1909-12-16"],
         "importance": "1"
      }
      }, 
    {
      "type": "Feature",
      "geometry": {
        "type": "Point",
        "coordinates": [16.368888859417, 48.195462648962]
      },
      "properties": {
         "id": "pmb298",
         "title": "Johann Strauß-Theater",
         "lat": "48.195462648962",
         "lon": "16.368888859417",
         "timestamp": ["1909-01-09"],
         "importance": "1"
      }
      }, 
    {
      "type": "Feature",
      "geometry": {
        "type": "Point",
        "coordinates": [16.368331, 48.209676]
      },
      "properties": {
         "id": "pmb190498",
         "title": "Hotel Wieninger",
         "lat": "48.209676",
         "lon": "16.368331",
         "timestamp": ["1909-01-18"],
         "importance": "1"
      }
      }, 
    {
      "type": "Feature",
      "geometry": {
        "type": "Point",
        "coordinates": [16.3589845, 48.2195962]
      },
      "properties": {
         "id": "pmb34399",
         "title": "Neue Wiener Bühne",
         "lat": "48.2195962",
         "lon": "16.3589845",
         "timestamp": ["1909-01-24"],
         "importance": "1"
      }
      }, 
    {
      "type": "Feature",
      "geometry": {
        "type": "Point",
        "coordinates": [15.824188, 47.645877]
      },
      "properties": {
         "id": "pmb200897",
         "title": "Meiereiweg",
         "lat": "47.645877",
         "lon": "15.824188",
         "timestamp": ["1909-01-29"],
         "importance": "1"
      }
      }, 
    {
      "type": "Feature",
      "geometry": {
        "type": "Point",
        "coordinates": [16.352844, 48.23795]
      },
      "properties": {
         "id": "pmb92480",
         "title": "Reithlegasse",
         "lat": "48.23795",
         "lon": "16.352844",
         "timestamp": ["1909-01-31"],
         "importance": "1"
      }
      }, 
    {
      "type": "Feature",
      "geometry": {
        "type": "Point",
        "coordinates": [16.352693, 48.193456]
      },
      "properties": {
         "id": "pmb236295",
         "title": "Josef Berger, Kunst- und Antiquitätenhändler",
         "lat": "48.193456",
         "lon": "16.352693",
         "timestamp": ["1909-04-01", "1909-11-29", "1909-11-30"],
         "importance": "3"
      }
      }, 
    {
      "type": "Feature",
      "geometry": {
        "type": "Point",
        "coordinates": [16.1, 47.93333]
      },
      "properties": {
         "id": "pmb91999",
         "title": "Veitsau",
         "lat": "47.93333",
         "lon": "16.1",
         "timestamp": ["1909-04-18"],
         "importance": "1"
      }
      }, 
    {
      "type": "Feature",
      "geometry": {
        "type": "Point",
        "coordinates": [16.3685, 48.1954]
      },
      "properties": {
         "id": "pmb185928",
         "title": "Johann-Strauß-Theater",
         "lat": "48.1954",
         "lon": "16.3685",
         "timestamp": ["1909-05-15", "1909-05-17", "1909-05-21", "1909-05-25", "1909-06-04", "1909-06-09", "1909-06-11"],
         "importance": "7"
      }
      }, 
    {
      "type": "Feature",
      "geometry": {
        "type": "Point",
        "coordinates": [16.359383, 48.20133]
      },
      "properties": {
         "id": "pmb200485",
         "title": "Mariahilfer Straße 12",
         "lat": "48.20133",
         "lon": "16.359383",
         "timestamp": ["1909-07-15"],
         "importance": "1"
      }
      }, 
    {
      "type": "Feature",
      "geometry": {
        "type": "Point",
        "coordinates": [15.81667, 47.66667]
      },
      "properties": {
         "id": "pmb91067",
         "title": "Kreuzberg [Breitenstein]",
         "lat": "47.66667",
         "lon": "15.81667",
         "timestamp": ["1909-08-10"],
         "importance": "1"
      }
      }, 
    {
      "type": "Feature",
      "geometry": {
        "type": "Point",
        "coordinates": [15.8075, 47.775833]
      },
      "properties": {
         "id": "pmb5836",
         "title": "Hochschneeberg",
         "lat": "47.775833",
         "lon": "15.8075",
         "timestamp": ["1909-08-12"],
         "importance": "1"
      }
      }, 
    {
      "type": "Feature",
      "geometry": {
        "type": "Point",
        "coordinates": [15.98785, 47.79747]
      },
      "properties": {
         "id": "pmb90785",
         "title": "Grünbach am Schneeberg",
         "lat": "47.79747",
         "lon": "15.98785",
         "timestamp": ["1909-08-12"],
         "importance": "1"
      }
      }, 
    {
      "type": "Feature",
      "geometry": {
        "type": "Point",
        "coordinates": [16.03276, 47.81564]
      },
      "properties": {
         "id": "pmb90897",
         "title": "Hohe Wand",
         "lat": "47.81564",
         "lon": "16.03276",
         "timestamp": ["1909-08-13"],
         "importance": "1"
      }
      }, 
    {
      "type": "Feature",
      "geometry": {
        "type": "Point",
        "coordinates": [11.581667, 48.138889]
      },
      "properties": {
         "id": "pmb485",
         "title": "Hotel Vier Jahreszeiten",
         "lat": "48.138889",
         "lon": "11.581667",
         "timestamp": ["1909-08-24", "1909-08-25", "1909-08-26", "1909-08-27", "1909-08-28", "1909-08-29", "1909-08-30", "1909-08-31", "1909-09-01"],
         "importance": "9"
      }
      }, 
    {
      "type": "Feature",
      "geometry": {
        "type": "Point",
        "coordinates": [11.54449, 48.13202]
      },
      "properties": {
         "id": "pmb185931",
         "title": "Münchener Künstler-Theater",
         "lat": "48.13202",
         "lon": "11.54449",
         "timestamp": ["1909-08-25", "1909-08-27", "1909-08-29"],
         "importance": "3"
      }
      }, 
    {
      "type": "Feature",
      "geometry": {
        "type": "Point",
        "coordinates": [10.74085, 47.55631]
      },
      "properties": {
         "id": "pmb90895",
         "title": "Hohenschwangau",
         "lat": "47.55631",
         "lon": "10.74085",
         "timestamp": ["1909-08-30"],
         "importance": "1"
      }
      }, 
    {
      "type": "Feature",
      "geometry": {
        "type": "Point",
        "coordinates": [10.74935, 47.55718]
      },
      "properties": {
         "id": "pmb91342",
         "title": "Schloss Neuschwanstein",
         "lat": "47.55718",
         "lon": "10.74935",
         "timestamp": ["1909-08-31"],
         "importance": "1"
      }
      }, 
    {
      "type": "Feature",
      "geometry": {
        "type": "Point",
        "coordinates": [16.319415, 48.264057]
      },
      "properties": {
         "id": "pmb200905",
         "title": "Meierei am Cobenzl",
         "lat": "48.264057",
         "lon": "16.319415",
         "timestamp": ["1909-09-26"],
         "importance": "1"
      }
      }, 
    {
      "type": "Feature",
      "geometry": {
        "type": "Point",
        "coordinates": [16.369675, 48.208985]
      },
      "properties": {
         "id": "pmb236244",
         "title": "Heinrich Grünbaum, Kleidermacher",
         "lat": "48.208985",
         "lon": "16.369675",
         "timestamp": ["1909-12-16"],
         "importance": "1"
      }
      }, 
    {
      "type": "Feature",
      "geometry": {
        "type": "Point",
        "coordinates": [16.369583, 48.208439]
      },
      "properties": {
         "id": "pmb236256",
         "title": "Albin Denk, Porzellan-, Glas- und Silberplatedwaren",
         "lat": "48.208439",
         "lon": "16.369583",
         "timestamp": ["1909-12-16"],
         "importance": "1"
      }
      }, 
    {
      "type": "Feature",
      "geometry": {
        "type": "Point",
        "coordinates": [16.370766, 48.208037]
      },
      "properties": {
         "id": "pmb236271",
         "title": "E. Braun & Co., Hof-Wäschelieferant",
         "lat": "48.208037",
         "lon": "16.370766",
         "timestamp": ["1909-12-16"],
         "importance": "1"
      }
      }, 
    {
      "type": "Feature",
      "geometry": {
        "type": "Point",
        "coordinates": [16.370702, 48.205032]
      },
      "properties": {
         "id": "pmb236283",
         "title": "Mühlhauser’s Josef Nachfolger, Hans Steinbacher & Gustav Resch, Gemischtwarenhandlung",
         "lat": "48.205032",
         "lon": "16.370702",
         "timestamp": ["1909-12-16"],
         "importance": "1"
      }
      }
  ]
}