{
  "type": "FeatureCollection",
  "features": [
    {
      "type": "Feature",
      "geometry": {
        "type": "Point",
        "coordinates": [16.373056, 48.208333]
      },
      "properties": {
         "id": "pmb50",
         "title": "Wien",
         "lat": "48.208333",
         "lon": "16.373056",
         "timestamp": ["1910-10-01", "1910-10-02", "1910-10-03", "1910-10-04", "1910-10-05", "1910-10-06", "1910-10-07", "1910-10-08", "1910-10-09", "1910-10-10", "1910-10-11", "1910-10-12", "1910-10-13", "1910-10-14", "1910-10-15", "1910-10-19", "1910-10-20", "1910-10-21", "1910-10-22", "1910-10-23", "1910-10-24", "1910-10-25", "1910-10-26", "1910-10-27", "1910-10-28", "1910-10-29", "1910-10-30", "1910-10-31"],
         "importance": "28"
      }
      }, 
    {
      "type": "Feature",
      "geometry": {
        "type": "Point",
        "coordinates": [16.361139, 48.210333]
      },
      "properties": {
         "id": "pmb14",
         "title": "Burgtheater",
         "lat": "48.210333",
         "lon": "16.361139",
         "timestamp": ["1910-10-22", "1910-10-23"],
         "importance": "2"
      }
      }, 
    {
      "type": "Feature",
      "geometry": {
        "type": "Point",
        "coordinates": [16.388608096065, 48.229100570727]
      },
      "properties": {
         "id": "pmb426",
         "title": "Nordbahnhof",
         "lat": "48.229100570727",
         "lon": "16.388608096065",
         "timestamp": ["1910-10-25"],
         "importance": "1"
      }
      }, 
    {
      "type": "Feature",
      "geometry": {
        "type": "Point",
        "coordinates": [16.371211, 48.206416]
      },
      "properties": {
         "id": "pmb96",
         "title": "Meissl & Schadn",
         "lat": "48.206416",
         "lon": "16.371211",
         "timestamp": ["1910-10-14", "1910-10-25"],
         "importance": "2"
      }
      }, 
    {
      "type": "Feature",
      "geometry": {
        "type": "Point",
        "coordinates": [16.333568462613, 48.235119783861]
      },
      "properties": {
         "id": "pmb113",
         "title": "Türkenschanzpark",
         "lat": "48.235119783861",
         "lon": "16.333568462613",
         "timestamp": ["1910-10-11", "1910-10-15", "1910-10-21"],
         "importance": "3"
      }
      }, 
    {
      "type": "Feature",
      "geometry": {
        "type": "Point",
        "coordinates": [16.276509500872, 48.241960480337]
      },
      "properties": {
         "id": "pmb176",
         "title": "Schwarzenbergpark",
         "lat": "48.241960480337",
         "lon": "16.276509500872",
         "timestamp": ["1910-10-09"],
         "importance": "1"
      }
      }, 
    {
      "type": "Feature",
      "geometry": {
        "type": "Point",
        "coordinates": [16.300034240016, 48.246838181084]
      },
      "properties": {
         "id": "pmb169",
         "title": "Pötzleinsdorf",
         "lat": "48.246838181084",
         "lon": "16.300034240016",
         "timestamp": ["1910-10-02"],
         "importance": "1"
      }
      }, 
    {
      "type": "Feature",
      "geometry": {
        "type": "Point",
        "coordinates": [15.8241, 47.64224]
      },
      "properties": {
         "id": "pmb189",
         "title": "Semmering",
         "lat": "47.64224",
         "lon": "15.8241",
         "timestamp": ["1910-10-16", "1910-10-17", "1910-10-18", "1910-10-19"],
         "importance": "4"
      }
      }, 
    {
      "type": "Feature",
      "geometry": {
        "type": "Point",
        "coordinates": [15.80388, 47.65736]
      },
      "properties": {
         "id": "pmb90192",
         "title": "Adlitzgraben",
         "lat": "47.65736",
         "lon": "15.80388",
         "timestamp": ["1910-10-18"],
         "importance": "1"
      }
      }, 
    {
      "type": "Feature",
      "geometry": {
        "type": "Point",
        "coordinates": [16.35736, 48.21533]
      },
      "properties": {
         "id": "pmb168934",
         "title": "Frankgasse 1",
         "lat": "48.21533",
         "lon": "16.35736",
         "timestamp": ["1910-10-22"],
         "importance": "1"
      }
      }, 
    {
      "type": "Feature",
      "geometry": {
        "type": "Point",
        "coordinates": [16.368738, 48.213038]
      },
      "properties": {
         "id": "pmb207296",
         "title": "Tiefer Graben 23",
         "lat": "48.213038",
         "lon": "16.368738",
         "timestamp": ["1910-10-05"],
         "importance": "1"
      }
      }, 
    {
      "type": "Feature",
      "geometry": {
        "type": "Point",
        "coordinates": [16.375811, 48.203191]
      },
      "properties": {
         "id": "pmb233517",
         "title": "Kaiserpanorama [Wien, Schubertring 4]",
         "lat": "48.203191",
         "lon": "16.375811",
         "timestamp": ["1910-10-29"],
         "importance": "1"
      }
      }, 
    {
      "type": "Feature",
      "geometry": {
        "type": "Point",
        "coordinates": [15.83, 47.647222]
      },
      "properties": {
         "id": "pmb413",
         "title": "Südbahnhotel [Semmering]",
         "lat": "47.647222",
         "lon": "15.83",
         "timestamp": ["1910-10-16", "1910-10-17", "1910-10-18", "1910-10-19"],
         "importance": "4"
      }
      }, 
    {
      "type": "Feature",
      "geometry": {
        "type": "Point",
        "coordinates": [16.33716, 48.23188]
      },
      "properties": {
         "id": "pmb168815",
         "title": "Sternwartestraße 71",
         "lat": "48.23188",
         "lon": "16.33716",
         "timestamp": ["1910-10-01", "1910-10-02", "1910-10-03", "1910-10-04", "1910-10-05", "1910-10-06", "1910-10-07", "1910-10-08", "1910-10-09", "1910-10-10", "1910-10-11", "1910-10-12", "1910-10-13", "1910-10-14", "1910-10-15", "1910-10-19", "1910-10-20", "1910-10-21", "1910-10-22", "1910-10-23", "1910-10-24", "1910-10-25", "1910-10-26", "1910-10-27", "1910-10-28", "1910-10-29", "1910-10-30", "1910-10-31"],
         "importance": "28"
      }
      }, 
    {
      "type": "Feature",
      "geometry": {
        "type": "Point",
        "coordinates": [15.77379, 47.65059]
      },
      "properties": {
         "id": "pmb186638",
         "title": "Talhofweg",
         "lat": "47.65059",
         "lon": "15.77379",
         "timestamp": ["1910-10-16", "1910-10-17", "1910-10-18", "1910-10-19"],
         "importance": "4"
      }
      }
  ]
}