{
  "type": "FeatureCollection",
  "features": [
    {
      "type": "Feature",
      "geometry": {
        "type": "Point",
        "coordinates": [16.373056, 48.208333]
      },
      "properties": {
         "id": "pmb50",
         "title": "Wien",
         "lat": "48.208333",
         "lon": "16.373056",
         "timestamp": ["1910-06-02", "1910-06-03", "1910-06-04", "1910-06-05", "1910-06-06", "1910-06-07", "1910-06-08", "1910-06-09", "1910-06-10", "1910-06-11", "1910-06-12", "1910-06-13", "1910-06-14", "1910-06-15", "1910-06-16", "1910-06-17", "1910-06-18", "1910-06-19", "1910-06-20", "1910-06-21", "1910-06-22", "1910-06-23", "1910-06-24", "1910-06-25", "1910-06-26", "1910-06-27", "1910-06-28", "1910-06-29", "1910-06-30"],
         "importance": "29"
      }
      }, 
    {
      "type": "Feature",
      "geometry": {
        "type": "Point",
        "coordinates": [16.361139, 48.210333]
      },
      "properties": {
         "id": "pmb14",
         "title": "Burgtheater",
         "lat": "48.210333",
         "lon": "16.361139",
         "timestamp": ["1910-06-07"],
         "importance": "1"
      }
      }, 
    {
      "type": "Feature",
      "geometry": {
        "type": "Point",
        "coordinates": [16.35978, 48.2109]
      },
      "properties": {
         "id": "pmb91568",
         "title": "Rathauspark",
         "lat": "48.2109",
         "lon": "16.35978",
         "timestamp": ["1910-06-27"],
         "importance": "1"
      }
      }, 
    {
      "type": "Feature",
      "geometry": {
        "type": "Point",
        "coordinates": [8.54226, 47.37174]
      },
      "properties": {
         "id": "pmb484",
         "title": "Zürich",
         "lat": "47.37174",
         "lon": "8.54226",
         "timestamp": ["1910-06-01"],
         "importance": "1"
      }
      }, 
    {
      "type": "Feature",
      "geometry": {
        "type": "Point",
        "coordinates": [16.333568462613, 48.235119783861]
      },
      "properties": {
         "id": "pmb113",
         "title": "Türkenschanzpark",
         "lat": "48.235119783861",
         "lon": "16.333568462613",
         "timestamp": ["1910-06-18"],
         "importance": "1"
      }
      }, 
    {
      "type": "Feature",
      "geometry": {
        "type": "Point",
        "coordinates": [16.276509500872, 48.241960480337]
      },
      "properties": {
         "id": "pmb176",
         "title": "Schwarzenbergpark",
         "lat": "48.241960480337",
         "lon": "16.276509500872",
         "timestamp": ["1910-06-12"],
         "importance": "1"
      }
      }, 
    {
      "type": "Feature",
      "geometry": {
        "type": "Point",
        "coordinates": [16.35736, 48.21533]
      },
      "properties": {
         "id": "pmb168934",
         "title": "Frankgasse 1",
         "lat": "48.21533",
         "lon": "16.35736",
         "timestamp": ["1910-06-07", "1910-06-21"],
         "importance": "2"
      }
      }, 
    {
      "type": "Feature",
      "geometry": {
        "type": "Point",
        "coordinates": [16.331527, 48.23428]
      },
      "properties": {
         "id": "pmb74",
         "title": "Restauration Türkenschanz-Park",
         "lat": "48.23428",
         "lon": "16.331527",
         "timestamp": ["1910-06-30"],
         "importance": "1"
      }
      }, 
    {
      "type": "Feature",
      "geometry": {
        "type": "Point",
        "coordinates": [16.368738, 48.213038]
      },
      "properties": {
         "id": "pmb207296",
         "title": "Tiefer Graben 23",
         "lat": "48.213038",
         "lon": "16.368738",
         "timestamp": ["1910-06-02"],
         "importance": "1"
      }
      }, 
    {
      "type": "Feature",
      "geometry": {
        "type": "Point",
        "coordinates": [16.33472, 48.2304]
      },
      "properties": {
         "id": "pmb168940",
         "title": "Edmund-Weiß-Gasse 7",
         "lat": "48.2304",
         "lon": "16.33472",
         "timestamp": ["1910-06-02", "1910-06-03", "1910-06-04", "1910-06-05", "1910-06-06", "1910-06-07", "1910-06-08", "1910-06-09", "1910-06-10", "1910-06-11", "1910-06-12", "1910-06-13", "1910-06-14", "1910-06-15", "1910-06-16", "1910-06-17", "1910-06-18", "1910-06-19", "1910-06-20", "1910-06-21", "1910-06-22", "1910-06-23", "1910-06-24", "1910-06-25", "1910-06-26", "1910-06-27", "1910-06-28", "1910-06-29", "1910-06-30"],
         "importance": "29"
      }
      }, 
    {
      "type": "Feature",
      "geometry": {
        "type": "Point",
        "coordinates": [16.380897, 48.208627]
      },
      "properties": {
         "id": "pmb235381",
         "title": "Biberstraße 8",
         "lat": "48.208627",
         "lon": "16.380897",
         "timestamp": ["1910-06-08"],
         "importance": "1"
      }
      }, 
    {
      "type": "Feature",
      "geometry": {
        "type": "Point",
        "coordinates": [16.33494, 48.23365]
      },
      "properties": {
         "id": "pmb235251",
         "title": "Hasenauerstraße 59",
         "lat": "48.23365",
         "lon": "16.33494",
         "timestamp": ["1910-06-11", "1910-06-18", "1910-06-20", "1910-06-24"],
         "importance": "4"
      }
      }, 
    {
      "type": "Feature",
      "geometry": {
        "type": "Point",
        "coordinates": [16.352693, 48.193456]
      },
      "properties": {
         "id": "pmb236295",
         "title": "Josef Berger, Kunst- und Antiquitätenhändler",
         "lat": "48.193456",
         "lon": "16.352693",
         "timestamp": ["1910-06-06", "1910-06-20"],
         "importance": "2"
      }
      }, 
    {
      "type": "Feature",
      "geometry": {
        "type": "Point",
        "coordinates": [16.358098, 48.212826]
      },
      "properties": {
         "id": "pmb238471",
         "title": "Pension Washington",
         "lat": "48.212826",
         "lon": "16.358098",
         "timestamp": ["1910-06-04"],
         "importance": "1"
      }
      }
  ]
}