{
  "type": "FeatureCollection",
  "features": [
    {
      "type": "Feature", 
      "geometry": {
        "type": "LineString", 
        "coordinates": [
            [16.258056, 48.201667], 
            [16.35689, 48.21787], 
            [16.33716, 48.23188], 
            [16.29273, 48.23975], 
            [16.28610371233, 48.233119188484]
          ]
      },
      "properties": {
        "name": "20. November 1910"
      }
    },
    {
      "type": "Feature",
      "geometry": {
        "type": "Point",
        "coordinates": [
          16.29273, 48.23975
        ]
      },
      "properties": {
        "title": "Schafberg [Wien|",
        "timestamp": ["1910-11-20"],
        "pmb": "https://pmb.acdh.oeaw.ac.at/entity//", 
        "wikipedia": "https://de.wikipedia.org/wiki/Schafberg_(Wien)"
      }
      },
    {
      "type": "Feature",
      "geometry": {
        "type": "Point",
        "coordinates": [
          16.28610371233, 48.233119188484
        ]
      },
      "properties": {
        "title": "Neuwaldegg",
        "timestamp": ["1910-11-20"],
        "pmb": "https://pmb.acdh.oeaw.ac.at/entity//"
      }
      },
    {
      "type": "Feature",
      "geometry": {
        "type": "Point",
        "coordinates": [
          16.258056, 48.201667
        ]
      },
      "properties": {
        "title": "Hütteldorf",
        "timestamp": ["1910-11-20"],
        "pmb": "https://pmb.acdh.oeaw.ac.at/entity//", 
        "wikipedia": "https://de.wikipedia.org/wiki/H%C3%BCtteldorf"
      }
      },
    {
      "type": "Feature",
      "geometry": {
        "type": "Point",
        "coordinates": [
          16.33716, 48.23188
        ]
      },
      "properties": {
        "title": "Sternwartestraße 71",
        "timestamp": ["1910-11-20"],
        "pmb": "https://pmb.acdh.oeaw.ac.at/entity//"
      }
      },
    {
      "type": "Feature",
      "geometry": {
        "type": "Point",
        "coordinates": [
          16.35689, 48.21787
        ]
      },
      "properties": {
        "title": "Beethovengasse 6",
        "timestamp": ["1910-11-20"],
        "pmb": "https://pmb.acdh.oeaw.ac.at/entity//"
      }
      }
  ]
}