{
  "type": "FeatureCollection",
  "features": [
    {
      "type": "Feature", 
      "geometry": {
        "type": "LineString", 
        "coordinates": [
            [15.8241, 47.64224], 
            [16.3709701, 48.2017407], 
            [16.373056, 48.208333], 
            [16.347492624475, 48.216264483348], 
            [16.33716, 48.23188]
          ]
      },
      "properties": {
        "name": "29. August 1911"
      }
    },
    {
      "type": "Feature",
      "geometry": {
        "type": "Point",
        "coordinates": [
          15.8241, 47.64224
        ]
      },
      "properties": {
        "title": "Semmering",
        "timestamp": ["1911-08-29"],
        "pmb": "https://pmb.acdh.oeaw.ac.at/entity//", 
        "wikipedia": "https://de.wikipedia.org/wiki/Semmering_(Nieder%C3%B6sterreich)"
      }
      },
    {
      "type": "Feature",
      "geometry": {
        "type": "Point",
        "coordinates": [
          16.373056, 48.208333
        ]
      },
      "properties": {
        "title": "Wien",
        "timestamp": ["1911-08-29"],
        "pmb": "https://pmb.acdh.oeaw.ac.at/entity//", 
        "wikipedia": "https://de.wikipedia.org/wiki/Wien"
      }
      },
    {
      "type": "Feature",
      "geometry": {
        "type": "Point",
        "coordinates": [
          16.3709701, 48.2017407
        ]
      },
      "properties": {
        "title": "Café Kremser",
        "timestamp": ["1911-08-29"],
        "pmb": "https://pmb.acdh.oeaw.ac.at/entity//"
      }
      },
    {
      "type": "Feature",
      "geometry": {
        "type": "Point",
        "coordinates": [
          16.347492624475, 48.216264483348
        ]
      },
      "properties": {
        "title": "Sanatorium Loew",
        "timestamp": ["1911-08-29"],
        "pmb": "https://pmb.acdh.oeaw.ac.at/entity//"
      }
      },
    {
      "type": "Feature",
      "geometry": {
        "type": "Point",
        "coordinates": [
          16.33716, 48.23188
        ]
      },
      "properties": {
        "title": "Sternwartestraße 71",
        "timestamp": ["1911-08-29"],
        "pmb": "https://pmb.acdh.oeaw.ac.at/entity//"
      }
      }
  ]
}