{
  "type": "FeatureCollection",
  "features": [
    {
      "type": "Feature",
      "geometry": {
        "type": "Point",
        "coordinates": [16.373056, 48.208333]
      },
      "properties": {
         "id": "pmb50",
         "title": "Wien",
         "lat": "48.208333",
         "lon": "16.373056",
         "timestamp": ["1911-10-10", "1911-10-11", "1911-10-12", "1911-10-13", "1911-10-14", "1911-10-15", "1911-10-16", "1911-10-17", "1911-10-18", "1911-10-19", "1911-10-20", "1911-10-21", "1911-10-22", "1911-10-23", "1911-10-24", "1911-10-25", "1911-10-26", "1911-10-27", "1911-10-28", "1911-10-29"],
         "importance": "20"
      }
      }, 
    {
      "type": "Feature",
      "geometry": {
        "type": "Point",
        "coordinates": [16.361139, 48.210333]
      },
      "properties": {
         "id": "pmb14",
         "title": "Burgtheater",
         "lat": "48.210333",
         "lon": "16.361139",
         "timestamp": ["1911-10-14"],
         "importance": "1"
      }
      }, 
    {
      "type": "Feature",
      "geometry": {
        "type": "Point",
        "coordinates": [16.333568462613, 48.235119783861]
      },
      "properties": {
         "id": "pmb113",
         "title": "Türkenschanzpark",
         "lat": "48.235119783861",
         "lon": "16.333568462613",
         "timestamp": ["1911-10-29"],
         "importance": "1"
      }
      }, 
    {
      "type": "Feature",
      "geometry": {
        "type": "Point",
        "coordinates": [16.276509500872, 48.241960480337]
      },
      "properties": {
         "id": "pmb176",
         "title": "Schwarzenbergpark",
         "lat": "48.241960480337",
         "lon": "16.276509500872",
         "timestamp": ["1911-10-22"],
         "importance": "1"
      }
      }, 
    {
      "type": "Feature",
      "geometry": {
        "type": "Point",
        "coordinates": [15.8241, 47.64224]
      },
      "properties": {
         "id": "pmb189",
         "title": "Semmering",
         "lat": "47.64224",
         "lon": "15.8241",
         "timestamp": ["1911-10-01", "1911-10-02", "1911-10-04", "1911-10-05", "1911-10-06", "1911-10-07", "1911-10-08", "1911-10-09"],
         "importance": "8"
      }
      }, 
    {
      "type": "Feature",
      "geometry": {
        "type": "Point",
        "coordinates": [14.42729, 50.08687]
      },
      "properties": {
         "id": "pmb118612",
         "title": "Deutsches Haus [Prag]",
         "lat": "50.08687",
         "lon": "14.42729",
         "timestamp": ["1911-10-31"],
         "importance": "1"
      }
      }, 
    {
      "type": "Feature",
      "geometry": {
        "type": "Point",
        "coordinates": [15.8121, 47.644]
      },
      "properties": {
         "id": "pmb200876",
         "title": "Meierei des Südbahnhotels",
         "lat": "47.644",
         "lon": "15.8121",
         "timestamp": ["1911-10-03"],
         "importance": "1"
      }
      }, 
    {
      "type": "Feature",
      "geometry": {
        "type": "Point",
        "coordinates": [14.423933, 50.086122]
      },
      "properties": {
         "id": "pmb27",
         "title": "Ständetheater",
         "lat": "50.086122",
         "lon": "14.423933",
         "timestamp": ["1911-10-30"],
         "importance": "1"
      }
      }, 
    {
      "type": "Feature",
      "geometry": {
        "type": "Point",
        "coordinates": [16.375833, 48.211111]
      },
      "properties": {
         "id": "pmb633",
         "title": "Kammerspiele Wien",
         "lat": "48.211111",
         "lon": "16.375833",
         "timestamp": ["1911-10-15"],
         "importance": "1"
      }
      }, 
    {
      "type": "Feature",
      "geometry": {
        "type": "Point",
        "coordinates": [14.42777, 50.0839]
      },
      "properties": {
         "id": "pmb90",
         "title": "Palasthotel Prag",
         "lat": "50.0839",
         "lon": "14.42777",
         "timestamp": ["1911-10-30", "1911-10-31"],
         "importance": "2"
      }
      }
  ]
}