{
  "type": "FeatureCollection",
  "features": [
    {
      "type": "Feature",
      "geometry": {
        "type": "Point",
        "coordinates": [16.373056, 48.208333]
      },
      "properties": {
         "id": "pmb50",
         "title": "Wien",
         "lat": "48.208333",
         "lon": "16.373056",
         "timestamp": ["1911-07-04", "1911-07-05", "1911-07-06", "1911-07-07", "1911-07-08", "1911-07-09", "1911-07-10", "1911-07-11", "1911-07-12", "1911-07-13", "1911-07-14", "1911-07-15", "1911-07-16", "1911-07-17", "1911-07-18", "1911-07-19", "1911-07-20", "1911-07-21", "1911-07-22", "1911-07-23"],
         "importance": "20"
      }
      }, 
    {
      "type": "Feature",
      "geometry": {
        "type": "Point",
        "coordinates": [11.37706, 47.28433]
      },
      "properties": {
         "id": "pmb867",
         "title": "Innsbruck",
         "lat": "47.28433",
         "lon": "11.37706",
         "timestamp": ["1911-07-30"],
         "importance": "1"
      }
      }, 
    {
      "type": "Feature",
      "geometry": {
        "type": "Point",
        "coordinates": [13.04532, 47.80067]
      },
      "properties": {
         "id": "pmb30",
         "title": "Salzburg",
         "lat": "47.80067",
         "lon": "13.04532",
         "timestamp": ["1911-07-24"],
         "importance": "1"
      }
      }, 
    {
      "type": "Feature",
      "geometry": {
        "type": "Point",
        "coordinates": [13.111944, 47.805528]
      },
      "properties": {
         "id": "pmb45105",
         "title": "Gaisberg",
         "lat": "47.805528",
         "lon": "13.111944",
         "timestamp": ["1911-07-29"],
         "importance": "1"
      }
      }, 
    {
      "type": "Feature",
      "geometry": {
        "type": "Point",
        "coordinates": [16.333568462613, 48.235119783861]
      },
      "properties": {
         "id": "pmb113",
         "title": "Türkenschanzpark",
         "lat": "48.235119783861",
         "lon": "16.333568462613",
         "timestamp": ["1911-07-06"],
         "importance": "1"
      }
      }, 
    {
      "type": "Feature",
      "geometry": {
        "type": "Point",
        "coordinates": [13.36667, 47.76667]
      },
      "properties": {
         "id": "pmb33",
         "title": "St. Gilgen",
         "lat": "47.76667",
         "lon": "13.36667",
         "timestamp": ["1911-07-24", "1911-07-25", "1911-07-26", "1911-07-27", "1911-07-28", "1911-07-29"],
         "importance": "6"
      }
      }, 
    {
      "type": "Feature",
      "geometry": {
        "type": "Point",
        "coordinates": [16.35736, 48.21533]
      },
      "properties": {
         "id": "pmb168934",
         "title": "Frankgasse 1",
         "lat": "48.21533",
         "lon": "16.35736",
         "timestamp": ["1911-07-04"],
         "importance": "1"
      }
      }, 
    {
      "type": "Feature",
      "geometry": {
        "type": "Point",
        "coordinates": [16.331527, 48.23428]
      },
      "properties": {
         "id": "pmb74",
         "title": "Restauration Türkenschanz-Park",
         "lat": "48.23428",
         "lon": "16.331527",
         "timestamp": ["1911-07-12"],
         "importance": "1"
      }
      }, 
    {
      "type": "Feature",
      "geometry": {
        "type": "Point",
        "coordinates": [16.33787, 48.19653]
      },
      "properties": {
         "id": "pmb438",
         "title": "Westbahnhof-Restaurant",
         "lat": "48.19653",
         "lon": "16.33787",
         "timestamp": ["1911-07-23"],
         "importance": "1"
      }
      }, 
    {
      "type": "Feature",
      "geometry": {
        "type": "Point",
        "coordinates": [11.39525, 47.26839]
      },
      "properties": {
         "id": "pmb41093",
         "title": "Hofkirche",
         "lat": "47.26839",
         "lon": "11.39525",
         "timestamp": ["1911-07-31"],
         "importance": "1"
      }
      }, 
    {
      "type": "Feature",
      "geometry": {
        "type": "Point",
        "coordinates": [15.83, 47.647222]
      },
      "properties": {
         "id": "pmb413",
         "title": "Südbahnhotel [Semmering]",
         "lat": "47.647222",
         "lon": "15.83",
         "timestamp": ["1911-07-01", "1911-07-02", "1911-07-03"],
         "importance": "3"
      }
      }, 
    {
      "type": "Feature",
      "geometry": {
        "type": "Point",
        "coordinates": [13.043176, 47.81233]
      },
      "properties": {
         "id": "pmb152",
         "title": "Grand Hotel de L’Europe, G. Jung",
         "lat": "47.81233",
         "lon": "13.043176",
         "timestamp": ["1911-07-29", "1911-07-30"],
         "importance": "2"
      }
      }, 
    {
      "type": "Feature",
      "geometry": {
        "type": "Point",
        "coordinates": [16.320696, 48.263217]
      },
      "properties": {
         "id": "pmb194907",
         "title": "Schlosshotel Cobenzl",
         "lat": "48.263217",
         "lon": "16.320696",
         "timestamp": ["1911-07-13"],
         "importance": "1"
      }
      }
  ]
}