{
  "type": "FeatureCollection",
  "features": [
    {
      "type": "Feature",
      "geometry": {
        "type": "Point",
        "coordinates": [16.373056, 48.208333]
      },
      "properties": {
         "id": "pmb50",
         "title": "Wien",
         "lat": "48.208333",
         "lon": "16.373056",
         "timestamp": ["1912-10-01", "1912-10-02", "1912-10-03", "1912-10-04", "1912-10-05", "1912-10-06", "1912-10-07", "1912-10-08", "1912-10-09", "1912-10-10", "1912-10-11", "1912-10-12", "1912-10-13", "1912-10-14", "1912-10-15", "1912-10-16", "1912-10-17", "1912-10-18", "1912-10-19", "1912-10-20", "1912-10-21", "1912-10-22", "1912-10-23", "1912-10-24", "1912-10-25", "1912-10-26", "1912-10-27", "1912-10-28", "1912-10-29", "1912-10-30", "1912-10-31"],
         "importance": "31"
      }
      }, 
    {
      "type": "Feature",
      "geometry": {
        "type": "Point",
        "coordinates": [16.384444, 48.215]
      },
      "properties": {
         "id": "pmb118",
         "title": "Carl-Theater",
         "lat": "48.215",
         "lon": "16.384444",
         "timestamp": ["1912-10-31"],
         "importance": "1"
      }
      }, 
    {
      "type": "Feature",
      "geometry": {
        "type": "Point",
        "coordinates": [16.3642, 48.19941]
      },
      "properties": {
         "id": "pmb37",
         "title": "Theater an der Wien",
         "lat": "48.19941",
         "lon": "16.3642",
         "timestamp": ["1912-10-08"],
         "importance": "1"
      }
      }, 
    {
      "type": "Feature",
      "geometry": {
        "type": "Point",
        "coordinates": [16.361139, 48.210333]
      },
      "properties": {
         "id": "pmb14",
         "title": "Burgtheater",
         "lat": "48.210333",
         "lon": "16.361139",
         "timestamp": ["1912-10-09", "1912-10-25"],
         "importance": "2"
      }
      }, 
    {
      "type": "Feature",
      "geometry": {
        "type": "Point",
        "coordinates": [16.4094, 48.2122]
      },
      "properties": {
         "id": "pmb148394",
         "title": "Rotunde",
         "lat": "48.2122",
         "lon": "16.4094",
         "timestamp": ["1912-10-05"],
         "importance": "1"
      }
      }, 
    {
      "type": "Feature",
      "geometry": {
        "type": "Point",
        "coordinates": [16.3566, 48.205142]
      },
      "properties": {
         "id": "pmb20",
         "title": "Volkstheater",
         "lat": "48.205142",
         "lon": "16.3566",
         "timestamp": ["1912-10-17", "1912-10-18", "1912-10-25"],
         "importance": "3"
      }
      }, 
    {
      "type": "Feature",
      "geometry": {
        "type": "Point",
        "coordinates": [16.371211, 48.206416]
      },
      "properties": {
         "id": "pmb96",
         "title": "Meissl & Schadn",
         "lat": "48.206416",
         "lon": "16.371211",
         "timestamp": ["1912-10-08", "1912-10-31"],
         "importance": "2"
      }
      }, 
    {
      "type": "Feature",
      "geometry": {
        "type": "Point",
        "coordinates": [16.300034240016, 48.246838181084]
      },
      "properties": {
         "id": "pmb169",
         "title": "Pötzleinsdorf",
         "lat": "48.246838181084",
         "lon": "16.300034240016",
         "timestamp": ["1912-10-06", "1912-10-27"],
         "importance": "2"
      }
      }, 
    {
      "type": "Feature",
      "geometry": {
        "type": "Point",
        "coordinates": [16.347492624475, 48.216264483348]
      },
      "properties": {
         "id": "pmb89",
         "title": "Sanatorium Loew",
         "lat": "48.216264483348",
         "lon": "16.347492624475",
         "timestamp": ["1912-10-22"],
         "importance": "1"
      }
      }, 
    {
      "type": "Feature",
      "geometry": {
        "type": "Point",
        "coordinates": [16.368738, 48.213038]
      },
      "properties": {
         "id": "pmb207296",
         "title": "Tiefer Graben 23",
         "lat": "48.213038",
         "lon": "16.368738",
         "timestamp": ["1912-10-17"],
         "importance": "1"
      }
      }, 
    {
      "type": "Feature",
      "geometry": {
        "type": "Point",
        "coordinates": [16.322222222222, 48.263611111111]
      },
      "properties": {
         "id": "pmb194903",
         "title": "Am Kobenzl",
         "lat": "48.263611111111",
         "lon": "16.322222222222",
         "timestamp": ["1912-10-13"],
         "importance": "1"
      }
      }, 
    {
      "type": "Feature",
      "geometry": {
        "type": "Point",
        "coordinates": [16.28606, 48.25849]
      },
      "properties": {
         "id": "pmb537",
         "title": "Dreimarkstein [Wien]",
         "lat": "48.25849",
         "lon": "16.28606",
         "timestamp": ["1912-10-27"],
         "importance": "1"
      }
      }, 
    {
      "type": "Feature",
      "geometry": {
        "type": "Point",
        "coordinates": [16.374629, 48.196855]
      },
      "properties": {
         "id": "pmb234683",
         "title": "Wohllebengasse 6",
         "lat": "48.196855",
         "lon": "16.374629",
         "timestamp": ["1912-10-27"],
         "importance": "1"
      }
      }, 
    {
      "type": "Feature",
      "geometry": {
        "type": "Point",
        "coordinates": [16.33641, 48.23362]
      },
      "properties": {
         "id": "pmb235132",
         "title": "Türkenschanzstraße 48",
         "lat": "48.23362",
         "lon": "16.33641",
         "timestamp": ["1912-10-02"],
         "importance": "1"
      }
      }, 
    {
      "type": "Feature",
      "geometry": {
        "type": "Point",
        "coordinates": [16.338443, 48.234039]
      },
      "properties": {
         "id": "pmb237633",
         "title": "Hasenauerstraße 46",
         "lat": "48.234039",
         "lon": "16.338443",
         "timestamp": ["1912-10-01"],
         "importance": "1"
      }
      }, 
    {
      "type": "Feature",
      "geometry": {
        "type": "Point",
        "coordinates": [16.355129559722, 48.259006950633]
      },
      "properties": {
         "id": "pmb158",
         "title": "Beethovengang",
         "lat": "48.259006950633",
         "lon": "16.355129559722",
         "timestamp": ["1912-10-20"],
         "importance": "1"
      }
      }, 
    {
      "type": "Feature",
      "geometry": {
        "type": "Point",
        "coordinates": [16.35184, 48.258927]
      },
      "properties": {
         "id": "pmb238340",
         "title": "Beethovendenkmal",
         "lat": "48.258927",
         "lon": "16.35184",
         "timestamp": ["1912-10-20"],
         "importance": "1"
      }
      }, 
    {
      "type": "Feature",
      "geometry": {
        "type": "Point",
        "coordinates": [16.35689, 48.21787]
      },
      "properties": {
         "id": "pmb232768",
         "title": "Beethovengasse 6",
         "lat": "48.21787",
         "lon": "16.35689",
         "timestamp": ["1912-10-16"],
         "importance": "1"
      }
      }, 
    {
      "type": "Feature",
      "geometry": {
        "type": "Point",
        "coordinates": [16.352693, 48.193456]
      },
      "properties": {
         "id": "pmb236295",
         "title": "Josef Berger, Kunst- und Antiquitätenhändler",
         "lat": "48.193456",
         "lon": "16.352693",
         "timestamp": ["1912-10-07"],
         "importance": "1"
      }
      }, 
    {
      "type": "Feature",
      "geometry": {
        "type": "Point",
        "coordinates": [16.36853, 48.20971]
      },
      "properties": {
         "id": "pmb41778",
         "title": "Restauration Kühfuss, Inh. Eduard Perschill",
         "lat": "48.20971",
         "lon": "16.36853",
         "timestamp": ["1912-10-17"],
         "importance": "1"
      }
      }, 
    {
      "type": "Feature",
      "geometry": {
        "type": "Point",
        "coordinates": [16.33716, 48.23188]
      },
      "properties": {
         "id": "pmb168815",
         "title": "Sternwartestraße 71",
         "lat": "48.23188",
         "lon": "16.33716",
         "timestamp": ["1912-10-01", "1912-10-02", "1912-10-03", "1912-10-04", "1912-10-05", "1912-10-06", "1912-10-07", "1912-10-08", "1912-10-09", "1912-10-10", "1912-10-11", "1912-10-12", "1912-10-13", "1912-10-14", "1912-10-15", "1912-10-16", "1912-10-17", "1912-10-18", "1912-10-19", "1912-10-20", "1912-10-21", "1912-10-22", "1912-10-23", "1912-10-24", "1912-10-25", "1912-10-26", "1912-10-27", "1912-10-28", "1912-10-29", "1912-10-30", "1912-10-31"],
         "importance": "31"
      }
      }
  ]
}