{
  "type": "FeatureCollection",
  "features": [
    {
      "type": "Feature",
      "geometry": {
        "type": "Point",
        "coordinates": [16.373056, 48.208333]
      },
      "properties": {
         "id": "pmb50",
         "title": "Wien",
         "lat": "48.208333",
         "lon": "16.373056",
         "timestamp": ["1912-09-08", "1912-09-09", "1912-09-10", "1912-09-11", "1912-09-12", "1912-09-13", "1912-09-14", "1912-09-15", "1912-09-16", "1912-09-17", "1912-09-18", "1912-09-19", "1912-09-20", "1912-09-21", "1912-09-22", "1912-09-23", "1912-09-24", "1912-09-25", "1912-09-26", "1912-09-27", "1912-09-28", "1912-09-29", "1912-09-30"],
         "importance": "23"
      }
      }, 
    {
      "type": "Feature",
      "geometry": {
        "type": "Point",
        "coordinates": [11.57549, 48.13743]
      },
      "properties": {
         "id": "pmb38129",
         "title": "München",
         "lat": "48.13743",
         "lon": "11.57549",
         "timestamp": ["1912-09-07"],
         "importance": "1"
      }
      }, 
    {
      "type": "Feature",
      "geometry": {
        "type": "Point",
        "coordinates": [16.361139, 48.210333]
      },
      "properties": {
         "id": "pmb14",
         "title": "Burgtheater",
         "lat": "48.210333",
         "lon": "16.361139",
         "timestamp": ["1912-09-25"],
         "importance": "1"
      }
      }, 
    {
      "type": "Feature",
      "geometry": {
        "type": "Point",
        "coordinates": [16.3566, 48.205142]
      },
      "properties": {
         "id": "pmb20",
         "title": "Volkstheater",
         "lat": "48.205142",
         "lon": "16.3566",
         "timestamp": ["1912-09-12"],
         "importance": "1"
      }
      }, 
    {
      "type": "Feature",
      "geometry": {
        "type": "Point",
        "coordinates": [16.371211, 48.206416]
      },
      "properties": {
         "id": "pmb96",
         "title": "Meissl & Schadn",
         "lat": "48.206416",
         "lon": "16.371211",
         "timestamp": ["1912-09-16", "1912-09-18", "1912-09-20", "1912-09-25"],
         "importance": "4"
      }
      }, 
    {
      "type": "Feature",
      "geometry": {
        "type": "Point",
        "coordinates": [16.26269, 48.24616]
      },
      "properties": {
         "id": "pmb456",
         "title": "Rohrerhütte",
         "lat": "48.24616",
         "lon": "16.26269",
         "timestamp": ["1912-09-29"],
         "importance": "1"
      }
      }, 
    {
      "type": "Feature",
      "geometry": {
        "type": "Point",
        "coordinates": [16.300034240016, 48.246838181084]
      },
      "properties": {
         "id": "pmb169",
         "title": "Pötzleinsdorf",
         "lat": "48.246838181084",
         "lon": "16.300034240016",
         "timestamp": ["1912-09-22"],
         "importance": "1"
      }
      }, 
    {
      "type": "Feature",
      "geometry": {
        "type": "Point",
        "coordinates": [11.2803, 47.90938]
      },
      "properties": {
         "id": "pmb5275",
         "title": "Tutzing",
         "lat": "47.90938",
         "lon": "11.2803",
         "timestamp": ["1912-09-01", "1912-09-02", "1912-09-03", "1912-09-04", "1912-09-05", "1912-09-06", "1912-09-06", "1912-09-07"],
         "importance": "8"
      }
      }, 
    {
      "type": "Feature",
      "geometry": {
        "type": "Point",
        "coordinates": [16.375811, 48.203191]
      },
      "properties": {
         "id": "pmb233517",
         "title": "Kaiserpanorama [Wien, Schubertring 4]",
         "lat": "48.203191",
         "lon": "16.375811",
         "timestamp": ["1912-09-30"],
         "importance": "1"
      }
      }, 
    {
      "type": "Feature",
      "geometry": {
        "type": "Point",
        "coordinates": [16.353889, 48.1975]
      },
      "properties": {
         "id": "pmb52023",
         "title": "Apollo-Theater [Wien]",
         "lat": "48.1975",
         "lon": "16.353889",
         "timestamp": ["1912-09-10"],
         "importance": "1"
      }
      }, 
    {
      "type": "Feature",
      "geometry": {
        "type": "Point",
        "coordinates": [16.33494, 48.23365]
      },
      "properties": {
         "id": "pmb235251",
         "title": "Hasenauerstraße 59",
         "lat": "48.23365",
         "lon": "16.33494",
         "timestamp": ["1912-09-22"],
         "importance": "1"
      }
      }, 
    {
      "type": "Feature",
      "geometry": {
        "type": "Point",
        "coordinates": [16.3589845, 48.2195962]
      },
      "properties": {
         "id": "pmb34399",
         "title": "Neue Wiener Bühne",
         "lat": "48.2195962",
         "lon": "16.3589845",
         "timestamp": ["1912-09-28"],
         "importance": "1"
      }
      }, 
    {
      "type": "Feature",
      "geometry": {
        "type": "Point",
        "coordinates": [16.3685, 48.1954]
      },
      "properties": {
         "id": "pmb185928",
         "title": "Johann-Strauß-Theater",
         "lat": "48.1954",
         "lon": "16.3685",
         "timestamp": ["1912-09-18", "1912-09-25"],
         "importance": "2"
      }
      }, 
    {
      "type": "Feature",
      "geometry": {
        "type": "Point",
        "coordinates": [16.33716, 48.23188]
      },
      "properties": {
         "id": "pmb168815",
         "title": "Sternwartestraße 71",
         "lat": "48.23188",
         "lon": "16.33716",
         "timestamp": ["1912-09-08", "1912-09-09", "1912-09-10", "1912-09-11", "1912-09-12", "1912-09-13", "1912-09-14", "1912-09-15", "1912-09-16", "1912-09-17", "1912-09-18", "1912-09-19", "1912-09-20", "1912-09-21", "1912-09-22", "1912-09-23", "1912-09-24", "1912-09-25", "1912-09-26", "1912-09-27", "1912-09-28", "1912-09-29", "1912-09-30"],
         "importance": "23"
      }
      }, 
    {
      "type": "Feature",
      "geometry": {
        "type": "Point",
        "coordinates": [11.27453, 47.90798]
      },
      "properties": {
         "id": "pmb51937",
         "title": "Hotel Simson",
         "lat": "47.90798",
         "lon": "11.27453",
         "timestamp": ["1912-09-01", "1912-09-02", "1912-09-03", "1912-09-04", "1912-09-05", "1912-09-06", "1912-09-07"],
         "importance": "7"
      }
      }, 
    {
      "type": "Feature",
      "geometry": {
        "type": "Point",
        "coordinates": [16.35137, 48.21346]
      },
      "properties": {
         "id": "pmb232800",
         "title": "Laudongasse 12",
         "lat": "48.21346",
         "lon": "16.35137",
         "timestamp": ["1912-09-09", "1912-09-19", "1912-09-21"],
         "importance": "3"
      }
      }
  ]
}