{
  "type": "FeatureCollection",
  "features": [
    {
      "type": "Feature",
      "geometry": {
        "type": "Point",
        "coordinates": [16.373056, 48.208333]
      },
      "properties": {
         "id": "pmb50",
         "title": "Wien",
         "lat": "48.208333",
         "lon": "16.373056",
         "timestamp": ["1912-06-01", "1912-06-02", "1912-06-03", "1912-06-04", "1912-06-05", "1912-06-06", "1912-06-07", "1912-06-08", "1912-06-09", "1912-06-10", "1912-06-11", "1912-06-12", "1912-06-13", "1912-06-15", "1912-06-16", "1912-06-17", "1912-06-18", "1912-06-19", "1912-06-20", "1912-06-21", "1912-06-22", "1912-06-23", "1912-06-24", "1912-06-25", "1912-06-26", "1912-06-27", "1912-06-28", "1912-06-29", "1912-06-30"],
         "importance": "29"
      }
      }, 
    {
      "type": "Feature",
      "geometry": {
        "type": "Point",
        "coordinates": [16.3691, 48.203]
      },
      "properties": {
         "id": "pmb15",
         "title": "Oper",
         "lat": "48.203",
         "lon": "16.3691",
         "timestamp": ["1912-06-22"],
         "importance": "1"
      }
      }, 
    {
      "type": "Feature",
      "geometry": {
        "type": "Point",
        "coordinates": [16.361139, 48.210333]
      },
      "properties": {
         "id": "pmb14",
         "title": "Burgtheater",
         "lat": "48.210333",
         "lon": "16.361139",
         "timestamp": ["1912-06-04", "1912-06-19"],
         "importance": "2"
      }
      }, 
    {
      "type": "Feature",
      "geometry": {
        "type": "Point",
        "coordinates": [16.4496, 48.1864]
      },
      "properties": {
         "id": "pmb186493",
         "title": "Galopprennbahn Freudenau",
         "lat": "48.1864",
         "lon": "16.4496",
         "timestamp": ["1912-06-09"],
         "importance": "1"
      }
      }, 
    {
      "type": "Feature",
      "geometry": {
        "type": "Point",
        "coordinates": [16.371211, 48.206416]
      },
      "properties": {
         "id": "pmb96",
         "title": "Meissl & Schadn",
         "lat": "48.206416",
         "lon": "16.371211",
         "timestamp": ["1912-06-22"],
         "importance": "1"
      }
      }, 
    {
      "type": "Feature",
      "geometry": {
        "type": "Point",
        "coordinates": [16.300034240016, 48.246838181084]
      },
      "properties": {
         "id": "pmb169",
         "title": "Pötzleinsdorf",
         "lat": "48.246838181084",
         "lon": "16.300034240016",
         "timestamp": ["1912-06-06", "1912-06-12", "1912-06-16", "1912-06-30"],
         "importance": "4"
      }
      }, 
    {
      "type": "Feature",
      "geometry": {
        "type": "Point",
        "coordinates": [14.46667, 50.08333]
      },
      "properties": {
         "id": "pmb652",
         "title": "Prag",
         "lat": "50.08333",
         "lon": "14.46667",
         "timestamp": ["1912-06-14", "1912-06-15"],
         "importance": "2"
      }
      }, 
    {
      "type": "Feature",
      "geometry": {
        "type": "Point",
        "coordinates": [14.432778, 50.080556]
      },
      "properties": {
         "id": "pmb91",
         "title": "Neues Deutsches Theater",
         "lat": "50.080556",
         "lon": "14.432778",
         "timestamp": ["1912-06-14"],
         "importance": "1"
      }
      }, 
    {
      "type": "Feature",
      "geometry": {
        "type": "Point",
        "coordinates": [16.41575606941028, 48.20508551408161]
      },
      "properties": {
         "id": "pmb53159",
         "title": "Hauptallee",
         "lat": "48.20508551408161",
         "lon": "16.41575606941028",
         "timestamp": ["1912-06-09"],
         "importance": "1"
      }
      }, 
    {
      "type": "Feature",
      "geometry": {
        "type": "Point",
        "coordinates": [16.2911, 48.2553]
      },
      "properties": {
         "id": "pmb242",
         "title": "Salmannsdorf",
         "lat": "48.2553",
         "lon": "16.2911",
         "timestamp": ["1912-06-30"],
         "importance": "1"
      }
      }, 
    {
      "type": "Feature",
      "geometry": {
        "type": "Point",
        "coordinates": [16.255556, 48.133611]
      },
      "properties": {
         "id": "pmb40297",
         "title": "Hofmannsthal-Schlössl",
         "lat": "48.133611",
         "lon": "16.255556",
         "timestamp": ["1912-06-20"],
         "importance": "1"
      }
      }, 
    {
      "type": "Feature",
      "geometry": {
        "type": "Point",
        "coordinates": [16.33641, 48.23362]
      },
      "properties": {
         "id": "pmb235132",
         "title": "Türkenschanzstraße 48",
         "lat": "48.23362",
         "lon": "16.33641",
         "timestamp": ["1912-06-17"],
         "importance": "1"
      }
      }, 
    {
      "type": "Feature",
      "geometry": {
        "type": "Point",
        "coordinates": [16.33494, 48.23365]
      },
      "properties": {
         "id": "pmb235251",
         "title": "Hasenauerstraße 59",
         "lat": "48.23365",
         "lon": "16.33494",
         "timestamp": ["1912-06-04", "1912-06-16"],
         "importance": "2"
      }
      }, 
    {
      "type": "Feature",
      "geometry": {
        "type": "Point",
        "coordinates": [16.352693, 48.193456]
      },
      "properties": {
         "id": "pmb236295",
         "title": "Josef Berger, Kunst- und Antiquitätenhändler",
         "lat": "48.193456",
         "lon": "16.352693",
         "timestamp": ["1912-06-20"],
         "importance": "1"
      }
      }, 
    {
      "type": "Feature",
      "geometry": {
        "type": "Point",
        "coordinates": [16.33716, 48.23188]
      },
      "properties": {
         "id": "pmb168815",
         "title": "Sternwartestraße 71",
         "lat": "48.23188",
         "lon": "16.33716",
         "timestamp": ["1912-06-01", "1912-06-02", "1912-06-03", "1912-06-04", "1912-06-05", "1912-06-06", "1912-06-07", "1912-06-08", "1912-06-09", "1912-06-10", "1912-06-11", "1912-06-12", "1912-06-13", "1912-06-15", "1912-06-16", "1912-06-17", "1912-06-18", "1912-06-19", "1912-06-20", "1912-06-21", "1912-06-22", "1912-06-23", "1912-06-24", "1912-06-25", "1912-06-26", "1912-06-27", "1912-06-28", "1912-06-29", "1912-06-30"],
         "importance": "29"
      }
      }, 
    {
      "type": "Feature",
      "geometry": {
        "type": "Point",
        "coordinates": [14.42777, 50.0839]
      },
      "properties": {
         "id": "pmb90",
         "title": "Palasthotel Prag",
         "lat": "50.0839",
         "lon": "14.42777",
         "timestamp": ["1912-06-14", "1912-06-15"],
         "importance": "2"
      }
      }
  ]
}