{
  "type": "FeatureCollection",
  "features": [
    {
      "type": "Feature",
      "geometry": {
        "type": "Point",
        "coordinates": [16.373056, 48.208333]
      },
      "properties": {
         "id": "pmb50",
         "title": "Wien",
         "lat": "48.208333",
         "lon": "16.373056",
         "timestamp": ["1913-04-01", "1913-04-02", "1913-04-03", "1913-04-04", "1913-04-05", "1913-04-06", "1913-04-07", "1913-04-08", "1913-04-09", "1913-04-10", "1913-04-11", "1913-04-12", "1913-04-13", "1913-04-14", "1913-04-15", "1913-04-18", "1913-04-19", "1913-04-20", "1913-04-21", "1913-04-24", "1913-04-25", "1913-04-29", "1913-04-30"],
         "importance": "23"
      }
      }, 
    {
      "type": "Feature",
      "geometry": {
        "type": "Point",
        "coordinates": [16.361139, 48.210333]
      },
      "properties": {
         "id": "pmb14",
         "title": "Burgtheater",
         "lat": "48.210333",
         "lon": "16.361139",
         "timestamp": ["1913-04-09"],
         "importance": "1"
      }
      }, 
    {
      "type": "Feature",
      "geometry": {
        "type": "Point",
        "coordinates": [19.04045, 47.49835]
      },
      "properties": {
         "id": "pmb9867",
         "title": "Budapest",
         "lat": "47.49835",
         "lon": "19.04045",
         "timestamp": ["1913-04-16", "1913-04-17"],
         "importance": "2"
      }
      }, 
    {
      "type": "Feature",
      "geometry": {
        "type": "Point",
        "coordinates": [16.37312, 48.20122]
      },
      "properties": {
         "id": "pmb43",
         "title": "Café Imperial",
         "lat": "48.20122",
         "lon": "16.37312",
         "timestamp": ["1913-04-03", "1913-04-30"],
         "importance": "2"
      }
      }, 
    {
      "type": "Feature",
      "geometry": {
        "type": "Point",
        "coordinates": [16.371211, 48.206416]
      },
      "properties": {
         "id": "pmb96",
         "title": "Meissl & Schadn",
         "lat": "48.206416",
         "lon": "16.371211",
         "timestamp": ["1913-04-19"],
         "importance": "1"
      }
      }, 
    {
      "type": "Feature",
      "geometry": {
        "type": "Point",
        "coordinates": [16.04588, 47.99521]
      },
      "properties": {
         "id": "pmb34343",
         "title": "Neuhaus",
         "lat": "47.99521",
         "lon": "16.04588",
         "timestamp": ["1913-04-22", "1913-04-23"],
         "importance": "2"
      }
      }, 
    {
      "type": "Feature",
      "geometry": {
        "type": "Point",
        "coordinates": [16.23376, 48.00909]
      },
      "properties": {
         "id": "pmb53850",
         "title": "Grüner Baum",
         "lat": "48.00909",
         "lon": "16.23376",
         "timestamp": ["1913-04-26", "1913-04-27", "1913-04-28"],
         "importance": "3"
      }
      }, 
    {
      "type": "Feature",
      "geometry": {
        "type": "Point",
        "coordinates": [16.337917, 48.228096]
      },
      "properties": {
         "id": "pmb40694",
         "title": "Gentzgasse",
         "lat": "48.228096",
         "lon": "16.337917",
         "timestamp": ["1913-04-25"],
         "importance": "1"
      }
      }, 
    {
      "type": "Feature",
      "geometry": {
        "type": "Point",
        "coordinates": [15.81667, 47.71667]
      },
      "properties": {
         "id": "pmb90901",
         "title": "Höllental",
         "lat": "47.71667",
         "lon": "15.81667",
         "timestamp": ["1913-04-27"],
         "importance": "1"
      }
      }, 
    {
      "type": "Feature",
      "geometry": {
        "type": "Point",
        "coordinates": [16.23114, 48.012864]
      },
      "properties": {
         "id": "pmb92195",
         "title": "Kurpark",
         "lat": "48.012864",
         "lon": "16.23114",
         "timestamp": ["1913-04-23", "1913-04-27"],
         "importance": "2"
      }
      }, 
    {
      "type": "Feature",
      "geometry": {
        "type": "Point",
        "coordinates": [16.33494, 48.23365]
      },
      "properties": {
         "id": "pmb235251",
         "title": "Hasenauerstraße 59",
         "lat": "48.23365",
         "lon": "16.33494",
         "timestamp": ["1913-04-13", "1913-04-24"],
         "importance": "2"
      }
      }, 
    {
      "type": "Feature",
      "geometry": {
        "type": "Point",
        "coordinates": [16.338443, 48.234039]
      },
      "properties": {
         "id": "pmb237633",
         "title": "Hasenauerstraße 46",
         "lat": "48.234039",
         "lon": "16.338443",
         "timestamp": ["1913-04-18"],
         "importance": "1"
      }
      }, 
    {
      "type": "Feature",
      "geometry": {
        "type": "Point",
        "coordinates": [16.367413, 48.208484]
      },
      "properties": {
         "id": "pmb236233",
         "title": "Rozet & Fischmeister, Hofjuwelenhandlung",
         "lat": "48.208484",
         "lon": "16.367413",
         "timestamp": ["1913-04-15"],
         "importance": "1"
      }
      }, 
    {
      "type": "Feature",
      "geometry": {
        "type": "Point",
        "coordinates": [16.35689, 48.21787]
      },
      "properties": {
         "id": "pmb232768",
         "title": "Beethovengasse 6",
         "lat": "48.21787",
         "lon": "16.35689",
         "timestamp": ["1913-04-02", "1913-04-21"],
         "importance": "2"
      }
      }, 
    {
      "type": "Feature",
      "geometry": {
        "type": "Point",
        "coordinates": [16.352693, 48.193456]
      },
      "properties": {
         "id": "pmb236295",
         "title": "Josef Berger, Kunst- und Antiquitätenhändler",
         "lat": "48.193456",
         "lon": "16.352693",
         "timestamp": ["1913-04-10"],
         "importance": "1"
      }
      }, 
    {
      "type": "Feature",
      "geometry": {
        "type": "Point",
        "coordinates": [16.33716, 48.23188]
      },
      "properties": {
         "id": "pmb168815",
         "title": "Sternwartestraße 71",
         "lat": "48.23188",
         "lon": "16.33716",
         "timestamp": ["1913-04-01", "1913-04-02", "1913-04-03", "1913-04-04", "1913-04-05", "1913-04-06", "1913-04-07", "1913-04-08", "1913-04-09", "1913-04-10", "1913-04-11", "1913-04-12", "1913-04-13", "1913-04-14", "1913-04-15", "1913-04-18", "1913-04-19", "1913-04-20", "1913-04-21", "1913-04-24", "1913-04-25", "1913-04-29", "1913-04-30"],
         "importance": "23"
      }
      }, 
    {
      "type": "Feature",
      "geometry": {
        "type": "Point",
        "coordinates": [16.35137, 48.21346]
      },
      "properties": {
         "id": "pmb232800",
         "title": "Laudongasse 12",
         "lat": "48.21346",
         "lon": "16.35137",
         "timestamp": ["1913-04-07", "1913-04-12"],
         "importance": "2"
      }
      }, 
    {
      "type": "Feature",
      "geometry": {
        "type": "Point",
        "coordinates": [16.35992, 48.21681]
      },
      "properties": {
         "id": "pmb190681",
         "title": "Votivkino",
         "lat": "48.21681",
         "lon": "16.35992",
         "timestamp": ["1913-04-05"],
         "importance": "1"
      }
      }, 
    {
      "type": "Feature",
      "geometry": {
        "type": "Point",
        "coordinates": [19.053534, 47.497444816]
      },
      "properties": {
         "id": "pmb56525",
         "title": "Ritz-Carlton Budapest",
         "lat": "47.497444816",
         "lon": "19.053534",
         "timestamp": ["1913-04-16", "1913-04-17"],
         "importance": "2"
      }
      }, 
    {
      "type": "Feature",
      "geometry": {
        "type": "Point",
        "coordinates": [19.072559007, 47.5035412619]
      },
      "properties": {
         "id": "pmb56521",
         "title": "Ungarisches Theater",
         "lat": "47.5035412619",
         "lon": "19.072559007",
         "timestamp": ["1913-04-16"],
         "importance": "1"
      }
      }, 
    {
      "type": "Feature",
      "geometry": {
        "type": "Point",
        "coordinates": [16.37438, 48.21099]
      },
      "properties": {
         "id": "pmb253",
         "title": "Imperialkino",
         "lat": "48.21099",
         "lon": "16.37438",
         "timestamp": ["1913-04-19"],
         "importance": "1"
      }
      }, 
    {
      "type": "Feature",
      "geometry": {
        "type": "Point",
        "coordinates": [16.332605, 48.229801]
      },
      "properties": {
         "id": "pmb190702",
         "title": "Währinger Bürgertheater",
         "lat": "48.229801",
         "lon": "16.332605",
         "timestamp": ["1913-04-25"],
         "importance": "1"
      }
      }
  ]
}