{
  "type": "FeatureCollection",
  "features": [
    {
      "type": "Feature",
      "geometry": {
        "type": "Point",
        "coordinates": [16.373056, 48.208333]
      },
      "properties": {
         "id": "pmb50",
         "title": "Wien",
         "lat": "48.208333",
         "lon": "16.373056",
         "timestamp": ["1914-07-01", "1914-07-02", "1914-07-03", "1914-07-04", "1914-07-05", "1914-07-06", "1914-07-07", "1914-07-08", "1914-07-09", "1914-07-10", "1914-07-11", "1914-07-12", "1914-07-13", "1914-07-15", "1914-07-16", "1914-07-17"],
         "importance": "16"
      }
      }, 
    {
      "type": "Feature",
      "geometry": {
        "type": "Point",
        "coordinates": [9.90126, 46.4955]
      },
      "properties": {
         "id": "pmb34946",
         "title": "Pontresina",
         "lat": "46.4955",
         "lon": "9.90126",
         "timestamp": ["1914-07-21", "1914-07-22", "1914-07-23"],
         "importance": "3"
      }
      }, 
    {
      "type": "Feature",
      "geometry": {
        "type": "Point",
        "coordinates": [16.337778, 48.196667]
      },
      "properties": {
         "id": "pmb184918",
         "title": "Westbahnhof",
         "lat": "48.196667",
         "lon": "16.337778",
         "timestamp": ["1914-07-17"],
         "importance": "1"
      }
      }, 
    {
      "type": "Feature",
      "geometry": {
        "type": "Point",
        "coordinates": [14.98333, 47.65]
      },
      "properties": {
         "id": "pmb34627",
         "title": "Wildalpen",
         "lat": "47.65",
         "lon": "14.98333",
         "timestamp": ["1914-07-15"],
         "importance": "1"
      }
      }, 
    {
      "type": "Feature",
      "geometry": {
        "type": "Point",
        "coordinates": [15.16667, 47.66667]
      },
      "properties": {
         "id": "pmb92057",
         "title": "Weichselboden",
         "lat": "47.66667",
         "lon": "15.16667",
         "timestamp": ["1914-07-15"],
         "importance": "1"
      }
      }, 
    {
      "type": "Feature",
      "geometry": {
        "type": "Point",
        "coordinates": [15.31639, 47.77306]
      },
      "properties": {
         "id": "pmb431",
         "title": "Mariazell",
         "lat": "47.77306",
         "lon": "15.31639",
         "timestamp": ["1914-07-15"],
         "importance": "1"
      }
      }, 
    {
      "type": "Feature",
      "geometry": {
        "type": "Point",
        "coordinates": [16.276509500872, 48.241960480337]
      },
      "properties": {
         "id": "pmb176",
         "title": "Schwarzenbergpark",
         "lat": "48.241960480337",
         "lon": "16.276509500872",
         "timestamp": ["1914-07-05"],
         "importance": "1"
      }
      }, 
    {
      "type": "Feature",
      "geometry": {
        "type": "Point",
        "coordinates": [16.300034240016, 48.246838181084]
      },
      "properties": {
         "id": "pmb169",
         "title": "Pötzleinsdorf",
         "lat": "48.246838181084",
         "lon": "16.300034240016",
         "timestamp": ["1914-07-01"],
         "importance": "1"
      }
      }, 
    {
      "type": "Feature",
      "geometry": {
        "type": "Point",
        "coordinates": [16.208927, 48.137159]
      },
      "properties": {
         "id": "pmb199685",
         "title": "Rother Stadel",
         "lat": "48.137159",
         "lon": "16.208927",
         "timestamp": ["1914-07-13"],
         "importance": "1"
      }
      }, 
    {
      "type": "Feature",
      "geometry": {
        "type": "Point",
        "coordinates": [16.33787, 48.19653]
      },
      "properties": {
         "id": "pmb438",
         "title": "Westbahnhof-Restaurant",
         "lat": "48.19653",
         "lon": "16.33787",
         "timestamp": ["1914-07-15"],
         "importance": "1"
      }
      }, 
    {
      "type": "Feature",
      "geometry": {
        "type": "Point",
        "coordinates": [14.77361, 47.96004]
      },
      "properties": {
         "id": "pmb2209",
         "title": "Waidhofen an der Ybbs",
         "lat": "47.96004",
         "lon": "14.77361",
         "timestamp": ["1914-07-14"],
         "importance": "1"
      }
      }, 
    {
      "type": "Feature",
      "geometry": {
        "type": "Point",
        "coordinates": [16.322222222222, 48.263611111111]
      },
      "properties": {
         "id": "pmb194903",
         "title": "Am Kobenzl",
         "lat": "48.263611111111",
         "lon": "16.322222222222",
         "timestamp": ["1914-07-12"],
         "importance": "1"
      }
      }, 
    {
      "type": "Feature",
      "geometry": {
        "type": "Point",
        "coordinates": [16.31268, 48.2629]
      },
      "properties": {
         "id": "pmb285",
         "title": "Am Himmel",
         "lat": "48.2629",
         "lon": "16.31268",
         "timestamp": ["1914-07-12"],
         "importance": "1"
      }
      }, 
    {
      "type": "Feature",
      "geometry": {
        "type": "Point",
        "coordinates": [16.30627, 48.2435]
      },
      "properties": {
         "id": "pmb147205",
         "title": "Zum weißen Lamm",
         "lat": "48.2435",
         "lon": "16.30627",
         "timestamp": ["1914-07-01"],
         "importance": "1"
      }
      }, 
    {
      "type": "Feature",
      "geometry": {
        "type": "Point",
        "coordinates": [16.33641, 48.23362]
      },
      "properties": {
         "id": "pmb235132",
         "title": "Türkenschanzstraße 48",
         "lat": "48.23362",
         "lon": "16.33641",
         "timestamp": ["1914-07-14"],
         "importance": "1"
      }
      }, 
    {
      "type": "Feature",
      "geometry": {
        "type": "Point",
        "coordinates": [16.33716, 48.23188]
      },
      "properties": {
         "id": "pmb168815",
         "title": "Sternwartestraße 71",
         "lat": "48.23188",
         "lon": "16.33716",
         "timestamp": ["1914-07-01", "1914-07-02", "1914-07-03", "1914-07-04", "1914-07-05", "1914-07-06", "1914-07-07", "1914-07-08", "1914-07-09", "1914-07-10", "1914-07-11", "1914-07-12", "1914-07-13", "1914-07-15", "1914-07-16", "1914-07-17"],
         "importance": "16"
      }
      }, 
    {
      "type": "Feature",
      "geometry": {
        "type": "Point",
        "coordinates": [15.02998, 47.8612]
      },
      "properties": {
         "id": "pmb941",
         "title": "Lunz am See",
         "lat": "47.8612",
         "lon": "15.02998",
         "timestamp": ["1914-07-14", "1914-07-15"],
         "importance": "2"
      }
      }, 
    {
      "type": "Feature",
      "geometry": {
        "type": "Point",
        "coordinates": [9.28458, 46.83705]
      },
      "properties": {
         "id": "pmb40407",
         "title": "Flims",
         "lat": "46.83705",
         "lon": "9.28458",
         "timestamp": ["1914-07-19"],
         "importance": "1"
      }
      }, 
    {
      "type": "Feature",
      "geometry": {
        "type": "Point",
        "coordinates": [9.8622, 46.5146]
      },
      "properties": {
         "id": "pmb12589",
         "title": "Celerina",
         "lat": "46.5146",
         "lon": "9.8622",
         "timestamp": ["1914-07-22", "1914-07-23", "1914-07-24", "1914-07-25", "1914-07-26", "1914-07-27", "1914-07-28", "1914-07-29", "1914-07-30", "1914-07-31"],
         "importance": "10"
      }
      }, 
    {
      "type": "Feature",
      "geometry": {
        "type": "Point",
        "coordinates": [9.85759, 46.512179]
      },
      "properties": {
         "id": "pmb1138",
         "title": "Cresta Palace",
         "lat": "46.512179",
         "lon": "9.85759",
         "timestamp": ["1914-07-22", "1914-07-23", "1914-07-24", "1914-07-25", "1914-07-26", "1914-07-27", "1914-07-28", "1914-07-29", "1914-07-30", "1914-07-31"],
         "importance": "10"
      }
      }
  ]
}