{
  "type": "FeatureCollection",
  "features": [
    {
      "type": "Feature",
      "geometry": {
        "type": "Point",
        "coordinates": [16.351111, 48.209583]
      },
      "properties": {
         "id": "pmb40",
         "title": "Theater in der Josefstadt",
         "lat": "48.209583",
         "lon": "16.351111",
         "timestamp": ["1914-01-08"],
         "importance": "1"
      }
      }, 
    {
      "type": "Feature",
      "geometry": {
        "type": "Point",
        "coordinates": [16.373056, 48.208333]
      },
      "properties": {
         "id": "pmb50",
         "title": "Wien",
         "lat": "48.208333",
         "lon": "16.373056",
         "timestamp": ["1914-01-01", "1914-01-02", "1914-01-03", "1914-01-04", "1914-01-05", "1914-01-06", "1914-01-07", "1914-01-08", "1914-01-09", "1914-01-10", "1914-01-12", "1914-01-13", "1914-01-14", "1914-01-15", "1914-01-16", "1914-01-17", "1914-01-18", "1914-01-19", "1914-01-20", "1914-01-21", "1914-01-22"],
         "importance": "21"
      }
      }, 
    {
      "type": "Feature",
      "geometry": {
        "type": "Point",
        "coordinates": [16.349126146095, 48.197773257011]
      },
      "properties": {
         "id": "pmb267",
         "title": "Hotel Englischer Hof",
         "lat": "48.197773257011",
         "lon": "16.349126146095",
         "timestamp": ["1914-01-27"],
         "importance": "1"
      }
      }, 
    {
      "type": "Feature",
      "geometry": {
        "type": "Point",
        "coordinates": [16.355191, 48.248422]
      },
      "properties": {
         "id": "pmb92292",
         "title": "Hohe Warte",
         "lat": "48.248422",
         "lon": "16.355191",
         "timestamp": ["1914-01-11"],
         "importance": "1"
      }
      }, 
    {
      "type": "Feature",
      "geometry": {
        "type": "Point",
        "coordinates": [16.37312, 48.20122]
      },
      "properties": {
         "id": "pmb43",
         "title": "Café Imperial",
         "lat": "48.20122",
         "lon": "16.37312",
         "timestamp": ["1914-01-07", "1914-01-09", "1914-01-17"],
         "importance": "3"
      }
      }, 
    {
      "type": "Feature",
      "geometry": {
        "type": "Point",
        "coordinates": [16.333568462613, 48.235119783861]
      },
      "properties": {
         "id": "pmb113",
         "title": "Türkenschanzpark",
         "lat": "48.235119783861",
         "lon": "16.333568462613",
         "timestamp": ["1914-01-01"],
         "importance": "1"
      }
      }, 
    {
      "type": "Feature",
      "geometry": {
        "type": "Point",
        "coordinates": [11.567552, 48.143964]
      },
      "properties": {
         "id": "pmb401",
         "title": "Hotel Marienbad",
         "lat": "48.143964",
         "lon": "11.567552",
         "timestamp": ["1914-01-25", "1914-01-26", "1914-01-27", "1914-01-28", "1914-01-29", "1914-01-30", "1914-01-31"],
         "importance": "7"
      }
      }, 
    {
      "type": "Feature",
      "geometry": {
        "type": "Point",
        "coordinates": [16.322222222222, 48.263611111111]
      },
      "properties": {
         "id": "pmb194903",
         "title": "Am Kobenzl",
         "lat": "48.263611111111",
         "lon": "16.322222222222",
         "timestamp": ["1914-01-01", "1914-01-06", "1914-01-11"],
         "importance": "3"
      }
      }, 
    {
      "type": "Feature",
      "geometry": {
        "type": "Point",
        "coordinates": [16.31268, 48.2629]
      },
      "properties": {
         "id": "pmb285",
         "title": "Am Himmel",
         "lat": "48.2629",
         "lon": "16.31268",
         "timestamp": ["1914-01-01", "1914-01-11"],
         "importance": "2"
      }
      }, 
    {
      "type": "Feature",
      "geometry": {
        "type": "Point",
        "coordinates": [12.10161, 49.01513]
      },
      "properties": {
         "id": "pmb4154",
         "title": "Regensburg",
         "lat": "49.01513",
         "lon": "12.10161",
         "timestamp": ["1914-01-22", "1914-01-23"],
         "importance": "2"
      }
      }, 
    {
      "type": "Feature",
      "geometry": {
        "type": "Point",
        "coordinates": [12.0942665160904, 49.0201313348962]
      },
      "properties": {
         "id": "pmb186852",
         "title": "Altes Rathaus [Regensburg]",
         "lat": "49.0201313348962",
         "lon": "12.0942665160904",
         "timestamp": ["1914-01-24"],
         "importance": "1"
      }
      }, 
    {
      "type": "Feature",
      "geometry": {
        "type": "Point",
        "coordinates": [12.101518, 49.017956]
      },
      "properties": {
         "id": "pmb186040",
         "title": "Hotel Karmeliten",
         "lat": "49.017956",
         "lon": "12.101518",
         "timestamp": ["1914-01-24"],
         "importance": "1"
      }
      }
  ]
}