{
  "type": "FeatureCollection",
  "features": [
    {
      "type": "Feature",
      "geometry": {
        "type": "Point",
        "coordinates": [16.373056, 48.208333]
      },
      "properties": {
         "id": "pmb50",
         "title": "Wien",
         "lat": "48.208333",
         "lon": "16.373056",
         "timestamp": ["1914-06-07", "1914-06-08", "1914-06-09", "1914-06-10", "1914-06-11", "1914-06-12", "1914-06-13", "1914-06-14", "1914-06-15", "1914-06-16", "1914-06-17", "1914-06-18", "1914-06-19", "1914-06-20", "1914-06-21", "1914-06-22", "1914-06-23", "1914-06-24", "1914-06-25", "1914-06-26", "1914-06-27", "1914-06-28", "1914-06-29", "1914-06-30"],
         "importance": "24"
      }
      }, 
    {
      "type": "Feature",
      "geometry": {
        "type": "Point",
        "coordinates": [16.3067984, 48.1806202]
      },
      "properties": {
         "id": "pmb92518",
         "title": "Schlosspark Schönbrunn",
         "lat": "48.1806202",
         "lon": "16.3067984",
         "timestamp": ["1914-06-17"],
         "importance": "1"
      }
      }, 
    {
      "type": "Feature",
      "geometry": {
        "type": "Point",
        "coordinates": [16.401694, 48.213944]
      },
      "properties": {
         "id": "pmb47",
         "title": "Schweizerhaus",
         "lat": "48.213944",
         "lon": "16.401694",
         "timestamp": ["1914-06-12"],
         "importance": "1"
      }
      }, 
    {
      "type": "Feature",
      "geometry": {
        "type": "Point",
        "coordinates": [16.37312, 48.20122]
      },
      "properties": {
         "id": "pmb43",
         "title": "Café Imperial",
         "lat": "48.20122",
         "lon": "16.37312",
         "timestamp": ["1914-06-18"],
         "importance": "1"
      }
      }, 
    {
      "type": "Feature",
      "geometry": {
        "type": "Point",
        "coordinates": [11.2803, 47.90938]
      },
      "properties": {
         "id": "pmb5275",
         "title": "Tutzing",
         "lat": "47.90938",
         "lon": "11.2803",
         "timestamp": ["1914-06-01", "1914-06-02", "1914-06-03", "1914-06-04", "1914-06-05", "1914-06-06"],
         "importance": "6"
      }
      }, 
    {
      "type": "Feature",
      "geometry": {
        "type": "Point",
        "coordinates": [16.23036, 48.246719]
      },
      "properties": {
         "id": "pmb539",
         "title": "Sophienalpe",
         "lat": "48.246719",
         "lon": "16.23036",
         "timestamp": ["1914-06-28"],
         "importance": "1"
      }
      }, 
    {
      "type": "Feature",
      "geometry": {
        "type": "Point",
        "coordinates": [16.322222222222, 48.263611111111]
      },
      "properties": {
         "id": "pmb194903",
         "title": "Am Kobenzl",
         "lat": "48.263611111111",
         "lon": "16.322222222222",
         "timestamp": ["1914-06-21"],
         "importance": "1"
      }
      }, 
    {
      "type": "Feature",
      "geometry": {
        "type": "Point",
        "coordinates": [16.293147561818, 48.251927827778]
      },
      "properties": {
         "id": "pmb540",
         "title": "Hameau",
         "lat": "48.251927827778",
         "lon": "16.293147561818",
         "timestamp": ["1914-06-29"],
         "importance": "1"
      }
      }, 
    {
      "type": "Feature",
      "geometry": {
        "type": "Point",
        "coordinates": [16.24526, 48.24987]
      },
      "properties": {
         "id": "pmb193088",
         "title": "Rotes Kreuz",
         "lat": "48.24987",
         "lon": "16.24526",
         "timestamp": ["1914-06-29"],
         "importance": "1"
      }
      }, 
    {
      "type": "Feature",
      "geometry": {
        "type": "Point",
        "coordinates": [16.299761255551, 48.272363233241]
      },
      "properties": {
         "id": "pmb534",
         "title": "Jägerwiese",
         "lat": "48.272363233241",
         "lon": "16.299761255551",
         "timestamp": ["1914-06-21"],
         "importance": "1"
      }
      }
  ]
}