{
  "type": "FeatureCollection",
  "features": [
    {
      "type": "Feature",
      "geometry": {
        "type": "Point",
        "coordinates": [16.373056, 48.208333]
      },
      "properties": {
         "id": "pmb50",
         "title": "Wien",
         "lat": "48.208333",
         "lon": "16.373056",
         "timestamp": ["1915-03-01", "1915-03-02", "1915-03-03", "1915-03-04", "1915-03-05", "1915-03-06", "1915-03-07", "1915-03-08", "1915-03-09", "1915-03-10", "1915-03-11", "1915-03-12", "1915-03-13", "1915-03-14", "1915-03-15", "1915-03-16", "1915-03-17", "1915-03-18", "1915-03-19", "1915-03-20", "1915-03-21", "1915-03-22", "1915-03-23", "1915-03-24", "1915-03-25", "1915-03-26", "1915-03-27", "1915-03-28", "1915-03-29", "1915-03-30", "1915-03-31"],
         "importance": "31"
      }
      }, 
    {
      "type": "Feature",
      "geometry": {
        "type": "Point",
        "coordinates": [16.367998, 48.203159]
      },
      "properties": {
         "id": "pmb185989",
         "title": "Opernrestaurant",
         "lat": "48.203159",
         "lon": "16.367998",
         "timestamp": ["1915-03-15"],
         "importance": "1"
      }
      }, 
    {
      "type": "Feature",
      "geometry": {
        "type": "Point",
        "coordinates": [16.364283, 48.201813]
      },
      "properties": {
         "id": "pmb206958",
         "title": "Gauermanngasse 4",
         "lat": "48.201813",
         "lon": "16.364283",
         "timestamp": ["1915-03-04"],
         "importance": "1"
      }
      }, 
    {
      "type": "Feature",
      "geometry": {
        "type": "Point",
        "coordinates": [16.375811, 48.203191]
      },
      "properties": {
         "id": "pmb233517",
         "title": "Kaiserpanorama [Wien, Schubertring 4]",
         "lat": "48.203191",
         "lon": "16.375811",
         "timestamp": ["1915-03-09"],
         "importance": "1"
      }
      }, 
    {
      "type": "Feature",
      "geometry": {
        "type": "Point",
        "coordinates": [16.377197811369, 48.200771836002]
      },
      "properties": {
         "id": "pmb240",
         "title": "Konzerthaus",
         "lat": "48.200771836002",
         "lon": "16.377197811369",
         "timestamp": ["1915-03-30"],
         "importance": "1"
      }
      }, 
    {
      "type": "Feature",
      "geometry": {
        "type": "Point",
        "coordinates": [16.28606, 48.25849]
      },
      "properties": {
         "id": "pmb537",
         "title": "Dreimarkstein [Wien]",
         "lat": "48.25849",
         "lon": "16.28606",
         "timestamp": ["1915-03-21"],
         "importance": "1"
      }
      }, 
    {
      "type": "Feature",
      "geometry": {
        "type": "Point",
        "coordinates": [16.350361, 48.224472]
      },
      "properties": {
         "id": "pmb28",
         "title": "Volksoper",
         "lat": "48.224472",
         "lon": "16.350361",
         "timestamp": ["1915-03-03"],
         "importance": "1"
      }
      }, 
    {
      "type": "Feature",
      "geometry": {
        "type": "Point",
        "coordinates": [16.33494, 48.23365]
      },
      "properties": {
         "id": "pmb235251",
         "title": "Hasenauerstraße 59",
         "lat": "48.23365",
         "lon": "16.33494",
         "timestamp": ["1915-03-14", "1915-03-16"],
         "importance": "2"
      }
      }, 
    {
      "type": "Feature",
      "geometry": {
        "type": "Point",
        "coordinates": [16.338443, 48.234039]
      },
      "properties": {
         "id": "pmb237633",
         "title": "Hasenauerstraße 46",
         "lat": "48.234039",
         "lon": "16.338443",
         "timestamp": ["1915-03-14"],
         "importance": "1"
      }
      }, 
    {
      "type": "Feature",
      "geometry": {
        "type": "Point",
        "coordinates": [16.355129559722, 48.259006950633]
      },
      "properties": {
         "id": "pmb158",
         "title": "Beethovengang",
         "lat": "48.259006950633",
         "lon": "16.355129559722",
         "timestamp": ["1915-03-30"],
         "importance": "1"
      }
      }, 
    {
      "type": "Feature",
      "geometry": {
        "type": "Point",
        "coordinates": [16.34889, 48.19522]
      },
      "properties": {
         "id": "pmb1211",
         "title": "Verbandsheim",
         "lat": "48.19522",
         "lon": "16.34889",
         "timestamp": ["1915-03-07"],
         "importance": "1"
      }
      }, 
    {
      "type": "Feature",
      "geometry": {
        "type": "Point",
        "coordinates": [16.35689, 48.21787]
      },
      "properties": {
         "id": "pmb232768",
         "title": "Beethovengasse 6",
         "lat": "48.21787",
         "lon": "16.35689",
         "timestamp": ["1915-03-05"],
         "importance": "1"
      }
      }, 
    {
      "type": "Feature",
      "geometry": {
        "type": "Point",
        "coordinates": [16.33716, 48.23188]
      },
      "properties": {
         "id": "pmb168815",
         "title": "Sternwartestraße 71",
         "lat": "48.23188",
         "lon": "16.33716",
         "timestamp": ["1915-03-01", "1915-03-02", "1915-03-03", "1915-03-04", "1915-03-05", "1915-03-06", "1915-03-07", "1915-03-08", "1915-03-09", "1915-03-10", "1915-03-11", "1915-03-12", "1915-03-13", "1915-03-14", "1915-03-15", "1915-03-16", "1915-03-17", "1915-03-18", "1915-03-19", "1915-03-20", "1915-03-21", "1915-03-22", "1915-03-23", "1915-03-24", "1915-03-25", "1915-03-26", "1915-03-27", "1915-03-28", "1915-03-29", "1915-03-30", "1915-03-31"],
         "importance": "31"
      }
      }, 
    {
      "type": "Feature",
      "geometry": {
        "type": "Point",
        "coordinates": [16.327625, 48.234219]
      },
      "properties": {
         "id": "pmb190567",
         "title": "Gersthofer Elitetheater",
         "lat": "48.234219",
         "lon": "16.327625",
         "timestamp": ["1915-03-08"],
         "importance": "1"
      }
      }, 
    {
      "type": "Feature",
      "geometry": {
        "type": "Point",
        "coordinates": [16.367725, 48.212284]
      },
      "properties": {
         "id": "pmb207301",
         "title": "Tiefer Graben 17",
         "lat": "48.212284",
         "lon": "16.367725",
         "timestamp": ["1915-03-02", "1915-03-09", "1915-03-11", "1915-03-18"],
         "importance": "4"
      }
      }, 
    {
      "type": "Feature",
      "geometry": {
        "type": "Point",
        "coordinates": [16.369747, 48.231171]
      },
      "properties": {
         "id": "pmb183676",
         "title": "Jüdische Toynbee-Halle [III]",
         "lat": "48.231171",
         "lon": "16.369747",
         "timestamp": ["1915-03-18"],
         "importance": "1"
      }
      }
  ]
}