{
  "type": "FeatureCollection",
  "features": [
    {
      "type": "Feature",
      "geometry": {
        "type": "Point",
        "coordinates": [16.373056, 48.208333]
      },
      "properties": {
         "id": "pmb50",
         "title": "Wien",
         "lat": "48.208333",
         "lon": "16.373056",
         "timestamp": ["1915-01-01", "1915-01-02", "1915-01-03", "1915-01-04", "1915-01-05", "1915-01-06", "1915-01-07", "1915-01-08", "1915-01-09", "1915-01-10", "1915-01-11", "1915-01-12", "1915-01-13", "1915-01-14", "1915-01-15", "1915-01-16", "1915-01-17", "1915-01-18", "1915-01-19", "1915-01-20", "1915-01-21", "1915-01-22", "1915-01-23", "1915-01-24", "1915-01-25", "1915-01-26", "1915-01-27", "1915-01-28", "1915-01-29", "1915-01-30", "1915-01-31"],
         "importance": "31"
      }
      }, 
    {
      "type": "Feature",
      "geometry": {
        "type": "Point",
        "coordinates": [16.3691, 48.203]
      },
      "properties": {
         "id": "pmb15",
         "title": "Oper",
         "lat": "48.203",
         "lon": "16.3691",
         "timestamp": ["1915-01-17"],
         "importance": "1"
      }
      }, 
    {
      "type": "Feature",
      "geometry": {
        "type": "Point",
        "coordinates": [16.361139, 48.210333]
      },
      "properties": {
         "id": "pmb14",
         "title": "Burgtheater",
         "lat": "48.210333",
         "lon": "16.361139",
         "timestamp": ["1915-01-13"],
         "importance": "1"
      }
      }, 
    {
      "type": "Feature",
      "geometry": {
        "type": "Point",
        "coordinates": [16.369444, 48.203889]
      },
      "properties": {
         "id": "pmb29",
         "title": "Hotel Sacher",
         "lat": "48.203889",
         "lon": "16.369444",
         "timestamp": ["1915-01-05"],
         "importance": "1"
      }
      }, 
    {
      "type": "Feature",
      "geometry": {
        "type": "Point",
        "coordinates": [16.374444444444, 48.211944444444]
      },
      "properties": {
         "id": "pmb195980",
         "title": "Ruprechtskirche",
         "lat": "48.211944444444",
         "lon": "16.374444444444",
         "timestamp": ["1915-01-17"],
         "importance": "1"
      }
      }, 
    {
      "type": "Feature",
      "geometry": {
        "type": "Point",
        "coordinates": [16.35468, 48.27475]
      },
      "properties": {
         "id": "pmb90969",
         "title": "Kahlenbergerdorf",
         "lat": "48.27475",
         "lon": "16.35468",
         "timestamp": ["1915-01-03"],
         "importance": "1"
      }
      }, 
    {
      "type": "Feature",
      "geometry": {
        "type": "Point",
        "coordinates": [16.31268, 48.2629]
      },
      "properties": {
         "id": "pmb285",
         "title": "Am Himmel",
         "lat": "48.2629",
         "lon": "16.31268",
         "timestamp": ["1915-01-10"],
         "importance": "1"
      }
      }, 
    {
      "type": "Feature",
      "geometry": {
        "type": "Point",
        "coordinates": [16.29273, 48.23975]
      },
      "properties": {
         "id": "pmb532",
         "title": "Schafberg [Wien|",
         "lat": "48.23975",
         "lon": "16.29273",
         "timestamp": ["1915-01-01"],
         "importance": "1"
      }
      }, 
    {
      "type": "Feature",
      "geometry": {
        "type": "Point",
        "coordinates": [16.375811, 48.203191]
      },
      "properties": {
         "id": "pmb233517",
         "title": "Kaiserpanorama [Wien, Schubertring 4]",
         "lat": "48.203191",
         "lon": "16.375811",
         "timestamp": ["1915-01-12", "1915-01-21"],
         "importance": "2"
      }
      }, 
    {
      "type": "Feature",
      "geometry": {
        "type": "Point",
        "coordinates": [16.350361, 48.224472]
      },
      "properties": {
         "id": "pmb28",
         "title": "Volksoper",
         "lat": "48.224472",
         "lon": "16.350361",
         "timestamp": ["1915-01-26"],
         "importance": "1"
      }
      }, 
    {
      "type": "Feature",
      "geometry": {
        "type": "Point",
        "coordinates": [16.33641, 48.23362]
      },
      "properties": {
         "id": "pmb235132",
         "title": "Türkenschanzstraße 48",
         "lat": "48.23362",
         "lon": "16.33641",
         "timestamp": ["1915-01-31"],
         "importance": "1"
      }
      }, 
    {
      "type": "Feature",
      "geometry": {
        "type": "Point",
        "coordinates": [16.35689, 48.21787]
      },
      "properties": {
         "id": "pmb232768",
         "title": "Beethovengasse 6",
         "lat": "48.21787",
         "lon": "16.35689",
         "timestamp": ["1915-01-22"],
         "importance": "1"
      }
      }, 
    {
      "type": "Feature",
      "geometry": {
        "type": "Point",
        "coordinates": [16.33716, 48.23188]
      },
      "properties": {
         "id": "pmb168815",
         "title": "Sternwartestraße 71",
         "lat": "48.23188",
         "lon": "16.33716",
         "timestamp": ["1915-01-01", "1915-01-02", "1915-01-03", "1915-01-04", "1915-01-05", "1915-01-06", "1915-01-07", "1915-01-08", "1915-01-09", "1915-01-10", "1915-01-11", "1915-01-12", "1915-01-13", "1915-01-14", "1915-01-15", "1915-01-16", "1915-01-17", "1915-01-18", "1915-01-19", "1915-01-20", "1915-01-21", "1915-01-22", "1915-01-23", "1915-01-24", "1915-01-25", "1915-01-26", "1915-01-27", "1915-01-28", "1915-01-29", "1915-01-30", "1915-01-31"],
         "importance": "31"
      }
      }, 
    {
      "type": "Feature",
      "geometry": {
        "type": "Point",
        "coordinates": [16.333972, 48.206694]
      },
      "properties": {
         "id": "pmb599",
         "title": "Volkshochschule Ottakring",
         "lat": "48.206694",
         "lon": "16.333972",
         "timestamp": ["1915-01-03"],
         "importance": "1"
      }
      }, 
    {
      "type": "Feature",
      "geometry": {
        "type": "Point",
        "coordinates": [16.370928, 48.19224]
      },
      "properties": {
         "id": "pmb92602",
         "title": "Wiednerspital",
         "lat": "48.19224",
         "lon": "16.370928",
         "timestamp": ["1915-01-16"],
         "importance": "1"
      }
      }, 
    {
      "type": "Feature",
      "geometry": {
        "type": "Point",
        "coordinates": [16.367725, 48.212284]
      },
      "properties": {
         "id": "pmb207301",
         "title": "Tiefer Graben 17",
         "lat": "48.212284",
         "lon": "16.367725",
         "timestamp": ["1915-01-23"],
         "importance": "1"
      }
      }, 
    {
      "type": "Feature",
      "geometry": {
        "type": "Point",
        "coordinates": [16.35493, 48.18551]
      },
      "properties": {
         "id": "pmb1023",
         "title": "Volkshochschule Stöbergasse",
         "lat": "48.18551",
         "lon": "16.35493",
         "timestamp": ["1915-01-31"],
         "importance": "1"
      }
      }
  ]
}