{
  "type": "FeatureCollection",
  "features": [
    {
      "type": "Feature",
      "geometry": {
        "type": "Point",
        "coordinates": [16.373056, 48.208333]
      },
      "properties": {
         "id": "pmb50",
         "title": "Wien",
         "lat": "48.208333",
         "lon": "16.373056",
         "timestamp": ["1915-05-01", "1915-05-02", "1915-05-03", "1915-05-04", "1915-05-05", "1915-05-06", "1915-05-07", "1915-05-08", "1915-05-09", "1915-05-10", "1915-05-11", "1915-05-12", "1915-05-13", "1915-05-14", "1915-05-15", "1915-05-16", "1915-05-17", "1915-05-18", "1915-05-19", "1915-05-20", "1915-05-21", "1915-05-22", "1915-05-23", "1915-05-24", "1915-05-25", "1915-05-26", "1915-05-27", "1915-05-28", "1915-05-29", "1915-05-30", "1915-05-31"],
         "importance": "31"
      }
      }, 
    {
      "type": "Feature",
      "geometry": {
        "type": "Point",
        "coordinates": [16.361139, 48.210333]
      },
      "properties": {
         "id": "pmb14",
         "title": "Burgtheater",
         "lat": "48.210333",
         "lon": "16.361139",
         "timestamp": ["1915-05-06", "1915-05-31"],
         "importance": "2"
      }
      }, 
    {
      "type": "Feature",
      "geometry": {
        "type": "Point",
        "coordinates": [16.367998, 48.203159]
      },
      "properties": {
         "id": "pmb185989",
         "title": "Opernrestaurant",
         "lat": "48.203159",
         "lon": "16.367998",
         "timestamp": ["1915-05-30"],
         "importance": "1"
      }
      }, 
    {
      "type": "Feature",
      "geometry": {
        "type": "Point",
        "coordinates": [16.3067984, 48.1806202]
      },
      "properties": {
         "id": "pmb92518",
         "title": "Schlosspark Schönbrunn",
         "lat": "48.1806202",
         "lon": "16.3067984",
         "timestamp": ["1915-05-09", "1915-05-18"],
         "importance": "2"
      }
      }, 
    {
      "type": "Feature",
      "geometry": {
        "type": "Point",
        "coordinates": [16.37312, 48.20122]
      },
      "properties": {
         "id": "pmb43",
         "title": "Café Imperial",
         "lat": "48.20122",
         "lon": "16.37312",
         "timestamp": ["1915-05-30"],
         "importance": "1"
      }
      }, 
    {
      "type": "Feature",
      "geometry": {
        "type": "Point",
        "coordinates": [16.300034240016, 48.246838181084]
      },
      "properties": {
         "id": "pmb169",
         "title": "Pötzleinsdorf",
         "lat": "48.246838181084",
         "lon": "16.300034240016",
         "timestamp": ["1915-05-22", "1915-05-30"],
         "importance": "2"
      }
      }, 
    {
      "type": "Feature",
      "geometry": {
        "type": "Point",
        "coordinates": [16.28610371233, 48.233119188484]
      },
      "properties": {
         "id": "pmb170",
         "title": "Neuwaldegg",
         "lat": "48.233119188484",
         "lon": "16.28610371233",
         "timestamp": ["1915-05-23", "1915-05-24", "1915-05-30"],
         "importance": "3"
      }
      }, 
    {
      "type": "Feature",
      "geometry": {
        "type": "Point",
        "coordinates": [16.258056, 48.201667]
      },
      "properties": {
         "id": "pmb271",
         "title": "Hütteldorf",
         "lat": "48.201667",
         "lon": "16.258056",
         "timestamp": ["1915-05-23", "1915-05-24", "1915-05-30"],
         "importance": "3"
      }
      }, 
    {
      "type": "Feature",
      "geometry": {
        "type": "Point",
        "coordinates": [16.359721, 48.216481]
      },
      "properties": {
         "id": "pmb184975",
         "title": "Alt Pilsenetzer Bierhalle",
         "lat": "48.216481",
         "lon": "16.359721",
         "timestamp": ["1915-05-08", "1915-05-30", "1915-05-31"],
         "importance": "3"
      }
      }, 
    {
      "type": "Feature",
      "geometry": {
        "type": "Point",
        "coordinates": [16.308333, 48.178056]
      },
      "properties": {
         "id": "pmb368",
         "title": "Gloriette",
         "lat": "48.178056",
         "lon": "16.308333",
         "timestamp": ["1915-05-09"],
         "importance": "1"
      }
      }, 
    {
      "type": "Feature",
      "geometry": {
        "type": "Point",
        "coordinates": [16.27, 48.0925]
      },
      "properties": {
         "id": "pmb91145",
         "title": "Burg Liechtenstein",
         "lat": "48.0925",
         "lon": "16.27",
         "timestamp": ["1915-05-11"],
         "importance": "1"
      }
      }, 
    {
      "type": "Feature",
      "geometry": {
        "type": "Point",
        "coordinates": [16.23036, 48.246719]
      },
      "properties": {
         "id": "pmb539",
         "title": "Sophienalpe",
         "lat": "48.246719",
         "lon": "16.23036",
         "timestamp": ["1915-05-02"],
         "importance": "1"
      }
      }, 
    {
      "type": "Feature",
      "geometry": {
        "type": "Point",
        "coordinates": [16.30627, 48.2435]
      },
      "properties": {
         "id": "pmb147205",
         "title": "Zum weißen Lamm",
         "lat": "48.2435",
         "lon": "16.30627",
         "timestamp": ["1915-05-22"],
         "importance": "1"
      }
      }, 
    {
      "type": "Feature",
      "geometry": {
        "type": "Point",
        "coordinates": [16.3025, 48.182222]
      },
      "properties": {
         "id": "pmb39607",
         "title": "Tiergarten Schönbrunn",
         "lat": "48.182222",
         "lon": "16.3025",
         "timestamp": ["1915-05-09"],
         "importance": "1"
      }
      }, 
    {
      "type": "Feature",
      "geometry": {
        "type": "Point",
        "coordinates": [16.375811, 48.203191]
      },
      "properties": {
         "id": "pmb233517",
         "title": "Kaiserpanorama [Wien, Schubertring 4]",
         "lat": "48.203191",
         "lon": "16.375811",
         "timestamp": ["1915-05-04"],
         "importance": "1"
      }
      }, 
    {
      "type": "Feature",
      "geometry": {
        "type": "Point",
        "coordinates": [16.377197811369, 48.200771836002]
      },
      "properties": {
         "id": "pmb240",
         "title": "Konzerthaus",
         "lat": "48.200771836002",
         "lon": "16.377197811369",
         "timestamp": ["1915-05-07"],
         "importance": "1"
      }
      }, 
    {
      "type": "Feature",
      "geometry": {
        "type": "Point",
        "coordinates": [16.28606, 48.25849]
      },
      "properties": {
         "id": "pmb537",
         "title": "Dreimarkstein [Wien]",
         "lat": "48.25849",
         "lon": "16.28606",
         "timestamp": ["1915-05-13"],
         "importance": "1"
      }
      }, 
    {
      "type": "Feature",
      "geometry": {
        "type": "Point",
        "coordinates": [16.243324956494, 48.217820644817]
      },
      "properties": {
         "id": "pmb550",
         "title": "Knödelhütte",
         "lat": "48.217820644817",
         "lon": "16.243324956494",
         "timestamp": ["1915-05-23", "1915-05-24", "1915-05-30"],
         "importance": "3"
      }
      }, 
    {
      "type": "Feature",
      "geometry": {
        "type": "Point",
        "coordinates": [16.33641, 48.23362]
      },
      "properties": {
         "id": "pmb235132",
         "title": "Türkenschanzstraße 48",
         "lat": "48.23362",
         "lon": "16.33641",
         "timestamp": ["1915-05-14"],
         "importance": "1"
      }
      }, 
    {
      "type": "Feature",
      "geometry": {
        "type": "Point",
        "coordinates": [16.33494, 48.23365]
      },
      "properties": {
         "id": "pmb235251",
         "title": "Hasenauerstraße 59",
         "lat": "48.23365",
         "lon": "16.33494",
         "timestamp": ["1915-05-20"],
         "importance": "1"
      }
      }, 
    {
      "type": "Feature",
      "geometry": {
        "type": "Point",
        "coordinates": [16.338443, 48.234039]
      },
      "properties": {
         "id": "pmb237633",
         "title": "Hasenauerstraße 46",
         "lat": "48.234039",
         "lon": "16.338443",
         "timestamp": ["1915-05-09", "1915-05-28"],
         "importance": "2"
      }
      }, 
    {
      "type": "Feature",
      "geometry": {
        "type": "Point",
        "coordinates": [16.355129559722, 48.259006950633]
      },
      "properties": {
         "id": "pmb158",
         "title": "Beethovengang",
         "lat": "48.259006950633",
         "lon": "16.355129559722",
         "timestamp": ["1915-05-16"],
         "importance": "1"
      }
      }, 
    {
      "type": "Feature",
      "geometry": {
        "type": "Point",
        "coordinates": [16.35689, 48.21787]
      },
      "properties": {
         "id": "pmb232768",
         "title": "Beethovengasse 6",
         "lat": "48.21787",
         "lon": "16.35689",
         "timestamp": ["1915-05-21"],
         "importance": "1"
      }
      }, 
    {
      "type": "Feature",
      "geometry": {
        "type": "Point",
        "coordinates": [16.3589845, 48.2195962]
      },
      "properties": {
         "id": "pmb34399",
         "title": "Neue Wiener Bühne",
         "lat": "48.2195962",
         "lon": "16.3589845",
         "timestamp": ["1915-05-05"],
         "importance": "1"
      }
      }, 
    {
      "type": "Feature",
      "geometry": {
        "type": "Point",
        "coordinates": [16.33716, 48.23188]
      },
      "properties": {
         "id": "pmb168815",
         "title": "Sternwartestraße 71",
         "lat": "48.23188",
         "lon": "16.33716",
         "timestamp": ["1915-05-01", "1915-05-02", "1915-05-03", "1915-05-04", "1915-05-05", "1915-05-06", "1915-05-07", "1915-05-08", "1915-05-09", "1915-05-10", "1915-05-11", "1915-05-12", "1915-05-13", "1915-05-14", "1915-05-15", "1915-05-16", "1915-05-17", "1915-05-18", "1915-05-19", "1915-05-20", "1915-05-21", "1915-05-22", "1915-05-23", "1915-05-24", "1915-05-25", "1915-05-26", "1915-05-27", "1915-05-28", "1915-05-29", "1915-05-30", "1915-05-31"],
         "importance": "31"
      }
      }, 
    {
      "type": "Feature",
      "geometry": {
        "type": "Point",
        "coordinates": [16.35137, 48.21346]
      },
      "properties": {
         "id": "pmb232800",
         "title": "Laudongasse 12",
         "lat": "48.21346",
         "lon": "16.35137",
         "timestamp": ["1915-05-27"],
         "importance": "1"
      }
      }, 
    {
      "type": "Feature",
      "geometry": {
        "type": "Point",
        "coordinates": [16.367725, 48.212284]
      },
      "properties": {
         "id": "pmb207301",
         "title": "Tiefer Graben 17",
         "lat": "48.212284",
         "lon": "16.367725",
         "timestamp": ["1915-05-01", "1915-05-19", "1915-05-21"],
         "importance": "3"
      }
      }, 
    {
      "type": "Feature",
      "geometry": {
        "type": "Point",
        "coordinates": [16.310333318218913, 48.18126832323879]
      },
      "properties": {
         "id": "pmb200855",
         "title": "Neptunbrunnen",
         "lat": "48.18126832323879",
         "lon": "16.310333318218913",
         "timestamp": ["1915-05-09"],
         "importance": "1"
      }
      }, 
    {
      "type": "Feature",
      "geometry": {
        "type": "Point",
        "coordinates": [16.3133253, 48.1807992]
      },
      "properties": {
         "id": "pmb200859",
         "title": "Römische Ruine [Schlosspark Schönbrunn]",
         "lat": "48.1807992",
         "lon": "16.3133253",
         "timestamp": ["1915-05-09"],
         "importance": "1"
      }
      }, 
    {
      "type": "Feature",
      "geometry": {
        "type": "Point",
        "coordinates": [16.302778, 48.184722]
      },
      "properties": {
         "id": "pmb50941",
         "title": "Palmenhaus Schönbrunn",
         "lat": "48.184722",
         "lon": "16.302778",
         "timestamp": ["1915-05-09"],
         "importance": "1"
      }
      }
  ]
}