{
  "type": "FeatureCollection",
  "features": [
    {
      "type": "Feature", 
      "geometry": {
        "type": "LineString", 
        "coordinates": [
            [13.76667, 47.65], 
            [13.76667, 47.65], 
            [13.7723, 47.6517], 
            [13.77095, 47.6416], 
            [13.78333, 47.66667], 
            [13.78453, 47.6698]
          ]
      },
      "properties": {
        "name": "4. September 1916"
      }
    },
    {
      "type": "Feature",
      "geometry": {
        "type": "Point",
        "coordinates": [
          13.78453, 47.6698
        ]
      },
      "properties": {
        "title": "Altaussee",
        "timestamp": ["1916-09-04"],
        "pmb": "https://pmb.acdh.oeaw.ac.at/entity//", 
        "wikipedia": "https://de.wikipedia.org/wiki/Altaussee"
      }
      },
    {
      "type": "Feature",
      "geometry": {
        "type": "Point",
        "coordinates": [
          13.77095, 47.6416
        ]
      },
      "properties": {
        "title": "Villa Annerl",
        "timestamp": ["1916-09-04"],
        "pmb": "https://pmb.acdh.oeaw.ac.at/entity//"
      }
      },
    {
      "type": "Feature",
      "geometry": {
        "type": "Point",
        "coordinates": [
          13.78333, 47.66667
        ]
      },
      "properties": {
        "title": "Augstsee",
        "timestamp": ["1916-09-04"],
        "pmb": "https://pmb.acdh.oeaw.ac.at/entity//"
      }
      },
    {
      "type": "Feature",
      "geometry": {
        "type": "Point",
        "coordinates": [
          13.76667, 47.65
        ]
      },
      "properties": {
        "title": "Loser",
        "timestamp": ["1916-09-04"],
        "pmb": "https://pmb.acdh.oeaw.ac.at/entity//"
      }
      },
    {
      "type": "Feature",
      "geometry": {
        "type": "Point",
        "coordinates": [
          13.76667, 47.65
        ]
      },
      "properties": {
        "title": "Loserhütte",
        "timestamp": ["1916-09-04"],
        "pmb": "https://pmb.acdh.oeaw.ac.at/entity//"
      }
      },
    {
      "type": "Feature",
      "geometry": {
        "type": "Point",
        "coordinates": [
          13.7723, 47.6517
        ]
      },
      "properties": {
        "title": "Löcker",
        "timestamp": ["1916-09-04"],
        "pmb": "https://pmb.acdh.oeaw.ac.at/entity//"
      }
      }
  ]
}