{
  "type": "FeatureCollection",
  "features": [
    {
      "type": "Feature",
      "geometry": {
        "type": "Point",
        "coordinates": [13.77189, 47.6417]
      },
      "properties": {
         "id": "pmb106",
         "title": "Seewirt",
         "lat": "47.6417",
         "lon": "13.77189",
         "timestamp": ["1916-09-03", "1916-09-17", "1916-09-23", "1916-09-26", "1916-09-27"],
         "importance": "5"
      }
      }, 
    {
      "type": "Feature",
      "geometry": {
        "type": "Point",
        "coordinates": [16.373056, 48.208333]
      },
      "properties": {
         "id": "pmb50",
         "title": "Wien",
         "lat": "48.208333",
         "lon": "16.373056",
         "timestamp": ["1916-09-30"],
         "importance": "1"
      }
      }, 
    {
      "type": "Feature",
      "geometry": {
        "type": "Point",
        "coordinates": [13.79933, 47.91839]
      },
      "properties": {
         "id": "pmb874",
         "title": "Gmunden",
         "lat": "47.91839",
         "lon": "13.79933",
         "timestamp": ["1916-09-28", "1916-09-29"],
         "importance": "2"
      }
      }, 
    {
      "type": "Feature",
      "geometry": {
        "type": "Point",
        "coordinates": [13.70761, 47.65548]
      },
      "properties": {
         "id": "pmb192390",
         "title": "Vordere Sandlingalm",
         "lat": "47.65548",
         "lon": "13.70761",
         "timestamp": ["1916-09-27"],
         "importance": "1"
      }
      }, 
    {
      "type": "Feature",
      "geometry": {
        "type": "Point",
        "coordinates": [13.70986, 47.66597]
      },
      "properties": {
         "id": "pmb192397",
         "title": "Hintere Sandlingalm",
         "lat": "47.66597",
         "lon": "13.70986",
         "timestamp": ["1916-09-03"],
         "importance": "1"
      }
      }, 
    {
      "type": "Feature",
      "geometry": {
        "type": "Point",
        "coordinates": [13.76667, 47.65]
      },
      "properties": {
         "id": "pmb52428",
         "title": "Loser",
         "lat": "47.65",
         "lon": "13.76667",
         "timestamp": ["1916-09-04"],
         "importance": "1"
      }
      }, 
    {
      "type": "Feature",
      "geometry": {
        "type": "Point",
        "coordinates": [13.78333, 47.66667]
      },
      "properties": {
         "id": "pmb90282",
         "title": "Augstsee",
         "lat": "47.66667",
         "lon": "13.78333",
         "timestamp": ["1916-09-04"],
         "importance": "1"
      }
      }, 
    {
      "type": "Feature",
      "geometry": {
        "type": "Point",
        "coordinates": [14.28333, 48.3]
      },
      "properties": {
         "id": "pmb332",
         "title": "Linz",
         "lat": "48.3",
         "lon": "14.28333",
         "timestamp": ["1916-09-30"],
         "importance": "1"
      }
      }, 
    {
      "type": "Feature",
      "geometry": {
        "type": "Point",
        "coordinates": [14.287495, 48.307291]
      },
      "properties": {
         "id": "pmb130",
         "title": "Hotel Weinzinger",
         "lat": "48.307291",
         "lon": "14.287495",
         "timestamp": ["1916-09-29"],
         "importance": "1"
      }
      }, 
    {
      "type": "Feature",
      "geometry": {
        "type": "Point",
        "coordinates": [13.043176, 47.81233]
      },
      "properties": {
         "id": "pmb152",
         "title": "Grand Hotel de L’Europe, G. Jung",
         "lat": "47.81233",
         "lon": "13.043176",
         "timestamp": ["1916-09-01", "1916-09-02", "1916-09-11", "1916-09-12"],
         "importance": "4"
      }
      }, 
    {
      "type": "Feature",
      "geometry": {
        "type": "Point",
        "coordinates": [13.77095, 47.6416]
      },
      "properties": {
         "id": "pmb34387",
         "title": "Villa Annerl",
         "lat": "47.6416",
         "lon": "13.77095",
         "timestamp": ["1916-09-02", "1916-09-03", "1916-09-04", "1916-09-05", "1916-09-06", "1916-09-07", "1916-09-08", "1916-09-09", "1916-09-10", "1916-09-11", "1916-09-12", "1916-09-13", "1916-09-14", "1916-09-15", "1916-09-16", "1916-09-17", "1916-09-18", "1916-09-19", "1916-09-20", "1916-09-21", "1916-09-22", "1916-09-23", "1916-09-24", "1916-09-25", "1916-09-26", "1916-09-27", "1916-09-28"],
         "importance": "27"
      }
      }, 
    {
      "type": "Feature",
      "geometry": {
        "type": "Point",
        "coordinates": [13.76667, 47.65]
      },
      "properties": {
         "id": "pmb91167",
         "title": "Loserhütte",
         "lat": "47.65",
         "lon": "13.76667",
         "timestamp": ["1916-09-04"],
         "importance": "1"
      }
      }, 
    {
      "type": "Feature",
      "geometry": {
        "type": "Point",
        "coordinates": [13.7723, 47.6517]
      },
      "properties": {
         "id": "pmb92378",
         "title": "Löcker",
         "lat": "47.6517",
         "lon": "13.7723",
         "timestamp": ["1916-09-04"],
         "importance": "1"
      }
      }
  ]
}