{
  "type": "FeatureCollection",
  "features": [
    {
      "type": "Feature",
      "geometry": {
        "type": "Point",
        "coordinates": [16.373056, 48.208333]
      },
      "properties": {
         "id": "pmb50",
         "title": "Wien",
         "lat": "48.208333",
         "lon": "16.373056",
         "timestamp": ["1916-02-01", "1916-02-02", "1916-02-03", "1916-02-04", "1916-02-05", "1916-02-06", "1916-02-07", "1916-02-08", "1916-02-09", "1916-02-10", "1916-02-11", "1916-02-12", "1916-02-13", "1916-02-14", "1916-02-15", "1916-02-16", "1916-02-17", "1916-02-18", "1916-02-19", "1916-02-20", "1916-02-21", "1916-02-22", "1916-02-23", "1916-02-24", "1916-02-25", "1916-02-26", "1916-02-27", "1916-02-28", "1916-02-29"],
         "importance": "29"
      }
      }, 
    {
      "type": "Feature",
      "geometry": {
        "type": "Point",
        "coordinates": [16.333568462613, 48.235119783861]
      },
      "properties": {
         "id": "pmb113",
         "title": "Türkenschanzpark",
         "lat": "48.235119783861",
         "lon": "16.333568462613",
         "timestamp": ["1916-02-09"],
         "importance": "1"
      }
      }, 
    {
      "type": "Feature",
      "geometry": {
        "type": "Point",
        "coordinates": [16.322222222222, 48.263611111111]
      },
      "properties": {
         "id": "pmb194903",
         "title": "Am Kobenzl",
         "lat": "48.263611111111",
         "lon": "16.322222222222",
         "timestamp": ["1916-02-06"],
         "importance": "1"
      }
      }, 
    {
      "type": "Feature",
      "geometry": {
        "type": "Point",
        "coordinates": [16.31268, 48.2629]
      },
      "properties": {
         "id": "pmb285",
         "title": "Am Himmel",
         "lat": "48.2629",
         "lon": "16.31268",
         "timestamp": ["1916-02-06"],
         "importance": "1"
      }
      }, 
    {
      "type": "Feature",
      "geometry": {
        "type": "Point",
        "coordinates": [16.28606, 48.25849]
      },
      "properties": {
         "id": "pmb537",
         "title": "Dreimarkstein [Wien]",
         "lat": "48.25849",
         "lon": "16.28606",
         "timestamp": ["1916-02-13"],
         "importance": "1"
      }
      }, 
    {
      "type": "Feature",
      "geometry": {
        "type": "Point",
        "coordinates": [16.3685, 48.1954]
      },
      "properties": {
         "id": "pmb185928",
         "title": "Johann-Strauß-Theater",
         "lat": "48.1954",
         "lon": "16.3685",
         "timestamp": ["1916-02-08"],
         "importance": "1"
      }
      }, 
    {
      "type": "Feature",
      "geometry": {
        "type": "Point",
        "coordinates": [16.349222, 48.201139]
      },
      "properties": {
         "id": "pmb280",
         "title": "Renaissancetheater",
         "lat": "48.201139",
         "lon": "16.349222",
         "timestamp": ["1916-02-12"],
         "importance": "1"
      }
      }
  ]
}