{
  "type": "FeatureCollection",
  "features": [
    {
      "type": "Feature",
      "geometry": {
        "type": "Point",
        "coordinates": [13.77189, 47.6417]
      },
      "properties": {
         "id": "pmb106",
         "title": "Seewirt",
         "lat": "47.6417",
         "lon": "13.77189",
         "timestamp": ["1916-07-23", "1916-07-24", "1916-07-26", "1916-07-27", "1916-07-31"],
         "importance": "5"
      }
      }, 
    {
      "type": "Feature",
      "geometry": {
        "type": "Point",
        "coordinates": [16.373056, 48.208333]
      },
      "properties": {
         "id": "pmb50",
         "title": "Wien",
         "lat": "48.208333",
         "lon": "16.373056",
         "timestamp": ["1916-07-01", "1916-07-02"],
         "importance": "2"
      }
      }, 
    {
      "type": "Feature",
      "geometry": {
        "type": "Point",
        "coordinates": [16.337778, 48.196667]
      },
      "properties": {
         "id": "pmb184918",
         "title": "Westbahnhof",
         "lat": "48.196667",
         "lon": "16.337778",
         "timestamp": ["1916-07-02"],
         "importance": "1"
      }
      }, 
    {
      "type": "Feature",
      "geometry": {
        "type": "Point",
        "coordinates": [16.336407, 48.197892]
      },
      "properties": {
         "id": "pmb184912",
         "title": "Westbahn-Kaffeehaus",
         "lat": "48.197892",
         "lon": "16.336407",
         "timestamp": ["1916-07-02"],
         "importance": "1"
      }
      }, 
    {
      "type": "Feature",
      "geometry": {
        "type": "Point",
        "coordinates": [13.77095, 47.6416]
      },
      "properties": {
         "id": "pmb34387",
         "title": "Villa Annerl",
         "lat": "47.6416",
         "lon": "13.77095",
         "timestamp": ["1916-07-03", "1916-07-04", "1916-07-05", "1916-07-06", "1916-07-07", "1916-07-08", "1916-07-09", "1916-07-10", "1916-07-11", "1916-07-12", "1916-07-13", "1916-07-14", "1916-07-15", "1916-07-16", "1916-07-17", "1916-07-18", "1916-07-19", "1916-07-20", "1916-07-21", "1916-07-22", "1916-07-23", "1916-07-24", "1916-07-25", "1916-07-26", "1916-07-27", "1916-07-28", "1916-07-29", "1916-07-30", "1916-07-31"],
         "importance": "29"
      }
      }
  ]
}