{
  "type": "FeatureCollection",
  "features": [
    {
      "type": "Feature",
      "geometry": {
        "type": "Point",
        "coordinates": [16.373056, 48.208333]
      },
      "properties": {
         "id": "pmb50",
         "title": "Wien",
         "lat": "48.208333",
         "lon": "16.373056",
         "timestamp": ["1917-07-01", "1917-07-02", "1917-07-03", "1917-07-04", "1917-07-05", "1917-07-06", "1917-07-07", "1917-07-08", "1917-07-09", "1917-07-10", "1917-07-11", "1917-07-12", "1917-07-13", "1917-07-14", "1917-07-15", "1917-07-16", "1917-07-17", "1917-07-18", "1917-07-19", "1917-07-20", "1917-07-21", "1917-07-22", "1917-07-23", "1917-07-24", "1917-07-25", "1917-07-26", "1917-07-27", "1917-07-28", "1917-07-29", "1917-07-30", "1917-07-31"],
         "importance": "31"
      }
      }, 
    {
      "type": "Feature",
      "geometry": {
        "type": "Point",
        "coordinates": [16.36678, 48.20608]
      },
      "properties": {
         "id": "pmb828",
         "title": "Nationalbibliothek",
         "lat": "48.20608",
         "lon": "16.36678",
         "timestamp": ["1917-07-03"],
         "importance": "1"
      }
      }, 
    {
      "type": "Feature",
      "geometry": {
        "type": "Point",
        "coordinates": [16.276509500872, 48.241960480337]
      },
      "properties": {
         "id": "pmb176",
         "title": "Schwarzenbergpark",
         "lat": "48.241960480337",
         "lon": "16.276509500872",
         "timestamp": ["1917-07-15", "1917-07-22"],
         "importance": "2"
      }
      }, 
    {
      "type": "Feature",
      "geometry": {
        "type": "Point",
        "coordinates": [16.26269, 48.24616]
      },
      "properties": {
         "id": "pmb456",
         "title": "Rohrerhütte",
         "lat": "48.24616",
         "lon": "16.26269",
         "timestamp": ["1917-07-15"],
         "importance": "1"
      }
      }, 
    {
      "type": "Feature",
      "geometry": {
        "type": "Point",
        "coordinates": [16.300034240016, 48.246838181084]
      },
      "properties": {
         "id": "pmb169",
         "title": "Pötzleinsdorf",
         "lat": "48.246838181084",
         "lon": "16.300034240016",
         "timestamp": ["1917-07-22", "1917-07-23", "1917-07-29"],
         "importance": "3"
      }
      }, 
    {
      "type": "Feature",
      "geometry": {
        "type": "Point",
        "coordinates": [16.258056, 48.201667]
      },
      "properties": {
         "id": "pmb271",
         "title": "Hütteldorf",
         "lat": "48.201667",
         "lon": "16.258056",
         "timestamp": ["1917-07-22"],
         "importance": "1"
      }
      }, 
    {
      "type": "Feature",
      "geometry": {
        "type": "Point",
        "coordinates": [16.23036, 48.246719]
      },
      "properties": {
         "id": "pmb539",
         "title": "Sophienalpe",
         "lat": "48.246719",
         "lon": "16.23036",
         "timestamp": ["1917-07-01", "1917-07-29"],
         "importance": "2"
      }
      }, 
    {
      "type": "Feature",
      "geometry": {
        "type": "Point",
        "coordinates": [16.2911, 48.2553]
      },
      "properties": {
         "id": "pmb242",
         "title": "Salmannsdorf",
         "lat": "48.2553",
         "lon": "16.2911",
         "timestamp": ["1917-07-08", "1917-07-29"],
         "importance": "2"
      }
      }, 
    {
      "type": "Feature",
      "geometry": {
        "type": "Point",
        "coordinates": [16.293147561818, 48.251927827778]
      },
      "properties": {
         "id": "pmb540",
         "title": "Hameau",
         "lat": "48.251927827778",
         "lon": "16.293147561818",
         "timestamp": ["1917-07-08", "1917-07-29"],
         "importance": "2"
      }
      }, 
    {
      "type": "Feature",
      "geometry": {
        "type": "Point",
        "coordinates": [16.375811, 48.203191]
      },
      "properties": {
         "id": "pmb233517",
         "title": "Kaiserpanorama [Wien, Schubertring 4]",
         "lat": "48.203191",
         "lon": "16.375811",
         "timestamp": ["1917-07-17"],
         "importance": "1"
      }
      }, 
    {
      "type": "Feature",
      "geometry": {
        "type": "Point",
        "coordinates": [16.243324956494, 48.217820644817]
      },
      "properties": {
         "id": "pmb550",
         "title": "Knödelhütte",
         "lat": "48.217820644817",
         "lon": "16.243324956494",
         "timestamp": ["1917-07-22"],
         "importance": "1"
      }
      }, 
    {
      "type": "Feature",
      "geometry": {
        "type": "Point",
        "coordinates": [16.33716, 48.23188]
      },
      "properties": {
         "id": "pmb168815",
         "title": "Sternwartestraße 71",
         "lat": "48.23188",
         "lon": "16.33716",
         "timestamp": ["1917-07-01", "1917-07-02", "1917-07-03", "1917-07-04", "1917-07-05", "1917-07-06", "1917-07-07", "1917-07-08", "1917-07-09", "1917-07-10", "1917-07-11", "1917-07-12", "1917-07-13", "1917-07-14", "1917-07-15", "1917-07-16", "1917-07-17", "1917-07-18", "1917-07-19", "1917-07-20", "1917-07-21", "1917-07-22", "1917-07-23", "1917-07-24", "1917-07-25", "1917-07-26", "1917-07-27", "1917-07-28", "1917-07-29", "1917-07-30", "1917-07-31"],
         "importance": "31"
      }
      }, 
    {
      "type": "Feature",
      "geometry": {
        "type": "Point",
        "coordinates": [16.2387111, 48.239965]
      },
      "properties": {
         "id": "pmb551",
         "title": "Rieglerhütte",
         "lat": "48.239965",
         "lon": "16.2387111",
         "timestamp": ["1917-07-15", "1917-07-29"],
         "importance": "2"
      }
      }, 
    {
      "type": "Feature",
      "geometry": {
        "type": "Point",
        "coordinates": [16.367725, 48.212284]
      },
      "properties": {
         "id": "pmb207301",
         "title": "Tiefer Graben 17",
         "lat": "48.212284",
         "lon": "16.367725",
         "timestamp": ["1917-07-11"],
         "importance": "1"
      }
      }, 
    {
      "type": "Feature",
      "geometry": {
        "type": "Point",
        "coordinates": [16.3767, 48.2136]
      },
      "properties": {
         "id": "pmb185470",
         "title": "Dianabad",
         "lat": "48.2136",
         "lon": "16.3767",
         "timestamp": ["1917-07-25"],
         "importance": "1"
      }
      }
  ]
}