{
  "type": "FeatureCollection",
  "features": [
    {
      "type": "Feature", 
      "geometry": {
        "type": "LineString", 
        "coordinates": [
            [16.2387111, 48.239965], 
            [16.33716, 48.23188], 
            [16.300034240016, 48.246838181084], 
            [16.276509500872, 48.241960480337], 
            [16.23036, 48.246719]
          ]
      },
      "properties": {
        "name": "26. August 1917"
      }
    },
    {
      "type": "Feature",
      "geometry": {
        "type": "Point",
        "coordinates": [
          16.276509500872, 48.241960480337
        ]
      },
      "properties": {
        "title": "Schwarzenbergpark",
        "timestamp": ["1917-08-26"],
        "pmb": "https://pmb.acdh.oeaw.ac.at/entity//", 
        "wikipedia": "https://de.wikipedia.org/wiki/Schwarzenbergpark"
      }
      },
    {
      "type": "Feature",
      "geometry": {
        "type": "Point",
        "coordinates": [
          16.2387111, 48.239965
        ]
      },
      "properties": {
        "title": "Rieglerhütte",
        "timestamp": ["1917-08-26"],
        "pmb": "https://pmb.acdh.oeaw.ac.at/entity//"
      }
      },
    {
      "type": "Feature",
      "geometry": {
        "type": "Point",
        "coordinates": [
          16.23036, 48.246719
        ]
      },
      "properties": {
        "title": "Sophienalpe",
        "timestamp": ["1917-08-26"],
        "pmb": "https://pmb.acdh.oeaw.ac.at/entity//", 
        "wikipedia": "https://de.wikipedia.org/wiki/Sophienalpe"
      }
      },
    {
      "type": "Feature",
      "geometry": {
        "type": "Point",
        "coordinates": [
          16.300034240016, 48.246838181084
        ]
      },
      "properties": {
        "title": "Pötzleinsdorf",
        "timestamp": ["1917-08-26"],
        "pmb": "https://pmb.acdh.oeaw.ac.at/entity//"
      }
      },
    {
      "type": "Feature",
      "geometry": {
        "type": "Point",
        "coordinates": [
          16.33716, 48.23188
        ]
      },
      "properties": {
        "title": "Sternwartestraße 71",
        "timestamp": ["1917-08-26"],
        "pmb": "https://pmb.acdh.oeaw.ac.at/entity//"
      }
      }
  ]
}