{
  "type": "FeatureCollection",
  "features": [
    {
      "type": "Feature",
      "geometry": {
        "type": "Point",
        "coordinates": [16.373056, 48.208333]
      },
      "properties": {
         "id": "pmb50",
         "title": "Wien",
         "lat": "48.208333",
         "lon": "16.373056",
         "timestamp": ["1918-07-01", "1918-07-02", "1918-07-03", "1918-07-04", "1918-07-05", "1918-07-06", "1918-07-07", "1918-07-08", "1918-07-09", "1918-07-10", "1918-07-11", "1918-07-12", "1918-07-13", "1918-07-14", "1918-07-15", "1918-07-16", "1918-07-17", "1918-07-18", "1918-07-19", "1918-07-20", "1918-07-21", "1918-07-22", "1918-07-23", "1918-07-24", "1918-07-25", "1918-07-26", "1918-07-27", "1918-07-28", "1918-07-29", "1918-07-30", "1918-07-31"],
         "importance": "31"
      }
      }, 
    {
      "type": "Feature",
      "geometry": {
        "type": "Point",
        "coordinates": [16.369444, 48.203889]
      },
      "properties": {
         "id": "pmb29",
         "title": "Hotel Sacher",
         "lat": "48.203889",
         "lon": "16.369444",
         "timestamp": ["1918-07-04"],
         "importance": "1"
      }
      }, 
    {
      "type": "Feature",
      "geometry": {
        "type": "Point",
        "coordinates": [16.38091, 48.19156]
      },
      "properties": {
         "id": "pmb90328",
         "title": "Schloss Belvedere",
         "lat": "48.19156",
         "lon": "16.38091",
         "timestamp": ["1918-07-21"],
         "importance": "1"
      }
      }, 
    {
      "type": "Feature",
      "geometry": {
        "type": "Point",
        "coordinates": [16.3566, 48.205142]
      },
      "properties": {
         "id": "pmb20",
         "title": "Volkstheater",
         "lat": "48.205142",
         "lon": "16.3566",
         "timestamp": ["1918-07-06"],
         "importance": "1"
      }
      }, 
    {
      "type": "Feature",
      "geometry": {
        "type": "Point",
        "coordinates": [16.36743, 48.208786]
      },
      "properties": {
         "id": "pmb819",
         "title": "Café Pucher",
         "lat": "48.208786",
         "lon": "16.36743",
         "timestamp": ["1918-07-04"],
         "importance": "1"
      }
      }, 
    {
      "type": "Feature",
      "geometry": {
        "type": "Point",
        "coordinates": [16.371211, 48.206416]
      },
      "properties": {
         "id": "pmb96",
         "title": "Meissl & Schadn",
         "lat": "48.206416",
         "lon": "16.371211",
         "timestamp": ["1918-07-27"],
         "importance": "1"
      }
      }, 
    {
      "type": "Feature",
      "geometry": {
        "type": "Point",
        "coordinates": [16.333568462613, 48.235119783861]
      },
      "properties": {
         "id": "pmb113",
         "title": "Türkenschanzpark",
         "lat": "48.235119783861",
         "lon": "16.333568462613",
         "timestamp": ["1918-07-20", "1918-07-26"],
         "importance": "2"
      }
      }, 
    {
      "type": "Feature",
      "geometry": {
        "type": "Point",
        "coordinates": [16.300034240016, 48.246838181084]
      },
      "properties": {
         "id": "pmb169",
         "title": "Pötzleinsdorf",
         "lat": "48.246838181084",
         "lon": "16.300034240016",
         "timestamp": ["1918-07-07"],
         "importance": "1"
      }
      }, 
    {
      "type": "Feature",
      "geometry": {
        "type": "Point",
        "coordinates": [16.23036, 48.246719]
      },
      "properties": {
         "id": "pmb539",
         "title": "Sophienalpe",
         "lat": "48.246719",
         "lon": "16.23036",
         "timestamp": ["1918-07-07"],
         "importance": "1"
      }
      }, 
    {
      "type": "Feature",
      "geometry": {
        "type": "Point",
        "coordinates": [16.2911, 48.2553]
      },
      "properties": {
         "id": "pmb242",
         "title": "Salmannsdorf",
         "lat": "48.2553",
         "lon": "16.2911",
         "timestamp": ["1918-07-07"],
         "importance": "1"
      }
      }, 
    {
      "type": "Feature",
      "geometry": {
        "type": "Point",
        "coordinates": [16.293147561818, 48.251927827778]
      },
      "properties": {
         "id": "pmb540",
         "title": "Hameau",
         "lat": "48.251927827778",
         "lon": "16.293147561818",
         "timestamp": ["1918-07-07"],
         "importance": "1"
      }
      }, 
    {
      "type": "Feature",
      "geometry": {
        "type": "Point",
        "coordinates": [16.35689, 48.21787]
      },
      "properties": {
         "id": "pmb232768",
         "title": "Beethovengasse 6",
         "lat": "48.21787",
         "lon": "16.35689",
         "timestamp": ["1918-07-27"],
         "importance": "1"
      }
      }, 
    {
      "type": "Feature",
      "geometry": {
        "type": "Point",
        "coordinates": [16.33716, 48.23188]
      },
      "properties": {
         "id": "pmb168815",
         "title": "Sternwartestraße 71",
         "lat": "48.23188",
         "lon": "16.33716",
         "timestamp": ["1918-07-01", "1918-07-02", "1918-07-03", "1918-07-04", "1918-07-05", "1918-07-06", "1918-07-07", "1918-07-08", "1918-07-09", "1918-07-10", "1918-07-11", "1918-07-12", "1918-07-13", "1918-07-14", "1918-07-15", "1918-07-16", "1918-07-17", "1918-07-18", "1918-07-19", "1918-07-20", "1918-07-21", "1918-07-22", "1918-07-23", "1918-07-24", "1918-07-25", "1918-07-26", "1918-07-27", "1918-07-28", "1918-07-29", "1918-07-30", "1918-07-31"],
         "importance": "31"
      }
      }, 
    {
      "type": "Feature",
      "geometry": {
        "type": "Point",
        "coordinates": [16.35137, 48.21346]
      },
      "properties": {
         "id": "pmb232800",
         "title": "Laudongasse 12",
         "lat": "48.21346",
         "lon": "16.35137",
         "timestamp": ["1918-07-13", "1918-07-23", "1918-07-31"],
         "importance": "3"
      }
      }, 
    {
      "type": "Feature",
      "geometry": {
        "type": "Point",
        "coordinates": [16.367725, 48.212284]
      },
      "properties": {
         "id": "pmb207301",
         "title": "Tiefer Graben 17",
         "lat": "48.212284",
         "lon": "16.367725",
         "timestamp": ["1918-07-02"],
         "importance": "1"
      }
      }, 
    {
      "type": "Feature",
      "geometry": {
        "type": "Point",
        "coordinates": [16.32092, 48.24077]
      },
      "properties": {
         "id": "pmb235218",
         "title": "Windmühlhöhe",
         "lat": "48.24077",
         "lon": "16.32092",
         "timestamp": ["1918-07-10", "1918-07-11", "1918-07-20"],
         "importance": "3"
      }
      }, 
    {
      "type": "Feature",
      "geometry": {
        "type": "Point",
        "coordinates": [16.3534843, 48.2123639]
      },
      "properties": {
         "id": "pmb585",
         "title": "Hotel Hammerand",
         "lat": "48.2123639",
         "lon": "16.3534843",
         "timestamp": ["1918-07-01"],
         "importance": "1"
      }
      }, 
    {
      "type": "Feature",
      "geometry": {
        "type": "Point",
        "coordinates": [16.353278, 48.237737]
      },
      "properties": {
         "id": "pmb234742",
         "title": "Reithlegasse 12",
         "lat": "48.237737",
         "lon": "16.353278",
         "timestamp": ["1918-07-08"],
         "importance": "1"
      }
      }
  ]
}