{
  "type": "FeatureCollection",
  "features": [
    {
      "type": "Feature", 
      "geometry": {
        "type": "LineString", 
        "coordinates": [
            [16.258056, 48.201667], 
            [16.33716, 48.23188], 
            [16.300034240016, 48.246838181084], 
            [16.28606, 48.25849], 
            [16.23036, 48.246719]
          ]
      },
      "properties": {
        "name": "11. August 1918"
      }
    },
    {
      "type": "Feature",
      "geometry": {
        "type": "Point",
        "coordinates": [
          16.28606, 48.25849
        ]
      },
      "properties": {
        "title": "Dreimarkstein [Wien]",
        "timestamp": ["1918-08-11"],
        "pmb": "https://pmb.acdh.oeaw.ac.at/entity//", 
        "wikipedia": "https://de.wikipedia.org/wiki/Dreimarkstein_(Wienerwald)"
      }
      },
    {
      "type": "Feature",
      "geometry": {
        "type": "Point",
        "coordinates": [
          16.258056, 48.201667
        ]
      },
      "properties": {
        "title": "Hütteldorf",
        "timestamp": ["1918-08-11"],
        "pmb": "https://pmb.acdh.oeaw.ac.at/entity//", 
        "wikipedia": "https://de.wikipedia.org/wiki/H%C3%BCtteldorf"
      }
      },
    {
      "type": "Feature",
      "geometry": {
        "type": "Point",
        "coordinates": [
          16.23036, 48.246719
        ]
      },
      "properties": {
        "title": "Sophienalpe",
        "timestamp": ["1918-08-11"],
        "pmb": "https://pmb.acdh.oeaw.ac.at/entity//", 
        "wikipedia": "https://de.wikipedia.org/wiki/Sophienalpe"
      }
      },
    {
      "type": "Feature",
      "geometry": {
        "type": "Point",
        "coordinates": [
          16.300034240016, 48.246838181084
        ]
      },
      "properties": {
        "title": "Pötzleinsdorf",
        "timestamp": ["1918-08-11"],
        "pmb": "https://pmb.acdh.oeaw.ac.at/entity//"
      }
      },
    {
      "type": "Feature",
      "geometry": {
        "type": "Point",
        "coordinates": [
          16.33716, 48.23188
        ]
      },
      "properties": {
        "title": "Sternwartestraße 71",
        "timestamp": ["1918-08-11"],
        "pmb": "https://pmb.acdh.oeaw.ac.at/entity//"
      }
      }
  ]
}