{
  "type": "FeatureCollection",
  "features": [
    {
      "type": "Feature",
      "geometry": {
        "type": "Point",
        "coordinates": [16.373056, 48.208333]
      },
      "properties": {
         "id": "pmb50",
         "title": "Wien",
         "lat": "48.208333",
         "lon": "16.373056",
         "timestamp": ["1919-05-01", "1919-05-02", "1919-05-03", "1919-05-04", "1919-05-05", "1919-05-06", "1919-05-07", "1919-05-08", "1919-05-09", "1919-05-10", "1919-05-11", "1919-05-12", "1919-05-13", "1919-05-14", "1919-05-15", "1919-05-16", "1919-05-17", "1919-05-18", "1919-05-19", "1919-05-20", "1919-05-21", "1919-05-22", "1919-05-23", "1919-05-24", "1919-05-25", "1919-05-26", "1919-05-27", "1919-05-28", "1919-05-29", "1919-05-30", "1919-05-31"],
         "importance": "31"
      }
      }, 
    {
      "type": "Feature",
      "geometry": {
        "type": "Point",
        "coordinates": [16.3566, 48.205142]
      },
      "properties": {
         "id": "pmb20",
         "title": "Volkstheater",
         "lat": "48.205142",
         "lon": "16.3566",
         "timestamp": ["1919-05-09", "1919-05-21"],
         "importance": "2"
      }
      }, 
    {
      "type": "Feature",
      "geometry": {
        "type": "Point",
        "coordinates": [16.3576, 48.21071]
      },
      "properties": {
         "id": "pmb373",
         "title": "Rathaus",
         "lat": "48.21071",
         "lon": "16.3576",
         "timestamp": ["1919-05-30"],
         "importance": "1"
      }
      }, 
    {
      "type": "Feature",
      "geometry": {
        "type": "Point",
        "coordinates": [16.333568462613, 48.235119783861]
      },
      "properties": {
         "id": "pmb113",
         "title": "Türkenschanzpark",
         "lat": "48.235119783861",
         "lon": "16.333568462613",
         "timestamp": ["1919-05-15"],
         "importance": "1"
      }
      }, 
    {
      "type": "Feature",
      "geometry": {
        "type": "Point",
        "coordinates": [16.276509500872, 48.241960480337]
      },
      "properties": {
         "id": "pmb176",
         "title": "Schwarzenbergpark",
         "lat": "48.241960480337",
         "lon": "16.276509500872",
         "timestamp": ["1919-05-01", "1919-05-04"],
         "importance": "2"
      }
      }, 
    {
      "type": "Feature",
      "geometry": {
        "type": "Point",
        "coordinates": [16.300034240016, 48.246838181084]
      },
      "properties": {
         "id": "pmb169",
         "title": "Pötzleinsdorf",
         "lat": "48.246838181084",
         "lon": "16.300034240016",
         "timestamp": ["1919-05-11", "1919-05-25", "1919-05-29"],
         "importance": "3"
      }
      }, 
    {
      "type": "Feature",
      "geometry": {
        "type": "Point",
        "coordinates": [16.28610371233, 48.233119188484]
      },
      "properties": {
         "id": "pmb170",
         "title": "Neuwaldegg",
         "lat": "48.233119188484",
         "lon": "16.28610371233",
         "timestamp": ["1919-05-04", "1919-05-11", "1919-05-29"],
         "importance": "3"
      }
      }, 
    {
      "type": "Feature",
      "geometry": {
        "type": "Point",
        "coordinates": [16.441111, 48.149444]
      },
      "properties": {
         "id": "pmb41376",
         "title": "Wiener Zentralfriedhof",
         "lat": "48.149444",
         "lon": "16.441111",
         "timestamp": ["1919-05-14"],
         "importance": "1"
      }
      }, 
    {
      "type": "Feature",
      "geometry": {
        "type": "Point",
        "coordinates": [16.23036, 48.246719]
      },
      "properties": {
         "id": "pmb539",
         "title": "Sophienalpe",
         "lat": "48.246719",
         "lon": "16.23036",
         "timestamp": ["1919-05-01", "1919-05-04", "1919-05-11", "1919-05-29"],
         "importance": "4"
      }
      }, 
    {
      "type": "Feature",
      "geometry": {
        "type": "Point",
        "coordinates": [16.2911, 48.2553]
      },
      "properties": {
         "id": "pmb242",
         "title": "Salmannsdorf",
         "lat": "48.2553",
         "lon": "16.2911",
         "timestamp": ["1919-05-04", "1919-05-18", "1919-05-29"],
         "importance": "3"
      }
      }, 
    {
      "type": "Feature",
      "geometry": {
        "type": "Point",
        "coordinates": [16.293147561818, 48.251927827778]
      },
      "properties": {
         "id": "pmb540",
         "title": "Hameau",
         "lat": "48.251927827778",
         "lon": "16.293147561818",
         "timestamp": ["1919-05-01", "1919-05-25", "1919-05-29"],
         "importance": "3"
      }
      }, 
    {
      "type": "Feature",
      "geometry": {
        "type": "Point",
        "coordinates": [16.29273, 48.23975]
      },
      "properties": {
         "id": "pmb532",
         "title": "Schafberg [Wien|",
         "lat": "48.23975",
         "lon": "16.29273",
         "timestamp": ["1919-05-08", "1919-05-18"],
         "importance": "2"
      }
      }, 
    {
      "type": "Feature",
      "geometry": {
        "type": "Point",
        "coordinates": [16.377197811369, 48.200771836002]
      },
      "properties": {
         "id": "pmb240",
         "title": "Konzerthaus",
         "lat": "48.200771836002",
         "lon": "16.377197811369",
         "timestamp": ["1919-05-09"],
         "importance": "1"
      }
      }, 
    {
      "type": "Feature",
      "geometry": {
        "type": "Point",
        "coordinates": [16.28606, 48.25849]
      },
      "properties": {
         "id": "pmb537",
         "title": "Dreimarkstein [Wien]",
         "lat": "48.25849",
         "lon": "16.28606",
         "timestamp": ["1919-05-18", "1919-05-25"],
         "importance": "2"
      }
      }, 
    {
      "type": "Feature",
      "geometry": {
        "type": "Point",
        "coordinates": [16.33641, 48.23362]
      },
      "properties": {
         "id": "pmb235132",
         "title": "Türkenschanzstraße 48",
         "lat": "48.23362",
         "lon": "16.33641",
         "timestamp": ["1919-05-05", "1919-05-29"],
         "importance": "2"
      }
      }, 
    {
      "type": "Feature",
      "geometry": {
        "type": "Point",
        "coordinates": [16.33494, 48.23365]
      },
      "properties": {
         "id": "pmb235251",
         "title": "Hasenauerstraße 59",
         "lat": "48.23365",
         "lon": "16.33494",
         "timestamp": ["1919-05-15"],
         "importance": "1"
      }
      }, 
    {
      "type": "Feature",
      "geometry": {
        "type": "Point",
        "coordinates": [16.35689, 48.21787]
      },
      "properties": {
         "id": "pmb232768",
         "title": "Beethovengasse 6",
         "lat": "48.21787",
         "lon": "16.35689",
         "timestamp": ["1919-05-20"],
         "importance": "1"
      }
      }, 
    {
      "type": "Feature",
      "geometry": {
        "type": "Point",
        "coordinates": [16.3589845, 48.2195962]
      },
      "properties": {
         "id": "pmb34399",
         "title": "Neue Wiener Bühne",
         "lat": "48.2195962",
         "lon": "16.3589845",
         "timestamp": ["1919-05-26", "1919-05-31"],
         "importance": "2"
      }
      }, 
    {
      "type": "Feature",
      "geometry": {
        "type": "Point",
        "coordinates": [16.33716, 48.23188]
      },
      "properties": {
         "id": "pmb168815",
         "title": "Sternwartestraße 71",
         "lat": "48.23188",
         "lon": "16.33716",
         "timestamp": ["1919-05-01", "1919-05-02", "1919-05-03", "1919-05-04", "1919-05-05", "1919-05-06", "1919-05-07", "1919-05-08", "1919-05-09", "1919-05-10", "1919-05-11", "1919-05-12", "1919-05-13", "1919-05-14", "1919-05-15", "1919-05-16", "1919-05-17", "1919-05-18", "1919-05-19", "1919-05-20", "1919-05-21", "1919-05-22", "1919-05-23", "1919-05-24", "1919-05-25", "1919-05-26", "1919-05-27", "1919-05-28", "1919-05-29", "1919-05-30", "1919-05-31"],
         "importance": "31"
      }
      }, 
    {
      "type": "Feature",
      "geometry": {
        "type": "Point",
        "coordinates": [16.35137, 48.21346]
      },
      "properties": {
         "id": "pmb232800",
         "title": "Laudongasse 12",
         "lat": "48.21346",
         "lon": "16.35137",
         "timestamp": ["1919-05-30"],
         "importance": "1"
      }
      }, 
    {
      "type": "Feature",
      "geometry": {
        "type": "Point",
        "coordinates": [16.2387111, 48.239965]
      },
      "properties": {
         "id": "pmb551",
         "title": "Rieglerhütte",
         "lat": "48.239965",
         "lon": "16.2387111",
         "timestamp": ["1919-05-11", "1919-05-29"],
         "importance": "2"
      }
      }, 
    {
      "type": "Feature",
      "geometry": {
        "type": "Point",
        "coordinates": [16.367725, 48.212284]
      },
      "properties": {
         "id": "pmb207301",
         "title": "Tiefer Graben 17",
         "lat": "48.212284",
         "lon": "16.367725",
         "timestamp": ["1919-05-03"],
         "importance": "1"
      }
      }, 
    {
      "type": "Feature",
      "geometry": {
        "type": "Point",
        "coordinates": [16.32092, 48.24077]
      },
      "properties": {
         "id": "pmb235218",
         "title": "Windmühlhöhe",
         "lat": "48.24077",
         "lon": "16.32092",
         "timestamp": ["1919-05-10", "1919-05-14"],
         "importance": "2"
      }
      }
  ]
}