{
  "type": "FeatureCollection",
  "features": [
    {
      "type": "Feature",
      "geometry": {
        "type": "Point",
        "coordinates": [16.373056, 48.208333]
      },
      "properties": {
         "id": "pmb50",
         "title": "Wien",
         "lat": "48.208333",
         "lon": "16.373056",
         "timestamp": ["1919-09-01", "1919-09-02", "1919-09-03", "1919-09-04", "1919-09-05", "1919-09-06", "1919-09-07", "1919-09-13", "1919-09-14", "1919-09-15", "1919-09-16", "1919-09-17", "1919-09-18", "1919-09-19", "1919-09-20", "1919-09-21", "1919-09-22", "1919-09-23", "1919-09-24", "1919-09-25", "1919-09-26", "1919-09-27", "1919-09-28", "1919-09-29", "1919-09-30"],
         "importance": "25"
      }
      }, 
    {
      "type": "Feature",
      "geometry": {
        "type": "Point",
        "coordinates": [15.83333, 47.7]
      },
      "properties": {
         "id": "pmb483",
         "title": "Reichenau an der Rax",
         "lat": "47.7",
         "lon": "15.83333",
         "timestamp": ["1919-09-08", "1919-09-09", "1919-09-10", "1919-09-11", "1919-09-12"],
         "importance": "5"
      }
      }, 
    {
      "type": "Feature",
      "geometry": {
        "type": "Point",
        "coordinates": [16.333568462613, 48.235119783861]
      },
      "properties": {
         "id": "pmb113",
         "title": "Türkenschanzpark",
         "lat": "48.235119783861",
         "lon": "16.333568462613",
         "timestamp": ["1919-09-03", "1919-09-25"],
         "importance": "2"
      }
      }, 
    {
      "type": "Feature",
      "geometry": {
        "type": "Point",
        "coordinates": [16.26269, 48.24616]
      },
      "properties": {
         "id": "pmb456",
         "title": "Rohrerhütte",
         "lat": "48.24616",
         "lon": "16.26269",
         "timestamp": ["1919-09-07"],
         "importance": "1"
      }
      }, 
    {
      "type": "Feature",
      "geometry": {
        "type": "Point",
        "coordinates": [16.300034240016, 48.246838181084]
      },
      "properties": {
         "id": "pmb169",
         "title": "Pötzleinsdorf",
         "lat": "48.246838181084",
         "lon": "16.300034240016",
         "timestamp": ["1919-09-07", "1919-09-21", "1919-09-28"],
         "importance": "3"
      }
      }, 
    {
      "type": "Feature",
      "geometry": {
        "type": "Point",
        "coordinates": [16.28610371233, 48.233119188484]
      },
      "properties": {
         "id": "pmb170",
         "title": "Neuwaldegg",
         "lat": "48.233119188484",
         "lon": "16.28610371233",
         "timestamp": ["1919-09-07"],
         "importance": "1"
      }
      }, 
    {
      "type": "Feature",
      "geometry": {
        "type": "Point",
        "coordinates": [15.8634, 47.69209]
      },
      "properties": {
         "id": "pmb948",
         "title": "Payerbach",
         "lat": "47.69209",
         "lon": "15.8634",
         "timestamp": ["1919-09-08", "1919-09-09", "1919-09-10", "1919-09-11", "1919-09-12"],
         "importance": "5"
      }
      }, 
    {
      "type": "Feature",
      "geometry": {
        "type": "Point",
        "coordinates": [16.2911, 48.2553]
      },
      "properties": {
         "id": "pmb242",
         "title": "Salmannsdorf",
         "lat": "48.2553",
         "lon": "16.2911",
         "timestamp": ["1919-09-07"],
         "importance": "1"
      }
      }, 
    {
      "type": "Feature",
      "geometry": {
        "type": "Point",
        "coordinates": [16.293147561818, 48.251927827778]
      },
      "properties": {
         "id": "pmb540",
         "title": "Hameau",
         "lat": "48.251927827778",
         "lon": "16.293147561818",
         "timestamp": ["1919-09-07"],
         "importance": "1"
      }
      }, 
    {
      "type": "Feature",
      "geometry": {
        "type": "Point",
        "coordinates": [16.28606, 48.25849]
      },
      "properties": {
         "id": "pmb537",
         "title": "Dreimarkstein [Wien]",
         "lat": "48.25849",
         "lon": "16.28606",
         "timestamp": ["1919-09-07", "1919-09-21"],
         "importance": "2"
      }
      }, 
    {
      "type": "Feature",
      "geometry": {
        "type": "Point",
        "coordinates": [15.7596, 47.6757]
      },
      "properties": {
         "id": "pmb51370",
         "title": "Hotel Preinerwand",
         "lat": "47.6757",
         "lon": "15.7596",
         "timestamp": ["1919-09-10"],
         "importance": "1"
      }
      }, 
    {
      "type": "Feature",
      "geometry": {
        "type": "Point",
        "coordinates": [15.830532, 47.681113]
      },
      "properties": {
         "id": "pmb231698",
         "title": "Stojerhöhe",
         "lat": "47.681113",
         "lon": "15.830532",
         "timestamp": ["1919-09-10"],
         "importance": "1"
      }
      }, 
    {
      "type": "Feature",
      "geometry": {
        "type": "Point",
        "coordinates": [16.33716, 48.23188]
      },
      "properties": {
         "id": "pmb168815",
         "title": "Sternwartestraße 71",
         "lat": "48.23188",
         "lon": "16.33716",
         "timestamp": ["1919-09-01", "1919-09-02", "1919-09-03", "1919-09-04", "1919-09-05", "1919-09-06", "1919-09-07", "1919-09-13", "1919-09-14", "1919-09-15", "1919-09-16", "1919-09-17", "1919-09-18", "1919-09-19", "1919-09-20", "1919-09-21", "1919-09-22", "1919-09-23", "1919-09-24", "1919-09-25", "1919-09-26", "1919-09-27", "1919-09-28", "1919-09-29", "1919-09-30"],
         "importance": "25"
      }
      }, 
    {
      "type": "Feature",
      "geometry": {
        "type": "Point",
        "coordinates": [16.367725, 48.212284]
      },
      "properties": {
         "id": "pmb207301",
         "title": "Tiefer Graben 17",
         "lat": "48.212284",
         "lon": "16.367725",
         "timestamp": ["1919-09-05", "1919-09-30"],
         "importance": "2"
      }
      }, 
    {
      "type": "Feature",
      "geometry": {
        "type": "Point",
        "coordinates": [16.32092, 48.24077]
      },
      "properties": {
         "id": "pmb235218",
         "title": "Windmühlhöhe",
         "lat": "48.24077",
         "lon": "16.32092",
         "timestamp": ["1919-09-06"],
         "importance": "1"
      }
      }, 
    {
      "type": "Feature",
      "geometry": {
        "type": "Point",
        "coordinates": [16.3125, 48.186667]
      },
      "properties": {
         "id": "pmb44649",
         "title": "Schlosstheater Schönbrunn",
         "lat": "48.186667",
         "lon": "16.3125",
         "timestamp": ["1919-09-27"],
         "importance": "1"
      }
      }, 
    {
      "type": "Feature",
      "geometry": {
        "type": "Point",
        "coordinates": [15.808283, 47.669542]
      },
      "properties": {
         "id": "pmb251",
         "title": "Kreuzbergwarte",
         "lat": "47.669542",
         "lon": "15.808283",
         "timestamp": ["1919-09-10"],
         "importance": "1"
      }
      }
  ]
}