{
  "type": "FeatureCollection",
  "features": [
    {
      "type": "Feature", 
      "geometry": {
        "type": "LineString", 
        "coordinates": [
            [16.300034240016, 48.246838181084], 
            [16.33716, 48.23188], 
            [16.33255, 48.27617], 
            [16.292995185249, 48.266268052681], 
            [16.28606, 48.25849]
          ]
      },
      "properties": {
        "name": "24. August 1919"
      }
    },
    {
      "type": "Feature",
      "geometry": {
        "type": "Point",
        "coordinates": [
          16.292995185249, 48.266268052681
        ]
      },
      "properties": {
        "title": "Rohrerwiese",
        "timestamp": ["1919-08-24"],
        "pmb": "https://pmb.acdh.oeaw.ac.at/entity//"
      }
      },
    {
      "type": "Feature",
      "geometry": {
        "type": "Point",
        "coordinates": [
          16.28606, 48.25849
        ]
      },
      "properties": {
        "title": "Dreimarkstein [Wien]",
        "timestamp": ["1919-08-24"],
        "pmb": "https://pmb.acdh.oeaw.ac.at/entity//", 
        "wikipedia": "https://de.wikipedia.org/wiki/Dreimarkstein_(Wienerwald)"
      }
      },
    {
      "type": "Feature",
      "geometry": {
        "type": "Point",
        "coordinates": [
          16.300034240016, 48.246838181084
        ]
      },
      "properties": {
        "title": "Pötzleinsdorf",
        "timestamp": ["1919-08-24"],
        "pmb": "https://pmb.acdh.oeaw.ac.at/entity//"
      }
      },
    {
      "type": "Feature",
      "geometry": {
        "type": "Point",
        "coordinates": [
          16.33716, 48.23188
        ]
      },
      "properties": {
        "title": "Sternwartestraße 71",
        "timestamp": ["1919-08-24"],
        "pmb": "https://pmb.acdh.oeaw.ac.at/entity//"
      }
      },
    {
      "type": "Feature",
      "geometry": {
        "type": "Point",
        "coordinates": [
          16.33255, 48.27617
        ]
      },
      "properties": {
        "title": "Kahlenberg",
        "timestamp": ["1919-08-24"],
        "pmb": "https://pmb.acdh.oeaw.ac.at/entity//", 
        "wikipedia": "https://de.wikipedia.org/wiki/Kahlenberg", 
        "wiengeschichtewiki": "https://www.geschichtewiki.wien.gv.at/Special:URIResolver/?curid=22912"
      }
      }
  ]
}