{
  "type": "FeatureCollection",
  "features": [
    {
      "type": "Feature",
      "geometry": {
        "type": "Point",
        "coordinates": [16.373056, 48.208333]
      },
      "properties": {
         "id": "pmb50",
         "title": "Wien",
         "lat": "48.208333",
         "lon": "16.373056",
         "timestamp": ["1919-07-01", "1919-07-02", "1919-07-03", "1919-07-04", "1919-07-05", "1919-07-06", "1919-07-07", "1919-07-08", "1919-07-09", "1919-07-10", "1919-07-11", "1919-07-12", "1919-07-13", "1919-07-14", "1919-07-15", "1919-07-16", "1919-07-17", "1919-07-18", "1919-07-19", "1919-07-20", "1919-07-21", "1919-07-22", "1919-07-23", "1919-07-24", "1919-07-25", "1919-07-26", "1919-07-27", "1919-07-28", "1919-07-29", "1919-07-30", "1919-07-31"],
         "importance": "31"
      }
      }, 
    {
      "type": "Feature",
      "geometry": {
        "type": "Point",
        "coordinates": [16.23036, 48.246719]
      },
      "properties": {
         "id": "pmb539",
         "title": "Sophienalpe",
         "lat": "48.246719",
         "lon": "16.23036",
         "timestamp": ["1919-07-06", "1919-07-20"],
         "importance": "2"
      }
      }, 
    {
      "type": "Feature",
      "geometry": {
        "type": "Point",
        "coordinates": [16.2911, 48.2553]
      },
      "properties": {
         "id": "pmb242",
         "title": "Salmannsdorf",
         "lat": "48.2553",
         "lon": "16.2911",
         "timestamp": ["1919-07-20"],
         "importance": "1"
      }
      }, 
    {
      "type": "Feature",
      "geometry": {
        "type": "Point",
        "coordinates": [16.293147561818, 48.251927827778]
      },
      "properties": {
         "id": "pmb540",
         "title": "Hameau",
         "lat": "48.251927827778",
         "lon": "16.293147561818",
         "timestamp": ["1919-07-13", "1919-07-15", "1919-07-20"],
         "importance": "3"
      }
      }, 
    {
      "type": "Feature",
      "geometry": {
        "type": "Point",
        "coordinates": [16.29273, 48.23975]
      },
      "properties": {
         "id": "pmb532",
         "title": "Schafberg [Wien|",
         "lat": "48.23975",
         "lon": "16.29273",
         "timestamp": ["1919-07-12"],
         "importance": "1"
      }
      }, 
    {
      "type": "Feature",
      "geometry": {
        "type": "Point",
        "coordinates": [16.28606, 48.25849]
      },
      "properties": {
         "id": "pmb537",
         "title": "Dreimarkstein [Wien]",
         "lat": "48.25849",
         "lon": "16.28606",
         "timestamp": ["1919-07-06", "1919-07-13"],
         "importance": "2"
      }
      }, 
    {
      "type": "Feature",
      "geometry": {
        "type": "Point",
        "coordinates": [16.3589845, 48.2195962]
      },
      "properties": {
         "id": "pmb34399",
         "title": "Neue Wiener Bühne",
         "lat": "48.2195962",
         "lon": "16.3589845",
         "timestamp": ["1919-07-04", "1919-07-09"],
         "importance": "2"
      }
      }, 
    {
      "type": "Feature",
      "geometry": {
        "type": "Point",
        "coordinates": [16.375833, 48.211111]
      },
      "properties": {
         "id": "pmb633",
         "title": "Kammerspiele Wien",
         "lat": "48.211111",
         "lon": "16.375833",
         "timestamp": ["1919-07-30"],
         "importance": "1"
      }
      }, 
    {
      "type": "Feature",
      "geometry": {
        "type": "Point",
        "coordinates": [16.2387111, 48.239965]
      },
      "properties": {
         "id": "pmb551",
         "title": "Rieglerhütte",
         "lat": "48.239965",
         "lon": "16.2387111",
         "timestamp": ["1919-07-06", "1919-07-20"],
         "importance": "2"
      }
      }, 
    {
      "type": "Feature",
      "geometry": {
        "type": "Point",
        "coordinates": [16.34101, 48.1983]
      },
      "properties": {
         "id": "pmb182776",
         "title": "Marie Langer-Kauba Touristen- und Sportartikelhandlung",
         "lat": "48.1983",
         "lon": "16.34101",
         "timestamp": ["1919-07-31"],
         "importance": "1"
      }
      }
  ]
}