{
  "type": "FeatureCollection",
  "features": [
    {
      "type": "Feature",
      "geometry": {
        "type": "Point",
        "coordinates": [16.373056, 48.208333]
      },
      "properties": {
         "id": "pmb50",
         "title": "Wien",
         "lat": "48.208333",
         "lon": "16.373056",
         "timestamp": ["1920-12-01", "1920-12-02", "1920-12-03", "1920-12-04", "1920-12-05", "1920-12-06", "1920-12-07", "1920-12-08", "1920-12-09", "1920-12-10", "1920-12-11", "1920-12-12", "1920-12-13", "1920-12-14", "1920-12-15", "1920-12-16", "1920-12-17", "1920-12-18", "1920-12-19", "1920-12-20", "1920-12-21", "1920-12-22", "1920-12-23", "1920-12-24", "1920-12-25", "1920-12-26", "1920-12-27", "1920-12-28", "1920-12-29", "1920-12-30", "1920-12-31"],
         "importance": "31"
      }
      }, 
    {
      "type": "Feature",
      "geometry": {
        "type": "Point",
        "coordinates": [16.3566, 48.205142]
      },
      "properties": {
         "id": "pmb20",
         "title": "Volkstheater",
         "lat": "48.205142",
         "lon": "16.3566",
         "timestamp": ["1920-12-08"],
         "importance": "1"
      }
      }, 
    {
      "type": "Feature",
      "geometry": {
        "type": "Point",
        "coordinates": [16.333568462613, 48.235119783861]
      },
      "properties": {
         "id": "pmb113",
         "title": "Türkenschanzpark",
         "lat": "48.235119783861",
         "lon": "16.333568462613",
         "timestamp": ["1920-12-31"],
         "importance": "1"
      }
      }, 
    {
      "type": "Feature",
      "geometry": {
        "type": "Point",
        "coordinates": [16.366827, 48.195902]
      },
      "properties": {
         "id": "pmb92438",
         "title": "Paulanergasse",
         "lat": "48.195902",
         "lon": "16.366827",
         "timestamp": ["1920-12-13"],
         "importance": "1"
      }
      }, 
    {
      "type": "Feature",
      "geometry": {
        "type": "Point",
        "coordinates": [16.383547, 48.214368]
      },
      "properties": {
         "id": "pmb92488",
         "title": "Rolandbühne",
         "lat": "48.214368",
         "lon": "16.383547",
         "timestamp": ["1920-12-21"],
         "importance": "1"
      }
      }
  ]
}