{
  "type": "FeatureCollection",
  "features": [
    {
      "type": "Feature",
      "geometry": {
        "type": "Point",
        "coordinates": [16.373056, 48.208333]
      },
      "properties": {
         "id": "pmb50",
         "title": "Wien",
         "lat": "48.208333",
         "lon": "16.373056",
         "timestamp": ["1920-07-01", "1920-07-02", "1920-07-03", "1920-07-04", "1920-07-05", "1920-07-06", "1920-07-07", "1920-07-08", "1920-07-09", "1920-07-10", "1920-07-11", "1920-07-12", "1920-07-13", "1920-07-14", "1920-07-15", "1920-07-16", "1920-07-17", "1920-07-18", "1920-07-19", "1920-07-20", "1920-07-21", "1920-07-22", "1920-07-23", "1920-07-24", "1920-07-25", "1920-07-28", "1920-07-29", "1920-07-30", "1920-07-31"],
         "importance": "29"
      }
      }, 
    {
      "type": "Feature",
      "geometry": {
        "type": "Point",
        "coordinates": [16.36678, 48.20608]
      },
      "properties": {
         "id": "pmb828",
         "title": "Nationalbibliothek",
         "lat": "48.20608",
         "lon": "16.36678",
         "timestamp": ["1920-07-10"],
         "importance": "1"
      }
      }, 
    {
      "type": "Feature",
      "geometry": {
        "type": "Point",
        "coordinates": [15.83333, 47.7]
      },
      "properties": {
         "id": "pmb483",
         "title": "Reichenau an der Rax",
         "lat": "47.7",
         "lon": "15.83333",
         "timestamp": ["1920-07-26", "1920-07-27", "1920-07-28"],
         "importance": "3"
      }
      }, 
    {
      "type": "Feature",
      "geometry": {
        "type": "Point",
        "coordinates": [16.371667, 48.200556]
      },
      "properties": {
         "id": "pmb21",
         "title": "Künstlerhaus",
         "lat": "48.200556",
         "lon": "16.371667",
         "timestamp": ["1920-07-01"],
         "importance": "1"
      }
      }, 
    {
      "type": "Feature",
      "geometry": {
        "type": "Point",
        "coordinates": [16.333568462613, 48.235119783861]
      },
      "properties": {
         "id": "pmb113",
         "title": "Türkenschanzpark",
         "lat": "48.235119783861",
         "lon": "16.333568462613",
         "timestamp": ["1920-07-16"],
         "importance": "1"
      }
      }, 
    {
      "type": "Feature",
      "geometry": {
        "type": "Point",
        "coordinates": [16.276509500872, 48.241960480337]
      },
      "properties": {
         "id": "pmb176",
         "title": "Schwarzenbergpark",
         "lat": "48.241960480337",
         "lon": "16.276509500872",
         "timestamp": ["1920-07-03"],
         "importance": "1"
      }
      }, 
    {
      "type": "Feature",
      "geometry": {
        "type": "Point",
        "coordinates": [16.300034240016, 48.246838181084]
      },
      "properties": {
         "id": "pmb169",
         "title": "Pötzleinsdorf",
         "lat": "48.246838181084",
         "lon": "16.300034240016",
         "timestamp": ["1920-07-04", "1920-07-15", "1920-07-18"],
         "importance": "3"
      }
      }, 
    {
      "type": "Feature",
      "geometry": {
        "type": "Point",
        "coordinates": [16.28610371233, 48.233119188484]
      },
      "properties": {
         "id": "pmb170",
         "title": "Neuwaldegg",
         "lat": "48.233119188484",
         "lon": "16.28610371233",
         "timestamp": ["1920-07-18"],
         "importance": "1"
      }
      }, 
    {
      "type": "Feature",
      "geometry": {
        "type": "Point",
        "coordinates": [16.23036, 48.246719]
      },
      "properties": {
         "id": "pmb539",
         "title": "Sophienalpe",
         "lat": "48.246719",
         "lon": "16.23036",
         "timestamp": ["1920-07-04", "1920-07-18"],
         "importance": "2"
      }
      }, 
    {
      "type": "Feature",
      "geometry": {
        "type": "Point",
        "coordinates": [15.84453, 47.69852]
      },
      "properties": {
         "id": "pmb44982",
         "title": "Kurhaus Rudolfsbad",
         "lat": "47.69852",
         "lon": "15.84453",
         "timestamp": ["1920-07-26", "1920-07-27", "1920-07-28"],
         "importance": "3"
      }
      }, 
    {
      "type": "Feature",
      "geometry": {
        "type": "Point",
        "coordinates": [16.2911, 48.2553]
      },
      "properties": {
         "id": "pmb242",
         "title": "Salmannsdorf",
         "lat": "48.2553",
         "lon": "16.2911",
         "timestamp": ["1920-07-03", "1920-07-04", "1920-07-18", "1920-07-25"],
         "importance": "4"
      }
      }, 
    {
      "type": "Feature",
      "geometry": {
        "type": "Point",
        "coordinates": [16.293147561818, 48.251927827778]
      },
      "properties": {
         "id": "pmb540",
         "title": "Hameau",
         "lat": "48.251927827778",
         "lon": "16.293147561818",
         "timestamp": ["1920-07-04"],
         "importance": "1"
      }
      }, 
    {
      "type": "Feature",
      "geometry": {
        "type": "Point",
        "coordinates": [16.31268, 48.2629]
      },
      "properties": {
         "id": "pmb285",
         "title": "Am Himmel",
         "lat": "48.2629",
         "lon": "16.31268",
         "timestamp": ["1920-07-25"],
         "importance": "1"
      }
      }, 
    {
      "type": "Feature",
      "geometry": {
        "type": "Point",
        "coordinates": [16.28606, 48.25849]
      },
      "properties": {
         "id": "pmb537",
         "title": "Dreimarkstein [Wien]",
         "lat": "48.25849",
         "lon": "16.28606",
         "timestamp": ["1920-07-18", "1920-07-25"],
         "importance": "2"
      }
      }, 
    {
      "type": "Feature",
      "geometry": {
        "type": "Point",
        "coordinates": [15.7621, 47.7132]
      },
      "properties": {
         "id": "pmb234277",
         "title": "Otto-Schutzhaus",
         "lat": "47.7132",
         "lon": "15.7621",
         "timestamp": ["1920-07-27"],
         "importance": "1"
      }
      }, 
    {
      "type": "Feature",
      "geometry": {
        "type": "Point",
        "coordinates": [15.68948, 47.68897]
      },
      "properties": {
         "id": "pmb20756",
         "title": "Rax",
         "lat": "47.68897",
         "lon": "15.68948",
         "timestamp": ["1920-07-27"],
         "importance": "1"
      }
      }, 
    {
      "type": "Feature",
      "geometry": {
        "type": "Point",
        "coordinates": [16.292995185249, 48.266268052681]
      },
      "properties": {
         "id": "pmb536",
         "title": "Rohrerwiese",
         "lat": "48.266268052681",
         "lon": "16.292995185249",
         "timestamp": ["1920-07-25"],
         "importance": "1"
      }
      }, 
    {
      "type": "Feature",
      "geometry": {
        "type": "Point",
        "coordinates": [16.296768550115, 48.248935842869]
      },
      "properties": {
         "id": "pmb243",
         "title": "Sommerhaidenweg",
         "lat": "48.248935842869",
         "lon": "16.296768550115",
         "timestamp": ["1920-07-17"],
         "importance": "1"
      }
      }, 
    {
      "type": "Feature",
      "geometry": {
        "type": "Point",
        "coordinates": [16.301361, 48.245451]
      },
      "properties": {
         "id": "pmb92313",
         "title": "Dr.-Heinrich-Maier-Straße",
         "lat": "48.245451",
         "lon": "16.301361",
         "timestamp": ["1920-07-15"],
         "importance": "1"
      }
      }, 
    {
      "type": "Feature",
      "geometry": {
        "type": "Point",
        "coordinates": [16.33716, 48.23188]
      },
      "properties": {
         "id": "pmb168815",
         "title": "Sternwartestraße 71",
         "lat": "48.23188",
         "lon": "16.33716",
         "timestamp": ["1920-07-01", "1920-07-02", "1920-07-03", "1920-07-04", "1920-07-05", "1920-07-06", "1920-07-07", "1920-07-08", "1920-07-09", "1920-07-10", "1920-07-11", "1920-07-12", "1920-07-13", "1920-07-14", "1920-07-15", "1920-07-16", "1920-07-17", "1920-07-18", "1920-07-19", "1920-07-20", "1920-07-21", "1920-07-22", "1920-07-23", "1920-07-24", "1920-07-25", "1920-07-28", "1920-07-29", "1920-07-30", "1920-07-31"],
         "importance": "29"
      }
      }, 
    {
      "type": "Feature",
      "geometry": {
        "type": "Point",
        "coordinates": [16.35137, 48.21346]
      },
      "properties": {
         "id": "pmb232800",
         "title": "Laudongasse 12",
         "lat": "48.21346",
         "lon": "16.35137",
         "timestamp": ["1920-07-13"],
         "importance": "1"
      }
      }, 
    {
      "type": "Feature",
      "geometry": {
        "type": "Point",
        "coordinates": [16.367725, 48.212284]
      },
      "properties": {
         "id": "pmb207301",
         "title": "Tiefer Graben 17",
         "lat": "48.212284",
         "lon": "16.367725",
         "timestamp": ["1920-07-30"],
         "importance": "1"
      }
      }, 
    {
      "type": "Feature",
      "geometry": {
        "type": "Point",
        "coordinates": [16.32092, 48.24077]
      },
      "properties": {
         "id": "pmb235218",
         "title": "Windmühlhöhe",
         "lat": "48.24077",
         "lon": "16.32092",
         "timestamp": ["1920-07-07", "1920-07-12", "1920-07-30"],
         "importance": "3"
      }
      }, 
    {
      "type": "Feature",
      "geometry": {
        "type": "Point",
        "coordinates": [16.252062, 48.262941]
      },
      "properties": {
         "id": "pmb238508",
         "title": "Asperleiten",
         "lat": "48.262941",
         "lon": "16.252062",
         "timestamp": ["1920-07-18"],
         "importance": "1"
      }
      }, 
    {
      "type": "Feature",
      "geometry": {
        "type": "Point",
        "coordinates": [15.75451, 47.72341]
      },
      "properties": {
         "id": "pmb234262",
         "title": "Höllentalaussicht",
         "lat": "47.72341",
         "lon": "15.75451",
         "timestamp": ["1920-07-27"],
         "importance": "1"
      }
      }
  ]
}