{
  "type": "FeatureCollection",
  "features": [
    {
      "type": "Feature",
      "geometry": {
        "type": "Point",
        "coordinates": [16.373056, 48.208333]
      },
      "properties": {
         "id": "pmb50",
         "title": "Wien",
         "lat": "48.208333",
         "lon": "16.373056",
         "timestamp": ["1920-11-01", "1920-11-02", "1920-11-03", "1920-11-04", "1920-11-05", "1920-11-06", "1920-11-07", "1920-11-08", "1920-11-09", "1920-11-10", "1920-11-11", "1920-11-12", "1920-11-13", "1920-11-14", "1920-11-15", "1920-11-16", "1920-11-17", "1920-11-18", "1920-11-19", "1920-11-20", "1920-11-21", "1920-11-22", "1920-11-23", "1920-11-24", "1920-11-25", "1920-11-26", "1920-11-27", "1920-11-28", "1920-11-29", "1920-11-30"],
         "importance": "30"
      }
      }, 
    {
      "type": "Feature",
      "geometry": {
        "type": "Point",
        "coordinates": [16.361139, 48.210333]
      },
      "properties": {
         "id": "pmb14",
         "title": "Burgtheater",
         "lat": "48.210333",
         "lon": "16.361139",
         "timestamp": ["1920-11-15"],
         "importance": "1"
      }
      }, 
    {
      "type": "Feature",
      "geometry": {
        "type": "Point",
        "coordinates": [16.3672713, 48.1950553]
      },
      "properties": {
         "id": "pmb110",
         "title": "Kührer’s Restauration Zum rothen Rössel",
         "lat": "48.1950553",
         "lon": "16.3672713",
         "timestamp": ["1920-11-09"],
         "importance": "1"
      }
      }, 
    {
      "type": "Feature",
      "geometry": {
        "type": "Point",
        "coordinates": [16.3566, 48.205142]
      },
      "properties": {
         "id": "pmb20",
         "title": "Volkstheater",
         "lat": "48.205142",
         "lon": "16.3566",
         "timestamp": ["1920-11-04", "1920-11-08", "1920-11-12", "1920-11-21", "1920-11-24", "1920-11-25", "1920-11-30"],
         "importance": "7"
      }
      }, 
    {
      "type": "Feature",
      "geometry": {
        "type": "Point",
        "coordinates": [16.3675, 48.1961]
      },
      "properties": {
         "id": "pmb186928",
         "title": "Paulanerkirche",
         "lat": "48.1961",
         "lon": "16.3675",
         "timestamp": ["1920-11-09"],
         "importance": "1"
      }
      }, 
    {
      "type": "Feature",
      "geometry": {
        "type": "Point",
        "coordinates": [16.37312, 48.20122]
      },
      "properties": {
         "id": "pmb43",
         "title": "Café Imperial",
         "lat": "48.20122",
         "lon": "16.37312",
         "timestamp": ["1920-11-22"],
         "importance": "1"
      }
      }, 
    {
      "type": "Feature",
      "geometry": {
        "type": "Point",
        "coordinates": [16.276509500872, 48.241960480337]
      },
      "properties": {
         "id": "pmb176",
         "title": "Schwarzenbergpark",
         "lat": "48.241960480337",
         "lon": "16.276509500872",
         "timestamp": ["1920-11-07"],
         "importance": "1"
      }
      }, 
    {
      "type": "Feature",
      "geometry": {
        "type": "Point",
        "coordinates": [16.300034240016, 48.246838181084]
      },
      "properties": {
         "id": "pmb169",
         "title": "Pötzleinsdorf",
         "lat": "48.246838181084",
         "lon": "16.300034240016",
         "timestamp": ["1920-11-07", "1920-11-21"],
         "importance": "2"
      }
      }, 
    {
      "type": "Feature",
      "geometry": {
        "type": "Point",
        "coordinates": [16.2911, 48.2553]
      },
      "properties": {
         "id": "pmb242",
         "title": "Salmannsdorf",
         "lat": "48.2553",
         "lon": "16.2911",
         "timestamp": ["1920-11-21"],
         "importance": "1"
      }
      }, 
    {
      "type": "Feature",
      "geometry": {
        "type": "Point",
        "coordinates": [16.328044, 48.238759]
      },
      "properties": {
         "id": "pmb841",
         "title": "Döblinger Friedhof",
         "lat": "48.238759",
         "lon": "16.328044",
         "timestamp": ["1920-11-19"],
         "importance": "1"
      }
      }, 
    {
      "type": "Feature",
      "geometry": {
        "type": "Point",
        "coordinates": [16.35689, 48.21787]
      },
      "properties": {
         "id": "pmb232768",
         "title": "Beethovengasse 6",
         "lat": "48.21787",
         "lon": "16.35689",
         "timestamp": ["1920-11-06", "1920-11-12", "1920-11-23", "1920-11-26"],
         "importance": "4"
      }
      }, 
    {
      "type": "Feature",
      "geometry": {
        "type": "Point",
        "coordinates": [16.33716, 48.23188]
      },
      "properties": {
         "id": "pmb168815",
         "title": "Sternwartestraße 71",
         "lat": "48.23188",
         "lon": "16.33716",
         "timestamp": ["1920-11-01", "1920-11-02", "1920-11-03", "1920-11-04", "1920-11-05", "1920-11-06", "1920-11-07", "1920-11-08", "1920-11-09", "1920-11-10", "1920-11-11", "1920-11-12", "1920-11-13", "1920-11-14", "1920-11-15", "1920-11-16", "1920-11-17", "1920-11-18", "1920-11-19", "1920-11-20", "1920-11-21", "1920-11-22", "1920-11-23", "1920-11-24", "1920-11-25", "1920-11-26", "1920-11-27", "1920-11-28", "1920-11-29", "1920-11-30"],
         "importance": "30"
      }
      }, 
    {
      "type": "Feature",
      "geometry": {
        "type": "Point",
        "coordinates": [16.375833, 48.211111]
      },
      "properties": {
         "id": "pmb633",
         "title": "Kammerspiele Wien",
         "lat": "48.211111",
         "lon": "16.375833",
         "timestamp": ["1920-11-16", "1920-11-23"],
         "importance": "2"
      }
      }, 
    {
      "type": "Feature",
      "geometry": {
        "type": "Point",
        "coordinates": [16.349222, 48.201139]
      },
      "properties": {
         "id": "pmb280",
         "title": "Renaissancetheater",
         "lat": "48.201139",
         "lon": "16.349222",
         "timestamp": ["1920-11-05"],
         "importance": "1"
      }
      }, 
    {
      "type": "Feature",
      "geometry": {
        "type": "Point",
        "coordinates": [16.368085, 48.201301]
      },
      "properties": {
         "id": "pmb190658",
         "title": "Opernkino",
         "lat": "48.201301",
         "lon": "16.368085",
         "timestamp": ["1920-11-09"],
         "importance": "1"
      }
      }, 
    {
      "type": "Feature",
      "geometry": {
        "type": "Point",
        "coordinates": [16.327625, 48.234219]
      },
      "properties": {
         "id": "pmb190567",
         "title": "Gersthofer Elitetheater",
         "lat": "48.234219",
         "lon": "16.327625",
         "timestamp": ["1920-11-02"],
         "importance": "1"
      }
      }
  ]
}