{
  "type": "FeatureCollection",
  "features": [
    {
      "type": "Feature", 
      "geometry": {
        "type": "LineString", 
        "coordinates": [
            [16.369495, 48.201427], 
            [16.367725, 48.212284], 
            [16.381895, 48.209294], 
            [16.33716, 48.23188], 
            [16.35689, 48.21787]
          ]
      },
      "properties": {
        "name": "29. April 1921"
      }
    },
    {
      "type": "Feature",
      "geometry": {
        "type": "Point",
        "coordinates": [
          16.369495, 48.201427
        ]
      },
      "properties": {
        "title": "Paul Hopfner und Söhne",
        "timestamp": ["1921-04-29"],
        "pmb": "https://pmb.acdh.oeaw.ac.at/entity//"
      }
      },
    {
      "type": "Feature",
      "geometry": {
        "type": "Point",
        "coordinates": [
          16.381895, 48.209294
        ]
      },
      "properties": {
        "title": "Kaiserpanorama [Wien, Stubenring 12]",
        "timestamp": ["1921-04-29"],
        "pmb": "https://pmb.acdh.oeaw.ac.at/entity//"
      }
      },
    {
      "type": "Feature",
      "geometry": {
        "type": "Point",
        "coordinates": [
          16.33716, 48.23188
        ]
      },
      "properties": {
        "title": "Sternwartestraße 71",
        "timestamp": ["1921-04-29"],
        "pmb": "https://pmb.acdh.oeaw.ac.at/entity//"
      }
      },
    {
      "type": "Feature",
      "geometry": {
        "type": "Point",
        "coordinates": [
          16.367725, 48.212284
        ]
      },
      "properties": {
        "title": "Tiefer Graben 17",
        "timestamp": ["1921-04-29"],
        "pmb": "https://pmb.acdh.oeaw.ac.at/entity//"
      }
      },
    {
      "type": "Feature",
      "geometry": {
        "type": "Point",
        "coordinates": [
          16.35689, 48.21787
        ]
      },
      "properties": {
        "title": "Beethovengasse 6",
        "timestamp": ["1921-04-29"],
        "pmb": "https://pmb.acdh.oeaw.ac.at/entity//"
      }
      }
  ]
}