{
  "type": "FeatureCollection",
  "features": [
    {
      "type": "Feature",
      "geometry": {
        "type": "Point",
        "coordinates": [16.373056, 48.208333]
      },
      "properties": {
         "id": "pmb50",
         "title": "Wien",
         "lat": "48.208333",
         "lon": "16.373056",
         "timestamp": ["1921-12-01", "1921-12-02", "1921-12-03", "1921-12-04", "1921-12-05", "1921-12-06", "1921-12-07", "1921-12-08", "1921-12-09", "1921-12-10", "1921-12-11", "1921-12-12", "1921-12-13", "1921-12-14", "1921-12-15", "1921-12-16", "1921-12-17", "1921-12-18", "1921-12-19", "1921-12-20", "1921-12-21", "1921-12-22", "1921-12-23", "1921-12-24", "1921-12-25", "1921-12-26", "1921-12-27", "1921-12-28", "1921-12-29", "1921-12-30", "1921-12-31"],
         "importance": "31"
      }
      }, 
    {
      "type": "Feature",
      "geometry": {
        "type": "Point",
        "coordinates": [16.361139, 48.210333]
      },
      "properties": {
         "id": "pmb14",
         "title": "Burgtheater",
         "lat": "48.210333",
         "lon": "16.361139",
         "timestamp": ["1921-12-01"],
         "importance": "1"
      }
      }, 
    {
      "type": "Feature",
      "geometry": {
        "type": "Point",
        "coordinates": [16.33255, 48.27617]
      },
      "properties": {
         "id": "pmb574",
         "title": "Kahlenberg",
         "lat": "48.27617",
         "lon": "16.33255",
         "timestamp": ["1921-12-26"],
         "importance": "1"
      }
      }, 
    {
      "type": "Feature",
      "geometry": {
        "type": "Point",
        "coordinates": [16.3566, 48.205142]
      },
      "properties": {
         "id": "pmb20",
         "title": "Volkstheater",
         "lat": "48.205142",
         "lon": "16.3566",
         "timestamp": ["1921-12-01", "1921-12-03", "1921-12-05", "1921-12-06", "1921-12-07", "1921-12-20"],
         "importance": "6"
      }
      }, 
    {
      "type": "Feature",
      "geometry": {
        "type": "Point",
        "coordinates": [16.300034240016, 48.246838181084]
      },
      "properties": {
         "id": "pmb169",
         "title": "Pötzleinsdorf",
         "lat": "48.246838181084",
         "lon": "16.300034240016",
         "timestamp": ["1921-12-11"],
         "importance": "1"
      }
      }, 
    {
      "type": "Feature",
      "geometry": {
        "type": "Point",
        "coordinates": [16.28610371233, 48.233119188484]
      },
      "properties": {
         "id": "pmb170",
         "title": "Neuwaldegg",
         "lat": "48.233119188484",
         "lon": "16.28610371233",
         "timestamp": ["1921-12-04"],
         "importance": "1"
      }
      }, 
    {
      "type": "Feature",
      "geometry": {
        "type": "Point",
        "coordinates": [16.339722, 48.192222]
      },
      "properties": {
         "id": "pmb77",
         "title": "Raimund-Theater",
         "lat": "48.192222",
         "lon": "16.339722",
         "timestamp": ["1921-12-22"],
         "importance": "1"
      }
      }, 
    {
      "type": "Feature",
      "geometry": {
        "type": "Point",
        "coordinates": [16.359721, 48.216481]
      },
      "properties": {
         "id": "pmb184975",
         "title": "Alt Pilsenetzer Bierhalle",
         "lat": "48.216481",
         "lon": "16.359721",
         "timestamp": ["1921-12-20", "1921-12-22"],
         "importance": "2"
      }
      }, 
    {
      "type": "Feature",
      "geometry": {
        "type": "Point",
        "coordinates": [16.328822485916, 48.231291362993]
      },
      "properties": {
         "id": "pmb291",
         "title": "Gersthof",
         "lat": "48.231291362993",
         "lon": "16.328822485916",
         "timestamp": ["1921-12-12"],
         "importance": "1"
      }
      }, 
    {
      "type": "Feature",
      "geometry": {
        "type": "Point",
        "coordinates": [16.31268, 48.2629]
      },
      "properties": {
         "id": "pmb285",
         "title": "Am Himmel",
         "lat": "48.2629",
         "lon": "16.31268",
         "timestamp": ["1921-12-25"],
         "importance": "1"
      }
      }, 
    {
      "type": "Feature",
      "geometry": {
        "type": "Point",
        "coordinates": [16.29273, 48.23975]
      },
      "properties": {
         "id": "pmb532",
         "title": "Schafberg [Wien|",
         "lat": "48.23975",
         "lon": "16.29273",
         "timestamp": ["1921-12-04"],
         "importance": "1"
      }
      }, 
    {
      "type": "Feature",
      "geometry": {
        "type": "Point",
        "coordinates": [16.33641, 48.23362]
      },
      "properties": {
         "id": "pmb235132",
         "title": "Türkenschanzstraße 48",
         "lat": "48.23362",
         "lon": "16.33641",
         "timestamp": ["1921-12-10"],
         "importance": "1"
      }
      }, 
    {
      "type": "Feature",
      "geometry": {
        "type": "Point",
        "coordinates": [16.296768550115, 48.248935842869]
      },
      "properties": {
         "id": "pmb243",
         "title": "Sommerhaidenweg",
         "lat": "48.248935842869",
         "lon": "16.296768550115",
         "timestamp": ["1921-12-04", "1921-12-11"],
         "importance": "2"
      }
      }, 
    {
      "type": "Feature",
      "geometry": {
        "type": "Point",
        "coordinates": [16.35689, 48.21787]
      },
      "properties": {
         "id": "pmb232768",
         "title": "Beethovengasse 6",
         "lat": "48.21787",
         "lon": "16.35689",
         "timestamp": ["1921-12-28"],
         "importance": "1"
      }
      }, 
    {
      "type": "Feature",
      "geometry": {
        "type": "Point",
        "coordinates": [16.33716, 48.23188]
      },
      "properties": {
         "id": "pmb168815",
         "title": "Sternwartestraße 71",
         "lat": "48.23188",
         "lon": "16.33716",
         "timestamp": ["1921-12-01", "1921-12-02", "1921-12-03", "1921-12-04", "1921-12-05", "1921-12-06", "1921-12-07", "1921-12-08", "1921-12-09", "1921-12-10", "1921-12-11", "1921-12-12", "1921-12-13", "1921-12-14", "1921-12-15", "1921-12-16", "1921-12-17", "1921-12-18", "1921-12-19", "1921-12-20", "1921-12-21", "1921-12-22", "1921-12-23", "1921-12-24", "1921-12-25", "1921-12-26", "1921-12-27", "1921-12-28", "1921-12-29", "1921-12-30", "1921-12-31"],
         "importance": "31"
      }
      }, 
    {
      "type": "Feature",
      "geometry": {
        "type": "Point",
        "coordinates": [16.383906681096, 48.211453732859]
      },
      "properties": {
         "id": "pmb1013",
         "title": "Urania",
         "lat": "48.211453732859",
         "lon": "16.383906681096",
         "timestamp": ["1921-12-30"],
         "importance": "1"
      }
      }, 
    {
      "type": "Feature",
      "geometry": {
        "type": "Point",
        "coordinates": [16.35137, 48.21346]
      },
      "properties": {
         "id": "pmb232800",
         "title": "Laudongasse 12",
         "lat": "48.21346",
         "lon": "16.35137",
         "timestamp": ["1921-12-24", "1921-12-31"],
         "importance": "2"
      }
      }, 
    {
      "type": "Feature",
      "geometry": {
        "type": "Point",
        "coordinates": [16.367725, 48.212284]
      },
      "properties": {
         "id": "pmb207301",
         "title": "Tiefer Graben 17",
         "lat": "48.212284",
         "lon": "16.367725",
         "timestamp": ["1921-12-24"],
         "importance": "1"
      }
      }, 
    {
      "type": "Feature",
      "geometry": {
        "type": "Point",
        "coordinates": [16.36171, 48.2116]
      },
      "properties": {
         "id": "pmb235784",
         "title": "Oppolzergasse 6",
         "lat": "48.2116",
         "lon": "16.36171",
         "timestamp": ["1921-12-05"],
         "importance": "1"
      }
      }, 
    {
      "type": "Feature",
      "geometry": {
        "type": "Point",
        "coordinates": [16.366551, 48.206783]
      },
      "properties": {
         "id": "pmb48198",
         "title": "Redoutensaal",
         "lat": "48.206783",
         "lon": "16.366551",
         "timestamp": ["1921-12-23"],
         "importance": "1"
      }
      }
  ]
}