{
  "type": "FeatureCollection",
  "features": [
    {
      "type": "Feature",
      "geometry": {
        "type": "Point",
        "coordinates": [16.373056, 48.208333]
      },
      "properties": {
         "id": "pmb50",
         "title": "Wien",
         "lat": "48.208333",
         "lon": "16.373056",
         "timestamp": ["1921-02-01", "1921-02-02", "1921-02-03", "1921-02-04", "1921-02-05", "1921-02-06", "1921-02-07", "1921-02-08", "1921-02-09", "1921-02-10", "1921-02-11", "1921-02-12", "1921-02-13", "1921-02-14", "1921-02-15", "1921-02-16", "1921-02-17", "1921-02-18", "1921-02-19", "1921-02-20", "1921-02-21", "1921-02-22", "1921-02-23", "1921-02-24", "1921-02-25", "1921-02-26", "1921-02-27", "1921-02-28"],
         "importance": "28"
      }
      }, 
    {
      "type": "Feature",
      "geometry": {
        "type": "Point",
        "coordinates": [16.3691, 48.203]
      },
      "properties": {
         "id": "pmb15",
         "title": "Oper",
         "lat": "48.203",
         "lon": "16.3691",
         "timestamp": ["1921-02-19"],
         "importance": "1"
      }
      }, 
    {
      "type": "Feature",
      "geometry": {
        "type": "Point",
        "coordinates": [16.361139, 48.210333]
      },
      "properties": {
         "id": "pmb14",
         "title": "Burgtheater",
         "lat": "48.210333",
         "lon": "16.361139",
         "timestamp": ["1921-02-23", "1921-02-25"],
         "importance": "2"
      }
      }, 
    {
      "type": "Feature",
      "geometry": {
        "type": "Point",
        "coordinates": [16.355191, 48.248422]
      },
      "properties": {
         "id": "pmb92292",
         "title": "Hohe Warte",
         "lat": "48.248422",
         "lon": "16.355191",
         "timestamp": ["1921-02-20"],
         "importance": "1"
      }
      }, 
    {
      "type": "Feature",
      "geometry": {
        "type": "Point",
        "coordinates": [16.3566, 48.205142]
      },
      "properties": {
         "id": "pmb20",
         "title": "Volkstheater",
         "lat": "48.205142",
         "lon": "16.3566",
         "timestamp": ["1921-02-08", "1921-02-09", "1921-02-11", "1921-02-17"],
         "importance": "4"
      }
      }, 
    {
      "type": "Feature",
      "geometry": {
        "type": "Point",
        "coordinates": [16.376627, 48.211117]
      },
      "properties": {
         "id": "pmb50667",
         "title": "Fleischmarkt",
         "lat": "48.211117",
         "lon": "16.376627",
         "timestamp": ["1921-02-16"],
         "importance": "1"
      }
      }, 
    {
      "type": "Feature",
      "geometry": {
        "type": "Point",
        "coordinates": [16.300034240016, 48.246838181084]
      },
      "properties": {
         "id": "pmb169",
         "title": "Pötzleinsdorf",
         "lat": "48.246838181084",
         "lon": "16.300034240016",
         "timestamp": ["1921-02-02", "1921-02-27"],
         "importance": "2"
      }
      }, 
    {
      "type": "Feature",
      "geometry": {
        "type": "Point",
        "coordinates": [16.322222222222, 48.263611111111]
      },
      "properties": {
         "id": "pmb194903",
         "title": "Am Kobenzl",
         "lat": "48.263611111111",
         "lon": "16.322222222222",
         "timestamp": ["1921-02-20"],
         "importance": "1"
      }
      }, 
    {
      "type": "Feature",
      "geometry": {
        "type": "Point",
        "coordinates": [16.31268, 48.2629]
      },
      "properties": {
         "id": "pmb285",
         "title": "Am Himmel",
         "lat": "48.2629",
         "lon": "16.31268",
         "timestamp": ["1921-02-20"],
         "importance": "1"
      }
      }, 
    {
      "type": "Feature",
      "geometry": {
        "type": "Point",
        "coordinates": [16.28606, 48.25849]
      },
      "properties": {
         "id": "pmb537",
         "title": "Dreimarkstein [Wien]",
         "lat": "48.25849",
         "lon": "16.28606",
         "timestamp": ["1921-02-27"],
         "importance": "1"
      }
      }, 
    {
      "type": "Feature",
      "geometry": {
        "type": "Point",
        "coordinates": [16.369495, 48.201427]
      },
      "properties": {
         "id": "pmb235558",
         "title": "Paul Hopfner und Söhne",
         "lat": "48.201427",
         "lon": "16.369495",
         "timestamp": ["1921-02-15", "1921-02-28"],
         "importance": "2"
      }
      }, 
    {
      "type": "Feature",
      "geometry": {
        "type": "Point",
        "coordinates": [16.371539, 48.208697]
      },
      "properties": {
         "id": "pmb236260",
         "title": "Koppel, Frisch & Cie., Mode- und Seidenwaren",
         "lat": "48.208697",
         "lon": "16.371539",
         "timestamp": ["1921-02-18"],
         "importance": "1"
      }
      }, 
    {
      "type": "Feature",
      "geometry": {
        "type": "Point",
        "coordinates": [16.33494, 48.23365]
      },
      "properties": {
         "id": "pmb235251",
         "title": "Hasenauerstraße 59",
         "lat": "48.23365",
         "lon": "16.33494",
         "timestamp": ["1921-02-17"],
         "importance": "1"
      }
      }, 
    {
      "type": "Feature",
      "geometry": {
        "type": "Point",
        "coordinates": [16.35689, 48.21787]
      },
      "properties": {
         "id": "pmb232768",
         "title": "Beethovengasse 6",
         "lat": "48.21787",
         "lon": "16.35689",
         "timestamp": ["1921-02-04", "1921-02-09", "1921-02-16", "1921-02-26"],
         "importance": "4"
      }
      }, 
    {
      "type": "Feature",
      "geometry": {
        "type": "Point",
        "coordinates": [16.33716, 48.23188]
      },
      "properties": {
         "id": "pmb168815",
         "title": "Sternwartestraße 71",
         "lat": "48.23188",
         "lon": "16.33716",
         "timestamp": ["1921-02-01", "1921-02-02", "1921-02-03", "1921-02-04", "1921-02-05", "1921-02-06", "1921-02-07", "1921-02-08", "1921-02-09", "1921-02-10", "1921-02-11", "1921-02-12", "1921-02-13", "1921-02-14", "1921-02-15", "1921-02-16", "1921-02-17", "1921-02-18", "1921-02-19", "1921-02-20", "1921-02-21", "1921-02-22", "1921-02-23", "1921-02-24", "1921-02-25", "1921-02-26", "1921-02-27", "1921-02-28"],
         "importance": "28"
      }
      }, 
    {
      "type": "Feature",
      "geometry": {
        "type": "Point",
        "coordinates": [16.375833, 48.211111]
      },
      "properties": {
         "id": "pmb633",
         "title": "Kammerspiele Wien",
         "lat": "48.211111",
         "lon": "16.375833",
         "timestamp": ["1921-02-01", "1921-02-16"],
         "importance": "2"
      }
      }, 
    {
      "type": "Feature",
      "geometry": {
        "type": "Point",
        "coordinates": [16.35137, 48.21346]
      },
      "properties": {
         "id": "pmb232800",
         "title": "Laudongasse 12",
         "lat": "48.21346",
         "lon": "16.35137",
         "timestamp": ["1921-02-01"],
         "importance": "1"
      }
      }, 
    {
      "type": "Feature",
      "geometry": {
        "type": "Point",
        "coordinates": [16.367725, 48.212284]
      },
      "properties": {
         "id": "pmb207301",
         "title": "Tiefer Graben 17",
         "lat": "48.212284",
         "lon": "16.367725",
         "timestamp": ["1921-02-16"],
         "importance": "1"
      }
      }, 
    {
      "type": "Feature",
      "geometry": {
        "type": "Point",
        "coordinates": [16.36171, 48.2116]
      },
      "properties": {
         "id": "pmb235784",
         "title": "Oppolzergasse 6",
         "lat": "48.2116",
         "lon": "16.36171",
         "timestamp": ["1921-02-23"],
         "importance": "1"
      }
      }
  ]
}