{
  "type": "FeatureCollection",
  "features": [
    {
      "type": "Feature",
      "geometry": {
        "type": "Point",
        "coordinates": [16.373056, 48.208333]
      },
      "properties": {
         "id": "pmb50",
         "title": "Wien",
         "lat": "48.208333",
         "lon": "16.373056",
         "timestamp": ["1921-09-08", "1921-09-09", "1921-09-10", "1921-09-11", "1921-09-12", "1921-09-13", "1921-09-14", "1921-09-15", "1921-09-16", "1921-09-17", "1921-09-18", "1921-09-19", "1921-09-23", "1921-09-24", "1921-09-26", "1921-09-27", "1921-09-28", "1921-09-29", "1921-09-30"],
         "importance": "19"
      }
      }, 
    {
      "type": "Feature",
      "geometry": {
        "type": "Point",
        "coordinates": [11.57549, 48.13743]
      },
      "properties": {
         "id": "pmb38129",
         "title": "München",
         "lat": "48.13743",
         "lon": "11.57549",
         "timestamp": ["1921-09-01", "1921-09-02", "1921-09-03", "1921-09-04", "1921-09-05"],
         "importance": "5"
      }
      }, 
    {
      "type": "Feature",
      "geometry": {
        "type": "Point",
        "coordinates": [16.361139, 48.210333]
      },
      "properties": {
         "id": "pmb14",
         "title": "Burgtheater",
         "lat": "48.210333",
         "lon": "16.361139",
         "timestamp": ["1921-09-23"],
         "importance": "1"
      }
      }, 
    {
      "type": "Feature",
      "geometry": {
        "type": "Point",
        "coordinates": [16.3566, 48.205142]
      },
      "properties": {
         "id": "pmb20",
         "title": "Volkstheater",
         "lat": "48.205142",
         "lon": "16.3566",
         "timestamp": ["1921-09-12", "1921-09-14"],
         "importance": "2"
      }
      }, 
    {
      "type": "Feature",
      "geometry": {
        "type": "Point",
        "coordinates": [13.043401, 47.802045]
      },
      "properties": {
         "id": "pmb230",
         "title": "Österreichischer Hof",
         "lat": "47.802045",
         "lon": "13.043401",
         "timestamp": ["1921-09-06", "1921-09-07", "1921-09-08"],
         "importance": "3"
      }
      }, 
    {
      "type": "Feature",
      "geometry": {
        "type": "Point",
        "coordinates": [13.0458, 47.7969]
      },
      "properties": {
         "id": "pmb190287",
         "title": "Stift St Peter",
         "lat": "47.7969",
         "lon": "13.0458",
         "timestamp": ["1921-09-06"],
         "importance": "1"
      }
      }, 
    {
      "type": "Feature",
      "geometry": {
        "type": "Point",
        "coordinates": [13.043904, 47.801903]
      },
      "properties": {
         "id": "pmb181",
         "title": "Café Bazar",
         "lat": "47.801903",
         "lon": "13.043904",
         "timestamp": ["1921-09-07"],
         "importance": "1"
      }
      }, 
    {
      "type": "Feature",
      "geometry": {
        "type": "Point",
        "coordinates": [13.042019, 47.805528]
      },
      "properties": {
         "id": "pmb180",
         "title": "Mirabell",
         "lat": "47.805528",
         "lon": "13.042019",
         "timestamp": ["1921-09-06"],
         "importance": "1"
      }
      }, 
    {
      "type": "Feature",
      "geometry": {
        "type": "Point",
        "coordinates": [16.333568462613, 48.235119783861]
      },
      "properties": {
         "id": "pmb113",
         "title": "Türkenschanzpark",
         "lat": "48.235119783861",
         "lon": "16.333568462613",
         "timestamp": ["1921-09-28", "1921-09-29"],
         "importance": "2"
      }
      }, 
    {
      "type": "Feature",
      "geometry": {
        "type": "Point",
        "coordinates": [13.047256, 47.794967]
      },
      "properties": {
         "id": "pmb638",
         "title": "Festung Hohensalzburg",
         "lat": "47.794967",
         "lon": "13.047256",
         "timestamp": ["1921-09-07"],
         "importance": "1"
      }
      }, 
    {
      "type": "Feature",
      "geometry": {
        "type": "Point",
        "coordinates": [16.2911, 48.2553]
      },
      "properties": {
         "id": "pmb242",
         "title": "Salmannsdorf",
         "lat": "48.2553",
         "lon": "16.2911",
         "timestamp": ["1921-09-18"],
         "importance": "1"
      }
      }, 
    {
      "type": "Feature",
      "geometry": {
        "type": "Point",
        "coordinates": [15.85924, 47.68741]
      },
      "properties": {
         "id": "pmb231692",
         "title": "Payberbachgraben",
         "lat": "47.68741",
         "lon": "15.85924",
         "timestamp": ["1921-09-20"],
         "importance": "1"
      }
      }, 
    {
      "type": "Feature",
      "geometry": {
        "type": "Point",
        "coordinates": [16.320719, 48.238032]
      },
      "properties": {
         "id": "pmb248",
         "title": "Kratzer’s Restaurant Gersthof",
         "lat": "48.238032",
         "lon": "16.320719",
         "timestamp": ["1921-09-09", "1921-09-16"],
         "importance": "2"
      }
      }, 
    {
      "type": "Feature",
      "geometry": {
        "type": "Point",
        "coordinates": [16.349925, 48.224263]
      },
      "properties": {
         "id": "pmb238",
         "title": "Gastwirtschaft Josef Gruß",
         "lat": "48.224263",
         "lon": "16.349925",
         "timestamp": ["1921-09-26"],
         "importance": "1"
      }
      }, 
    {
      "type": "Feature",
      "geometry": {
        "type": "Point",
        "coordinates": [15.830532, 47.681113]
      },
      "properties": {
         "id": "pmb231698",
         "title": "Stojerhöhe",
         "lat": "47.681113",
         "lon": "15.830532",
         "timestamp": ["1921-09-20"],
         "importance": "1"
      }
      }, 
    {
      "type": "Feature",
      "geometry": {
        "type": "Point",
        "coordinates": [16.296768550115, 48.248935842869]
      },
      "properties": {
         "id": "pmb243",
         "title": "Sommerhaidenweg",
         "lat": "48.248935842869",
         "lon": "16.296768550115",
         "timestamp": ["1921-09-09", "1921-09-23"],
         "importance": "2"
      }
      }, 
    {
      "type": "Feature",
      "geometry": {
        "type": "Point",
        "coordinates": [15.81667, 47.66667]
      },
      "properties": {
         "id": "pmb91067",
         "title": "Kreuzberg [Breitenstein]",
         "lat": "47.66667",
         "lon": "15.81667",
         "timestamp": ["1921-09-20", "1921-09-21", "1921-09-22"],
         "importance": "3"
      }
      }, 
    {
      "type": "Feature",
      "geometry": {
        "type": "Point",
        "coordinates": [16.377117625773, 48.200254933632]
      },
      "properties": {
         "id": "pmb520",
         "title": "Akademietheater",
         "lat": "48.200254933632",
         "lon": "16.377117625773",
         "timestamp": ["1921-09-18"],
         "importance": "1"
      }
      }, 
    {
      "type": "Feature",
      "geometry": {
        "type": "Point",
        "coordinates": [11.13919, 47.55979]
      },
      "properties": {
         "id": "pmb90175",
         "title": "Oberau",
         "lat": "47.55979",
         "lon": "11.13919",
         "timestamp": ["1921-09-02"],
         "importance": "1"
      }
      }, 
    {
      "type": "Feature",
      "geometry": {
        "type": "Point",
        "coordinates": [11.1, 47.56667]
      },
      "properties": {
         "id": "pmb90605",
         "title": "Ettal",
         "lat": "47.56667",
         "lon": "11.1",
         "timestamp": ["1921-09-02"],
         "importance": "1"
      }
      }, 
    {
      "type": "Feature",
      "geometry": {
        "type": "Point",
        "coordinates": [11.06692, 47.59812]
      },
      "properties": {
         "id": "pmb925",
         "title": "Oberammergau",
         "lat": "47.59812",
         "lon": "11.06692",
         "timestamp": ["1921-09-02"],
         "importance": "1"
      }
      }, 
    {
      "type": "Feature",
      "geometry": {
        "type": "Point",
        "coordinates": [16.35444, 48.225169]
      },
      "properties": {
         "id": "pmb192584",
         "title": "Union Hotel",
         "lat": "48.225169",
         "lon": "16.35444",
         "timestamp": ["1921-09-13"],
         "importance": "1"
      }
      }, 
    {
      "type": "Feature",
      "geometry": {
        "type": "Point",
        "coordinates": [16.37778, 48.17111]
      },
      "properties": {
         "id": "pmb60",
         "title": "X., Favoriten",
         "lat": "48.17111",
         "lon": "16.37778",
         "timestamp": ["1921-09-25"],
         "importance": "1"
      }
      }
  ]
}