{
  "type": "FeatureCollection",
  "features": [
    {
      "type": "Feature",
      "geometry": {
        "type": "Point",
        "coordinates": [13.77189, 47.6417]
      },
      "properties": {
         "id": "pmb106",
         "title": "Seewirt",
         "lat": "47.6417",
         "lon": "13.77189",
         "timestamp": ["1921-08-01", "1921-08-02", "1921-08-03", "1921-08-04", "1921-08-05", "1921-08-06", "1921-08-07", "1921-08-08", "1921-08-09", "1921-08-10", "1921-08-11", "1921-08-12", "1921-08-13", "1921-08-14", "1921-08-15", "1921-08-16", "1921-08-17", "1921-08-18", "1921-08-19", "1921-08-20", "1921-08-21", "1921-08-22", "1921-08-23", "1921-08-24"],
         "importance": "24"
      }
      }, 
    {
      "type": "Feature",
      "geometry": {
        "type": "Point",
        "coordinates": [11.57549, 48.13743]
      },
      "properties": {
         "id": "pmb38129",
         "title": "München",
         "lat": "48.13743",
         "lon": "11.57549",
         "timestamp": ["1921-08-28", "1921-08-29", "1921-08-30", "1921-08-31"],
         "importance": "4"
      }
      }, 
    {
      "type": "Feature",
      "geometry": {
        "type": "Point",
        "coordinates": [13.04532, 47.80067]
      },
      "properties": {
         "id": "pmb30",
         "title": "Salzburg",
         "lat": "47.80067",
         "lon": "13.04532",
         "timestamp": ["1921-08-24", "1921-08-25", "1921-08-26"],
         "importance": "3"
      }
      }, 
    {
      "type": "Feature",
      "geometry": {
        "type": "Point",
        "coordinates": [13.78243, 47.60998]
      },
      "properties": {
         "id": "pmb415",
         "title": "Bad Aussee",
         "lat": "47.60998",
         "lon": "13.78243",
         "timestamp": ["1921-08-01", "1921-08-02", "1921-08-03", "1921-08-04", "1921-08-05", "1921-08-06", "1921-08-07", "1921-08-08", "1921-08-09", "1921-08-10", "1921-08-11", "1921-08-12", "1921-08-13", "1921-08-14", "1921-08-15", "1921-08-16", "1921-08-17", "1921-08-18", "1921-08-19", "1921-08-20", "1921-08-21", "1921-08-22", "1921-08-23", "1921-08-24"],
         "importance": "24"
      }
      }, 
    {
      "type": "Feature",
      "geometry": {
        "type": "Point",
        "coordinates": [13.00187, 47.63236]
      },
      "properties": {
         "id": "pmb797",
         "title": "Berchtesgaden",
         "lat": "47.63236",
         "lon": "13.00187",
         "timestamp": ["1921-08-27", "1921-08-28"],
         "importance": "2"
      }
      }, 
    {
      "type": "Feature",
      "geometry": {
        "type": "Point",
        "coordinates": [13.043401, 47.802045]
      },
      "properties": {
         "id": "pmb230",
         "title": "Österreichischer Hof",
         "lat": "47.802045",
         "lon": "13.043401",
         "timestamp": ["1921-08-24", "1921-08-25", "1921-08-26", "1921-08-27"],
         "importance": "4"
      }
      }, 
    {
      "type": "Feature",
      "geometry": {
        "type": "Point",
        "coordinates": [13.0458, 47.7969]
      },
      "properties": {
         "id": "pmb190287",
         "title": "Stift St Peter",
         "lat": "47.7969",
         "lon": "13.0458",
         "timestamp": ["1921-08-26"],
         "importance": "1"
      }
      }, 
    {
      "type": "Feature",
      "geometry": {
        "type": "Point",
        "coordinates": [13.043904, 47.801903]
      },
      "properties": {
         "id": "pmb181",
         "title": "Café Bazar",
         "lat": "47.801903",
         "lon": "13.043904",
         "timestamp": ["1921-08-26"],
         "importance": "1"
      }
      }, 
    {
      "type": "Feature",
      "geometry": {
        "type": "Point",
        "coordinates": [13.042019, 47.805528]
      },
      "properties": {
         "id": "pmb180",
         "title": "Mirabell",
         "lat": "47.805528",
         "lon": "13.042019",
         "timestamp": ["1921-08-26"],
         "importance": "1"
      }
      }, 
    {
      "type": "Feature",
      "geometry": {
        "type": "Point",
        "coordinates": [13.045, 47.799167]
      },
      "properties": {
         "id": "pmb41187",
         "title": "Café Tomaselli",
         "lat": "47.799167",
         "lon": "13.045",
         "timestamp": ["1921-08-26"],
         "importance": "1"
      }
      }, 
    {
      "type": "Feature",
      "geometry": {
        "type": "Point",
        "coordinates": [11.591944, 48.152778]
      },
      "properties": {
         "id": "pmb706",
         "title": "Englischer Garten [München]",
         "lat": "48.152778",
         "lon": "11.591944",
         "timestamp": ["1921-08-31"],
         "importance": "1"
      }
      }, 
    {
      "type": "Feature",
      "geometry": {
        "type": "Point",
        "coordinates": [13.043176, 47.81233]
      },
      "properties": {
         "id": "pmb152",
         "title": "Grand Hotel de L’Europe, G. Jung",
         "lat": "47.81233",
         "lon": "13.043176",
         "timestamp": ["1921-08-24"],
         "importance": "1"
      }
      }, 
    {
      "type": "Feature",
      "geometry": {
        "type": "Point",
        "coordinates": [13.768578, 47.641641]
      },
      "properties": {
         "id": "pmb186773",
         "title": "Gasthaus zum Hirschen",
         "lat": "47.641641",
         "lon": "13.768578",
         "timestamp": ["1921-08-08", "1921-08-09", "1921-08-10", "1921-08-11", "1921-08-13"],
         "importance": "5"
      }
      }
  ]
}