{
  "type": "FeatureCollection",
  "features": [
    {
      "type": "Feature",
      "geometry": {
        "type": "Point",
        "coordinates": [16.3691, 48.203]
      },
      "properties": {
         "id": "pmb15",
         "title": "Oper",
         "lat": "48.203",
         "lon": "16.3691",
         "timestamp": ["1922-11-21"],
         "importance": "1"
      }
      }, 
    {
      "type": "Feature",
      "geometry": {
        "type": "Point",
        "coordinates": [16.373056, 48.208333]
      },
      "properties": {
         "id": "pmb50",
         "title": "Wien",
         "lat": "48.208333",
         "lon": "16.373056",
         "timestamp": ["1922-11-07", "1922-11-08", "1922-11-09", "1922-11-10", "1922-11-11", "1922-11-12", "1922-11-13", "1922-11-14", "1922-11-15", "1922-11-16", "1922-11-17", "1922-11-18", "1922-11-19", "1922-11-20", "1922-11-21", "1922-11-22", "1922-11-23", "1922-11-24", "1922-11-25", "1922-11-26", "1922-11-27", "1922-11-28", "1922-11-29", "1922-11-30"],
         "importance": "24"
      }
      }, 
    {
      "type": "Feature",
      "geometry": {
        "type": "Point",
        "coordinates": [16.369444, 48.203889]
      },
      "properties": {
         "id": "pmb29",
         "title": "Hotel Sacher",
         "lat": "48.203889",
         "lon": "16.369444",
         "timestamp": ["1922-11-21"],
         "importance": "1"
      }
      }, 
    {
      "type": "Feature",
      "geometry": {
        "type": "Point",
        "coordinates": [16.333568462613, 48.235119783861]
      },
      "properties": {
         "id": "pmb113",
         "title": "Türkenschanzpark",
         "lat": "48.235119783861",
         "lon": "16.333568462613",
         "timestamp": ["1922-11-30"],
         "importance": "1"
      }
      }, 
    {
      "type": "Feature",
      "geometry": {
        "type": "Point",
        "coordinates": [16.339722, 48.192222]
      },
      "properties": {
         "id": "pmb77",
         "title": "Raimund-Theater",
         "lat": "48.192222",
         "lon": "16.339722",
         "timestamp": ["1922-11-13", "1922-11-14", "1922-11-28"],
         "importance": "3"
      }
      }, 
    {
      "type": "Feature",
      "geometry": {
        "type": "Point",
        "coordinates": [16.28606, 48.25849]
      },
      "properties": {
         "id": "pmb537",
         "title": "Dreimarkstein [Wien]",
         "lat": "48.25849",
         "lon": "16.28606",
         "timestamp": ["1922-11-15"],
         "importance": "1"
      }
      }, 
    {
      "type": "Feature",
      "geometry": {
        "type": "Point",
        "coordinates": [13.82451, 50.6404]
      },
      "properties": {
         "id": "pmb955",
         "title": "Teplice",
         "lat": "50.6404",
         "lon": "13.82451",
         "timestamp": ["1922-11-05"],
         "importance": "1"
      }
      }, 
    {
      "type": "Feature",
      "geometry": {
        "type": "Point",
        "coordinates": [16.350361, 48.224472]
      },
      "properties": {
         "id": "pmb28",
         "title": "Volksoper",
         "lat": "48.224472",
         "lon": "16.350361",
         "timestamp": ["1922-11-11"],
         "importance": "1"
      }
      }, 
    {
      "type": "Feature",
      "geometry": {
        "type": "Point",
        "coordinates": [16.296768550115, 48.248935842869]
      },
      "properties": {
         "id": "pmb243",
         "title": "Sommerhaidenweg",
         "lat": "48.248935842869",
         "lon": "16.296768550115",
         "timestamp": ["1922-11-25"],
         "importance": "1"
      }
      }, 
    {
      "type": "Feature",
      "geometry": {
        "type": "Point",
        "coordinates": [16.3589845, 48.2195962]
      },
      "properties": {
         "id": "pmb34399",
         "title": "Neue Wiener Bühne",
         "lat": "48.2195962",
         "lon": "16.3589845",
         "timestamp": ["1922-11-16", "1922-11-18"],
         "importance": "2"
      }
      }, 
    {
      "type": "Feature",
      "geometry": {
        "type": "Point",
        "coordinates": [16.383547, 48.214368]
      },
      "properties": {
         "id": "pmb92488",
         "title": "Rolandbühne",
         "lat": "48.214368",
         "lon": "16.383547",
         "timestamp": ["1922-11-10"],
         "importance": "1"
      }
      }, 
    {
      "type": "Feature",
      "geometry": {
        "type": "Point",
        "coordinates": [13.19159, 51.40574]
      },
      "properties": {
         "id": "pmb90286",
         "title": "Außig",
         "lat": "51.40574",
         "lon": "13.19159",
         "timestamp": ["1922-11-01", "1922-11-05", "1922-11-06"],
         "importance": "3"
      }
      }, 
    {
      "type": "Feature",
      "geometry": {
        "type": "Point",
        "coordinates": [15.08238888888889, 50.78066666666667]
      },
      "properties": {
         "id": "pmb183490",
         "title": "Lesní divadlo Lidové sady",
         "lat": "50.78066666666667",
         "lon": "15.08238888888889",
         "timestamp": ["1922-11-02"],
         "importance": "1"
      }
      }, 
    {
      "type": "Feature",
      "geometry": {
        "type": "Point",
        "coordinates": [15.05619, 50.76711]
      },
      "properties": {
         "id": "pmb8622",
         "title": "Liberec",
         "lat": "50.76711",
         "lon": "15.05619",
         "timestamp": ["1922-11-03"],
         "importance": "1"
      }
      }, 
    {
      "type": "Feature",
      "geometry": {
        "type": "Point",
        "coordinates": [13.835923, 50.641038]
      },
      "properties": {
         "id": "pmb183493",
         "title": "Lipový dvůr",
         "lat": "50.641038",
         "lon": "13.835923",
         "timestamp": ["1922-11-03"],
         "importance": "1"
      }
      }
  ]
}