{
  "type": "FeatureCollection",
  "features": [
    {
      "type": "Feature",
      "geometry": {
        "type": "Point",
        "coordinates": [16.372564182283, 48.201265597319]
      },
      "properties": {
         "id": "pmb516",
         "title": "Musikverein",
         "lat": "48.201265597319",
         "lon": "16.372564182283",
         "timestamp": ["1922-02-06"],
         "importance": "1"
      }
      }, 
    {
      "type": "Feature",
      "geometry": {
        "type": "Point",
        "coordinates": [16.3691, 48.203]
      },
      "properties": {
         "id": "pmb15",
         "title": "Oper",
         "lat": "48.203",
         "lon": "16.3691",
         "timestamp": ["1922-10-03", "1922-11-21"],
         "importance": "2"
      }
      }, 
    {
      "type": "Feature",
      "geometry": {
        "type": "Point",
        "coordinates": [16.3642, 48.19941]
      },
      "properties": {
         "id": "pmb37",
         "title": "Theater an der Wien",
         "lat": "48.19941",
         "lon": "16.3642",
         "timestamp": ["1922-01-02"],
         "importance": "1"
      }
      }, 
    {
      "type": "Feature",
      "geometry": {
        "type": "Point",
        "coordinates": [16.373056, 48.208333]
      },
      "properties": {
         "id": "pmb50",
         "title": "Wien",
         "lat": "48.208333",
         "lon": "16.373056",
         "timestamp": ["1922-01-01", "1922-01-02", "1922-01-03", "1922-01-04", "1922-01-05", "1922-01-06", "1922-01-07", "1922-01-08", "1922-01-09", "1922-01-11", "1922-01-12", "1922-01-13", "1922-01-14", "1922-01-15", "1922-01-16", "1922-01-17", "1922-01-18", "1922-01-19", "1922-01-20", "1922-01-21", "1922-01-22", "1922-01-23", "1922-01-24", "1922-01-25", "1922-01-26", "1922-01-27", "1922-01-28", "1922-01-29", "1922-01-30", "1922-01-31", "1922-02-01", "1922-02-02", "1922-02-03", "1922-02-04", "1922-02-06", "1922-02-07", "1922-02-08", "1922-02-09", "1922-02-10", "1922-02-11", "1922-02-12", "1922-02-13", "1922-02-14", "1922-02-15", "1922-02-16", "1922-02-17", "1922-02-18", "1922-02-19", "1922-02-20", "1922-02-21", "1922-02-22", "1922-02-23", "1922-02-24", "1922-02-25", "1922-02-26", "1922-02-27", "1922-02-28", "1922-03-01", "1922-03-02", "1922-03-03", "1922-03-04", "1922-03-05", "1922-03-06", "1922-03-07", "1922-03-08", "1922-03-09", "1922-03-10", "1922-03-11", "1922-03-12", "1922-03-13", "1922-03-14", "1922-03-15", "1922-03-16", "1922-03-17", "1922-03-18", "1922-03-20", "1922-03-21", "1922-03-22", "1922-03-23", "1922-03-24", "1922-03-25", "1922-03-26", "1922-03-27", "1922-03-28", "1922-03-29", "1922-03-30", "1922-03-31", "1922-04-01", "1922-04-02", "1922-04-03", "1922-04-04", "1922-04-05", "1922-04-06", "1922-04-07", "1922-04-08", "1922-04-09", "1922-04-10", "1922-04-11", "1922-04-12", "1922-04-13", "1922-04-14", "1922-04-15", "1922-04-16", "1922-04-17", "1922-04-18", "1922-05-20", "1922-05-21", "1922-05-22", "1922-05-24", "1922-05-25", "1922-05-26", "1922-05-27", "1922-05-29", "1922-05-30", "1922-05-31", "1922-06-01", "1922-06-02", "1922-06-03", "1922-06-04", "1922-06-05", "1922-06-06", "1922-06-07", "1922-06-12", "1922-06-13", "1922-06-14", "1922-06-15", "1922-06-16", "1922-06-17", "1922-06-18", "1922-06-19", "1922-06-20", "1922-06-21", "1922-06-22", "1922-06-23", "1922-06-24", "1922-06-25", "1922-06-26", "1922-06-27", "1922-06-28", "1922-06-29", "1922-06-30", "1922-07-01", "1922-07-02", "1922-07-03", "1922-07-04", "1922-07-08", "1922-07-09", "1922-07-10", "1922-07-11", "1922-07-12", "1922-07-13", "1922-07-14", "1922-07-15", "1922-07-16", "1922-07-17", "1922-07-18", "1922-07-22", "1922-07-23", "1922-07-24", "1922-07-25", "1922-09-15", "1922-09-16", "1922-09-17", "1922-09-18", "1922-09-19", "1922-09-20", "1922-09-21", "1922-09-22", "1922-09-23", "1922-09-24", "1922-09-25", "1922-09-26", "1922-09-27", "1922-09-28", "1922-09-29", "1922-09-30", "1922-10-01", "1922-10-02", "1922-10-03", "1922-10-04", "1922-10-05", "1922-10-06", "1922-10-07", "1922-10-08", "1922-10-09", "1922-10-10", "1922-10-11", "1922-10-12", "1922-10-13", "1922-10-14", "1922-10-15", "1922-10-16", "1922-10-17", "1922-10-18", "1922-10-19", "1922-10-20", "1922-10-21", "1922-10-22", "1922-10-23", "1922-11-07", "1922-11-08", "1922-11-09", "1922-11-10", "1922-11-11", "1922-11-12", "1922-11-13", "1922-11-14", "1922-11-15", "1922-11-16", "1922-11-17", "1922-11-18", "1922-11-19", "1922-11-20", "1922-11-21", "1922-11-22", "1922-11-23", "1922-11-24", "1922-11-25", "1922-11-26", "1922-11-27", "1922-11-28", "1922-11-29", "1922-11-30", "1922-12-01", "1922-12-02", "1922-12-03", "1922-12-04", "1922-12-05", "1922-12-06", "1922-12-07", "1922-12-08", "1922-12-09", "1922-12-10", "1922-12-11", "1922-12-12", "1922-12-13", "1922-12-14", "1922-12-15", "1922-12-16", "1922-12-17", "1922-12-18", "1922-12-19", "1922-12-20", "1922-12-21", "1922-12-22", "1922-12-23", "1922-12-24", "1922-12-25", "1922-12-26", "1922-12-27", "1922-12-28", "1922-12-29", "1922-12-30", "1922-12-31"],
         "importance": "254"
      }
      }, 
    {
      "type": "Feature",
      "geometry": {
        "type": "Point",
        "coordinates": [4.88969, 52.37403]
      },
      "properties": {
         "id": "pmb40709",
         "title": "Amsterdam",
         "lat": "52.37403",
         "lon": "4.88969",
         "timestamp": ["1922-05-04"],
         "importance": "1"
      }
      }, 
    {
      "type": "Feature",
      "geometry": {
        "type": "Point",
        "coordinates": [4.29861, 52.07667]
      },
      "properties": {
         "id": "pmb974",
         "title": "Den Haag",
         "lat": "52.07667",
         "lon": "4.29861",
         "timestamp": ["1922-04-26", "1922-04-28", "1922-04-30", "1922-05-02", "1922-05-03", "1922-05-04", "1922-05-05", "1922-05-06"],
         "importance": "8"
      }
      }, 
    {
      "type": "Feature",
      "geometry": {
        "type": "Point",
        "coordinates": [4.27557, 52.10461]
      },
      "properties": {
         "id": "pmb1162",
         "title": "Scheveningen",
         "lat": "52.10461",
         "lon": "4.27557",
         "timestamp": ["1922-05-01"],
         "importance": "1"
      }
      }, 
    {
      "type": "Feature",
      "geometry": {
        "type": "Point",
        "coordinates": [11.57549, 48.13743]
      },
      "properties": {
         "id": "pmb38129",
         "title": "München",
         "lat": "48.13743",
         "lon": "11.57549",
         "timestamp": ["1922-04-19", "1922-04-20", "1922-04-24", "1922-04-25", "1922-05-18", "1922-05-19", "1922-07-26"],
         "importance": "7"
      }
      }, 
    {
      "type": "Feature",
      "geometry": {
        "type": "Point",
        "coordinates": [16.361139, 48.210333]
      },
      "properties": {
         "id": "pmb14",
         "title": "Burgtheater",
         "lat": "48.210333",
         "lon": "16.361139",
         "timestamp": ["1922-01-11", "1922-01-21", "1922-01-24", "1922-02-15", "1922-05-25", "1922-10-13"],
         "importance": "6"
      }
      }, 
    {
      "type": "Feature",
      "geometry": {
        "type": "Point",
        "coordinates": [16.391263, 48.206662]
      },
      "properties": {
         "id": "pmb107",
         "title": "Sofiensäle",
         "lat": "48.206662",
         "lon": "16.391263",
         "timestamp": ["1922-10-04"],
         "importance": "1"
      }
      }, 
    {
      "type": "Feature",
      "geometry": {
        "type": "Point",
        "coordinates": [16.36678, 48.20608]
      },
      "properties": {
         "id": "pmb828",
         "title": "Nationalbibliothek",
         "lat": "48.20608",
         "lon": "16.36678",
         "timestamp": ["1922-04-15", "1922-06-21"],
         "importance": "2"
      }
      }, 
    {
      "type": "Feature",
      "geometry": {
        "type": "Point",
        "coordinates": [16.388608096065, 48.229100570727]
      },
      "properties": {
         "id": "pmb426",
         "title": "Nordbahnhof",
         "lat": "48.229100570727",
         "lon": "16.388608096065",
         "timestamp": ["1922-10-23", "1922-10-24"],
         "importance": "2"
      }
      }, 
    {
      "type": "Feature",
      "geometry": {
        "type": "Point",
        "coordinates": [16.299116267833, 48.230916826952]
      },
      "properties": {
         "id": "pmb499",
         "title": "Dornbach",
         "lat": "48.230916826952",
         "lon": "16.299116267833",
         "timestamp": ["1922-02-12", "1922-03-19", "1922-07-12"],
         "importance": "3"
      }
      }, 
    {
      "type": "Feature",
      "geometry": {
        "type": "Point",
        "coordinates": [13.41053, 52.52437]
      },
      "properties": {
         "id": "pmb168",
         "title": "Berlin",
         "lat": "52.52437",
         "lon": "13.41053",
         "timestamp": ["1922-05-10", "1922-05-12", "1922-05-14"],
         "importance": "3"
      }
      }, 
    {
      "type": "Feature",
      "geometry": {
        "type": "Point",
        "coordinates": [13.00187, 47.63236]
      },
      "properties": {
         "id": "pmb797",
         "title": "Berchtesgaden",
         "lat": "47.63236",
         "lon": "13.00187",
         "timestamp": ["1922-08-09", "1922-08-10", "1922-08-11", "1922-08-12", "1922-08-13", "1922-08-14", "1922-08-15", "1922-08-16", "1922-08-17", "1922-08-18", "1922-08-19", "1922-08-20", "1922-08-21", "1922-08-22", "1922-08-23", "1922-08-24", "1922-08-25", "1922-08-26", "1922-08-27", "1922-08-28", "1922-08-29", "1922-08-30", "1922-08-31", "1922-09-01", "1922-09-02", "1922-09-03", "1922-09-04", "1922-09-05", "1922-09-06", "1922-09-07", "1922-09-08", "1922-09-09", "1922-09-10", "1922-09-11", "1922-09-12", "1922-09-13", "1922-09-14", "1922-09-15"],
         "importance": "38"
      }
      }, 
    {
      "type": "Feature",
      "geometry": {
        "type": "Point",
        "coordinates": [12.97802, 47.55567]
      },
      "properties": {
         "id": "pmb91054",
         "title": "Königssee",
         "lat": "47.55567",
         "lon": "12.97802",
         "timestamp": ["1922-08-22"],
         "importance": "1"
      }
      }, 
    {
      "type": "Feature",
      "geometry": {
        "type": "Point",
        "coordinates": [16.355191, 48.248422]
      },
      "properties": {
         "id": "pmb92292",
         "title": "Hohe Warte",
         "lat": "48.248422",
         "lon": "16.355191",
         "timestamp": ["1922-02-05", "1922-05-23", "1922-05-28"],
         "importance": "3"
      }
      }, 
    {
      "type": "Feature",
      "geometry": {
        "type": "Point",
        "coordinates": [16.275701, 48.219421]
      },
      "properties": {
         "id": "pmb90687",
         "title": "Gallitzinberg",
         "lat": "48.219421",
         "lon": "16.275701",
         "timestamp": ["1922-03-19"],
         "importance": "1"
      }
      }, 
    {
      "type": "Feature",
      "geometry": {
        "type": "Point",
        "coordinates": [16.371667, 48.200556]
      },
      "properties": {
         "id": "pmb21",
         "title": "Künstlerhaus",
         "lat": "48.200556",
         "lon": "16.371667",
         "timestamp": ["1922-02-14"],
         "importance": "1"
      }
      }, 
    {
      "type": "Feature",
      "geometry": {
        "type": "Point",
        "coordinates": [16.369444, 48.203889]
      },
      "properties": {
         "id": "pmb29",
         "title": "Hotel Sacher",
         "lat": "48.203889",
         "lon": "16.369444",
         "timestamp": ["1922-03-18", "1922-10-03", "1922-11-21"],
         "importance": "3"
      }
      }, 
    {
      "type": "Feature",
      "geometry": {
        "type": "Point",
        "coordinates": [16.379829498031, 48.187455471378]
      },
      "properties": {
         "id": "pmb132",
         "title": "Südbahnhof",
         "lat": "48.187455471378",
         "lon": "16.379829498031",
         "timestamp": ["1922-07-21"],
         "importance": "1"
      }
      }, 
    {
      "type": "Feature",
      "geometry": {
        "type": "Point",
        "coordinates": [13.392222, 52.513611]
      },
      "properties": {
         "id": "pmb143",
         "title": "Schauspielhaus Berlin",
         "lat": "52.513611",
         "lon": "13.392222",
         "timestamp": ["1922-05-11"],
         "importance": "1"
      }
      }, 
    {
      "type": "Feature",
      "geometry": {
        "type": "Point",
        "coordinates": [16.337778, 48.196667]
      },
      "properties": {
         "id": "pmb184918",
         "title": "Westbahnhof",
         "lat": "48.196667",
         "lon": "16.337778",
         "timestamp": ["1922-01-06", "1922-07-02"],
         "importance": "2"
      }
      }, 
    {
      "type": "Feature",
      "geometry": {
        "type": "Point",
        "coordinates": [16.3566, 48.205142]
      },
      "properties": {
         "id": "pmb20",
         "title": "Volkstheater",
         "lat": "48.205142",
         "lon": "16.3566",
         "timestamp": ["1922-01-20", "1922-12-20", "1922-12-23"],
         "importance": "3"
      }
      }, 
    {
      "type": "Feature",
      "geometry": {
        "type": "Point",
        "coordinates": [16.3576, 48.21071]
      },
      "properties": {
         "id": "pmb373",
         "title": "Rathaus",
         "lat": "48.21071",
         "lon": "16.3576",
         "timestamp": ["1922-10-04"],
         "importance": "1"
      }
      }, 
    {
      "type": "Feature",
      "geometry": {
        "type": "Point",
        "coordinates": [16.36471, 48.200556]
      },
      "properties": {
         "id": "pmb97",
         "title": "Zum Weingartl",
         "lat": "48.200556",
         "lon": "16.36471",
         "timestamp": ["1922-01-02"],
         "importance": "1"
      }
      }, 
    {
      "type": "Feature",
      "geometry": {
        "type": "Point",
        "coordinates": [16.371211, 48.206416]
      },
      "properties": {
         "id": "pmb96",
         "title": "Meissl & Schadn",
         "lat": "48.206416",
         "lon": "16.371211",
         "timestamp": ["1922-12-01"],
         "importance": "1"
      }
      }, 
    {
      "type": "Feature",
      "geometry": {
        "type": "Point",
        "coordinates": [16.60796, 49.19522]
      },
      "properties": {
         "id": "pmb833",
         "title": "Brünn",
         "lat": "49.19522",
         "lon": "16.60796",
         "timestamp": ["1922-10-26"],
         "importance": "1"
      }
      }, 
    {
      "type": "Feature",
      "geometry": {
        "type": "Point",
        "coordinates": [16.333568462613, 48.235119783861]
      },
      "properties": {
         "id": "pmb113",
         "title": "Türkenschanzpark",
         "lat": "48.235119783861",
         "lon": "16.333568462613",
         "timestamp": ["1922-01-01", "1922-04-14", "1922-06-06", "1922-07-07", "1922-09-21", "1922-09-26", "1922-10-11", "1922-11-30"],
         "importance": "8"
      }
      }, 
    {
      "type": "Feature",
      "geometry": {
        "type": "Point",
        "coordinates": [16.276509500872, 48.241960480337]
      },
      "properties": {
         "id": "pmb176",
         "title": "Schwarzenbergpark",
         "lat": "48.241960480337",
         "lon": "16.276509500872",
         "timestamp": ["1922-06-05", "1922-12-17"],
         "importance": "2"
      }
      }, 
    {
      "type": "Feature",
      "geometry": {
        "type": "Point",
        "coordinates": [15.460869, 47.084328]
      },
      "properties": {
         "id": "pmb192816",
         "title": "Hilmteich",
         "lat": "47.084328",
         "lon": "15.460869",
         "timestamp": ["1922-06-09"],
         "importance": "1"
      }
      }, 
    {
      "type": "Feature",
      "geometry": {
        "type": "Point",
        "coordinates": [15.43333, 47.06667]
      },
      "properties": {
         "id": "pmb860",
         "title": "Graz",
         "lat": "47.06667",
         "lon": "15.43333",
         "timestamp": ["1922-06-10"],
         "importance": "1"
      }
      }, 
    {
      "type": "Feature",
      "geometry": {
        "type": "Point",
        "coordinates": [16.339722, 48.192222]
      },
      "properties": {
         "id": "pmb77",
         "title": "Raimund-Theater",
         "lat": "48.192222",
         "lon": "16.339722",
         "timestamp": ["1922-03-10", "1922-05-27", "1922-06-12", "1922-06-13", "1922-09-20", "1922-09-22", "1922-10-13", "1922-11-13", "1922-11-14", "1922-11-28", "1922-12-09", "1922-12-22", "1922-12-31"],
         "importance": "13"
      }
      }, 
    {
      "type": "Feature",
      "geometry": {
        "type": "Point",
        "coordinates": [15.8634, 47.69209]
      },
      "properties": {
         "id": "pmb948",
         "title": "Payerbach",
         "lat": "47.69209",
         "lon": "15.8634",
         "timestamp": ["1922-07-19", "1922-07-20"],
         "importance": "2"
      }
      }, 
    {
      "type": "Feature",
      "geometry": {
        "type": "Point",
        "coordinates": [11.571111, 48.148333]
      },
      "properties": {
         "id": "pmb511",
         "title": "Alte Pinakothek",
         "lat": "48.148333",
         "lon": "11.571111",
         "timestamp": ["1922-04-22"],
         "importance": "1"
      }
      }, 
    {
      "type": "Feature",
      "geometry": {
        "type": "Point",
        "coordinates": [11.571111, 48.149722]
      },
      "properties": {
         "id": "pmb101",
         "title": "Neue Pinakothek",
         "lat": "48.149722",
         "lon": "11.571111",
         "timestamp": ["1922-04-23"],
         "importance": "1"
      }
      }, 
    {
      "type": "Feature",
      "geometry": {
        "type": "Point",
        "coordinates": [16.258056, 48.201667]
      },
      "properties": {
         "id": "pmb271",
         "title": "Hütteldorf",
         "lat": "48.201667",
         "lon": "16.258056",
         "timestamp": ["1922-02-12"],
         "importance": "1"
      }
      }, 
    {
      "type": "Feature",
      "geometry": {
        "type": "Point",
        "coordinates": [11.591944, 48.152778]
      },
      "properties": {
         "id": "pmb706",
         "title": "Englischer Garten [München]",
         "lat": "48.152778",
         "lon": "11.591944",
         "timestamp": ["1922-05-16"],
         "importance": "1"
      }
      }, 
    {
      "type": "Feature",
      "geometry": {
        "type": "Point",
        "coordinates": [14.46667, 50.08333]
      },
      "properties": {
         "id": "pmb652",
         "title": "Prag",
         "lat": "50.08333",
         "lon": "14.46667",
         "timestamp": ["1922-10-25", "1922-10-26", "1922-10-28", "1922-10-29", "1922-10-30", "1922-10-31"],
         "importance": "6"
      }
      }, 
    {
      "type": "Feature",
      "geometry": {
        "type": "Point",
        "coordinates": [16.347492624475, 48.216264483348]
      },
      "properties": {
         "id": "pmb89",
         "title": "Sanatorium Loew",
         "lat": "48.216264483348",
         "lon": "16.347492624475",
         "timestamp": ["1922-10-23"],
         "importance": "1"
      }
      }, 
    {
      "type": "Feature",
      "geometry": {
        "type": "Point",
        "coordinates": [16.287997, 48.217079]
      },
      "properties": {
         "id": "pmb92374",
         "title": "Liebhartstal",
         "lat": "48.217079",
         "lon": "16.287997",
         "timestamp": ["1922-03-19"],
         "importance": "1"
      }
      }, 
    {
      "type": "Feature",
      "geometry": {
        "type": "Point",
        "coordinates": [16.382345, 48.213801]
      },
      "properties": {
         "id": "pmb92189",
         "title": "Zirkusgasse",
         "lat": "48.213801",
         "lon": "16.382345",
         "timestamp": ["1922-10-23"],
         "importance": "1"
      }
      }, 
    {
      "type": "Feature",
      "geometry": {
        "type": "Point",
        "coordinates": [15.43778, 47.07673]
      },
      "properties": {
         "id": "pmb91689",
         "title": "Schlossberg",
         "lat": "47.07673",
         "lon": "15.43778",
         "timestamp": ["1922-06-09"],
         "importance": "1"
      }
      }, 
    {
      "type": "Feature",
      "geometry": {
        "type": "Point",
        "coordinates": [15.479915, 47.088633]
      },
      "properties": {
         "id": "pmb92551",
         "title": "Stifting",
         "lat": "47.088633",
         "lon": "15.479915",
         "timestamp": ["1922-06-09"],
         "importance": "1"
      }
      }, 
    {
      "type": "Feature",
      "geometry": {
        "type": "Point",
        "coordinates": [11.561467767769052, 48.13907960520144]
      },
      "properties": {
         "id": "pmb806",
         "title": "Hotel Rheinischer Hof München",
         "lat": "48.13907960520144",
         "lon": "11.561467767769052",
         "timestamp": ["1922-08-05", "1922-08-06", "1922-08-07", "1922-08-08", "1922-08-09", "1922-08-10"],
         "importance": "6"
      }
      }, 
    {
      "type": "Feature",
      "geometry": {
        "type": "Point",
        "coordinates": [11.07752, 49.45421]
      },
      "properties": {
         "id": "pmb44172",
         "title": "Nürnberg",
         "lat": "49.45421",
         "lon": "11.07752",
         "timestamp": ["1922-05-15", "1922-05-16"],
         "importance": "2"
      }
      }, 
    {
      "type": "Feature",
      "geometry": {
        "type": "Point",
        "coordinates": [16.23036, 48.246719]
      },
      "properties": {
         "id": "pmb539",
         "title": "Sophienalpe",
         "lat": "48.246719",
         "lon": "16.23036",
         "timestamp": ["1922-06-18"],
         "importance": "1"
      }
      }, 
    {
      "type": "Feature",
      "geometry": {
        "type": "Point",
        "coordinates": [16.322222222222, 48.263611111111]
      },
      "properties": {
         "id": "pmb194903",
         "title": "Am Kobenzl",
         "lat": "48.263611111111",
         "lon": "16.322222222222",
         "timestamp": ["1922-02-05", "1922-02-19", "1922-04-16", "1922-12-10"],
         "importance": "4"
      }
      }, 
    {
      "type": "Feature",
      "geometry": {
        "type": "Point",
        "coordinates": [16.2911, 48.2553]
      },
      "properties": {
         "id": "pmb242",
         "title": "Salmannsdorf",
         "lat": "48.2553",
         "lon": "16.2911",
         "timestamp": ["1922-01-01", "1922-01-22", "1922-06-04", "1922-06-05", "1922-07-22"],
         "importance": "5"
      }
      }, 
    {
      "type": "Feature",
      "geometry": {
        "type": "Point",
        "coordinates": [16.31268, 48.2629]
      },
      "properties": {
         "id": "pmb285",
         "title": "Am Himmel",
         "lat": "48.2629",
         "lon": "16.31268",
         "timestamp": ["1922-02-05", "1922-04-16", "1922-12-10"],
         "importance": "3"
      }
      }, 
    {
      "type": "Feature",
      "geometry": {
        "type": "Point",
        "coordinates": [15.85924, 47.68741]
      },
      "properties": {
         "id": "pmb231692",
         "title": "Payberbachgraben",
         "lat": "47.68741",
         "lon": "15.85924",
         "timestamp": ["1922-07-21"],
         "importance": "1"
      }
      }, 
    {
      "type": "Feature",
      "geometry": {
        "type": "Point",
        "coordinates": [13.390802, 52.515323]
      },
      "properties": {
         "id": "pmb231778",
         "title": "Lutter & Wegner",
         "lat": "52.515323",
         "lon": "13.390802",
         "timestamp": ["1922-05-13"],
         "importance": "1"
      }
      }, 
    {
      "type": "Feature",
      "geometry": {
        "type": "Point",
        "coordinates": [16.29273, 48.23975]
      },
      "properties": {
         "id": "pmb532",
         "title": "Schafberg [Wien|",
         "lat": "48.23975",
         "lon": "16.29273",
         "timestamp": ["1922-01-06", "1922-03-12", "1922-06-15", "1922-06-29", "1922-07-09"],
         "importance": "5"
      }
      }, 
    {
      "type": "Feature",
      "geometry": {
        "type": "Point",
        "coordinates": [16.320719, 48.238032]
      },
      "properties": {
         "id": "pmb248",
         "title": "Kratzer’s Restaurant Gersthof",
         "lat": "48.238032",
         "lon": "16.320719",
         "timestamp": ["1922-05-22", "1922-06-02", "1922-07-08", "1922-07-22"],
         "importance": "4"
      }
      }, 
    {
      "type": "Feature",
      "geometry": {
        "type": "Point",
        "coordinates": [16.606667, 49.199167]
      },
      "properties": {
         "id": "pmb437",
         "title": "Deutsches Haus [Brünn]",
         "lat": "49.199167",
         "lon": "16.606667",
         "timestamp": ["1922-10-25"],
         "importance": "1"
      }
      }, 
    {
      "type": "Feature",
      "geometry": {
        "type": "Point",
        "coordinates": [16.28606, 48.25849]
      },
      "properties": {
         "id": "pmb537",
         "title": "Dreimarkstein [Wien]",
         "lat": "48.25849",
         "lon": "16.28606",
         "timestamp": ["1922-01-08", "1922-03-05", "1922-03-26", "1922-04-02", "1922-05-21", "1922-06-18", "1922-11-15"],
         "importance": "7"
      }
      }, 
    {
      "type": "Feature",
      "geometry": {
        "type": "Point",
        "coordinates": [16.374224, 48.205181]
      },
      "properties": {
         "id": "pmb236225",
         "title": "Josef Nigst & Sohn, Taschner",
         "lat": "48.205181",
         "lon": "16.374224",
         "timestamp": ["1922-04-11"],
         "importance": "1"
      }
      }, 
    {
      "type": "Feature",
      "geometry": {
        "type": "Point",
        "coordinates": [13.82451, 50.6404]
      },
      "properties": {
         "id": "pmb955",
         "title": "Teplice",
         "lat": "50.6404",
         "lon": "13.82451",
         "timestamp": ["1922-11-05"],
         "importance": "1"
      }
      }, 
    {
      "type": "Feature",
      "geometry": {
        "type": "Point",
        "coordinates": [16.3957, 48.21766]
      },
      "properties": {
         "id": "pmb1209",
         "title": "Lustspieltheater [Wien]",
         "lat": "48.21766",
         "lon": "16.3957",
         "timestamp": ["1922-01-10"],
         "importance": "1"
      }
      }, 
    {
      "type": "Feature",
      "geometry": {
        "type": "Point",
        "coordinates": [16.350361, 48.224472]
      },
      "properties": {
         "id": "pmb28",
         "title": "Volksoper",
         "lat": "48.224472",
         "lon": "16.350361",
         "timestamp": ["1922-11-11"],
         "importance": "1"
      }
      }, 
    {
      "type": "Feature",
      "geometry": {
        "type": "Point",
        "coordinates": [16.296768550115, 48.248935842869]
      },
      "properties": {
         "id": "pmb243",
         "title": "Sommerhaidenweg",
         "lat": "48.248935842869",
         "lon": "16.296768550115",
         "timestamp": ["1922-01-01", "1922-01-22", "1922-01-29", "1922-07-21", "1922-07-22", "1922-11-25"],
         "importance": "6"
      }
      }, 
    {
      "type": "Feature",
      "geometry": {
        "type": "Point",
        "coordinates": [16.368528, 48.202028]
      },
      "properties": {
         "id": "pmb86",
         "title": "Backhausen Joh. & Söhne, Möbelstoffe, Teppiche, Tisch- und Bettdecken",
         "lat": "48.202028",
         "lon": "16.368528",
         "timestamp": ["1922-05-27"],
         "importance": "1"
      }
      }, 
    {
      "type": "Feature",
      "geometry": {
        "type": "Point",
        "coordinates": [16.3589845, 48.2195962]
      },
      "properties": {
         "id": "pmb34399",
         "title": "Neue Wiener Bühne",
         "lat": "48.2195962",
         "lon": "16.3589845",
         "timestamp": ["1922-01-16", "1922-02-04", "1922-11-16", "1922-11-18"],
         "importance": "4"
      }
      }, 
    {
      "type": "Feature",
      "geometry": {
        "type": "Point",
        "coordinates": [15.81667, 47.66667]
      },
      "properties": {
         "id": "pmb91067",
         "title": "Kreuzberg [Breitenstein]",
         "lat": "47.66667",
         "lon": "15.81667",
         "timestamp": ["1922-07-20", "1922-07-21"],
         "importance": "2"
      }
      }, 
    {
      "type": "Feature",
      "geometry": {
        "type": "Point",
        "coordinates": [16.03425, 47.51062]
      },
      "properties": {
         "id": "pmb91274",
         "title": "Mönichkirchen",
         "lat": "47.51062",
         "lon": "16.03425",
         "timestamp": ["1922-07-05", "1922-07-06"],
         "importance": "2"
      }
      }, 
    {
      "type": "Feature",
      "geometry": {
        "type": "Point",
        "coordinates": [13.043176, 47.81233]
      },
      "properties": {
         "id": "pmb152",
         "title": "Grand Hotel de L’Europe, G. Jung",
         "lat": "47.81233",
         "lon": "13.043176",
         "timestamp": ["1922-09-15"],
         "importance": "1"
      }
      }, 
    {
      "type": "Feature",
      "geometry": {
        "type": "Point",
        "coordinates": [16.375833, 48.211111]
      },
      "properties": {
         "id": "pmb633",
         "title": "Kammerspiele Wien",
         "lat": "48.211111",
         "lon": "16.375833",
         "timestamp": ["1922-12-01"],
         "importance": "1"
      }
      }, 
    {
      "type": "Feature",
      "geometry": {
        "type": "Point",
        "coordinates": [16.2387111, 48.239965]
      },
      "properties": {
         "id": "pmb551",
         "title": "Rieglerhütte",
         "lat": "48.239965",
         "lon": "16.2387111",
         "timestamp": ["1922-06-18"],
         "importance": "1"
      }
      }, 
    {
      "type": "Feature",
      "geometry": {
        "type": "Point",
        "coordinates": [16.377117625773, 48.200254933632]
      },
      "properties": {
         "id": "pmb520",
         "title": "Akademietheater",
         "lat": "48.200254933632",
         "lon": "16.377117625773",
         "timestamp": ["1922-04-11", "1922-06-24", "1922-07-04"],
         "importance": "3"
      }
      }, 
    {
      "type": "Feature",
      "geometry": {
        "type": "Point",
        "coordinates": [16.383547, 48.214368]
      },
      "properties": {
         "id": "pmb92488",
         "title": "Rolandbühne",
         "lat": "48.214368",
         "lon": "16.383547",
         "timestamp": ["1922-11-10", "1922-12-19"],
         "importance": "2"
      }
      }, 
    {
      "type": "Feature",
      "geometry": {
        "type": "Point",
        "coordinates": [11.553336, 48.145952]
      },
      "properties": {
         "id": "pmb186796",
         "title": "Spatenbräu",
         "lat": "48.145952",
         "lon": "11.553336",
         "timestamp": ["1922-04-21", "1922-04-23", "1922-05-17", "1922-08-08"],
         "importance": "4"
      }
      }, 
    {
      "type": "Feature",
      "geometry": {
        "type": "Point",
        "coordinates": [16.366551, 48.206783]
      },
      "properties": {
         "id": "pmb48198",
         "title": "Redoutensaal",
         "lat": "48.206783",
         "lon": "16.366551",
         "timestamp": ["1922-04-03", "1922-09-16", "1922-09-17", "1922-09-19", "1922-09-29", "1922-10-16"],
         "importance": "6"
      }
      }, 
    {
      "type": "Feature",
      "geometry": {
        "type": "Point",
        "coordinates": [16.361544, 48.211538]
      },
      "properties": {
         "id": "pmb48191",
         "title": "Oppolzergasse",
         "lat": "48.211538",
         "lon": "16.361544",
         "timestamp": ["1922-02-03"],
         "importance": "1"
      }
      }, 
    {
      "type": "Feature",
      "geometry": {
        "type": "Point",
        "coordinates": [16.3734, 48.1809]
      },
      "properties": {
         "id": "pmb185942",
         "title": "Arbeiterheim Favoriten",
         "lat": "48.1809",
         "lon": "16.3734",
         "timestamp": ["1922-03-12"],
         "importance": "1"
      }
      }, 
    {
      "type": "Feature",
      "geometry": {
        "type": "Point",
        "coordinates": [11.5711, 48.1358]
      },
      "properties": {
         "id": "pmb92467",
         "title": "Pschorrbräu",
         "lat": "48.1358",
         "lon": "11.5711",
         "timestamp": ["1922-04-21", "1922-08-07"],
         "importance": "2"
      }
      }, 
    {
      "type": "Feature",
      "geometry": {
        "type": "Point",
        "coordinates": [4.47917, 51.9225]
      },
      "properties": {
         "id": "pmb1146",
         "title": "Rotterdam",
         "lat": "51.9225",
         "lon": "4.47917",
         "timestamp": ["1922-04-26"],
         "importance": "1"
      }
      }, 
    {
      "type": "Feature",
      "geometry": {
        "type": "Point",
        "coordinates": [4.312845, 52.083538]
      },
      "properties": {
         "id": "pmb185341",
         "title": "Restaurant Royal",
         "lat": "52.083538",
         "lon": "4.312845",
         "timestamp": ["1922-04-27"],
         "importance": "1"
      }
      }, 
    {
      "type": "Feature",
      "geometry": {
        "type": "Point",
        "coordinates": [4.87049, 52.35403]
      },
      "properties": {
         "id": "pmb92581",
         "title": "Johannes Verhulststraat",
         "lat": "52.35403",
         "lon": "4.87049",
         "timestamp": ["1922-04-28", "1922-04-29", "1922-04-30"],
         "importance": "3"
      }
      }, 
    {
      "type": "Feature",
      "geometry": {
        "type": "Point",
        "coordinates": [4.8706555555556, 52.363755555556]
      },
      "properties": {
         "id": "pmb185944",
         "title": "Het Amsterdams Theaterhuis",
         "lat": "52.363755555556",
         "lon": "4.8706555555556",
         "timestamp": ["1922-04-28"],
         "importance": "1"
      }
      }, 
    {
      "type": "Feature",
      "geometry": {
        "type": "Point",
        "coordinates": [4.8790833333333, 52.356305555556]
      },
      "properties": {
         "id": "pmb183427",
         "title": "Concertgebouw",
         "lat": "52.356305555556",
         "lon": "4.8790833333333",
         "timestamp": ["1922-04-29"],
         "importance": "1"
      }
      }, 
    {
      "type": "Feature",
      "geometry": {
        "type": "Point",
        "coordinates": [4.892196, 52.372432]
      },
      "properties": {
         "id": "pmb185344",
         "title": "Restaurant van Laar",
         "lat": "52.372432",
         "lon": "4.892196",
         "timestamp": ["1922-04-29"],
         "importance": "1"
      }
      }, 
    {
      "type": "Feature",
      "geometry": {
        "type": "Point",
        "coordinates": [5.24814, 52.82762]
      },
      "properties": {
         "id": "pmb90114",
         "title": "IJsselmeer",
         "lat": "52.82762",
         "lon": "5.24814",
         "timestamp": ["1922-04-30"],
         "importance": "1"
      }
      }, 
    {
      "type": "Feature",
      "geometry": {
        "type": "Point",
        "coordinates": [4.489951, 52.158728]
      },
      "properties": {
         "id": "pmb185338",
         "title": "In den Vergulden Turk",
         "lat": "52.158728",
         "lon": "4.489951",
         "timestamp": ["1922-05-01"],
         "importance": "1"
      }
      }, 
    {
      "type": "Feature",
      "geometry": {
        "type": "Point",
        "coordinates": [4.46354, 52.26953]
      },
      "properties": {
         "id": "pmb960",
         "title": "Noordwijk",
         "lat": "52.26953",
         "lon": "4.46354",
         "timestamp": ["1922-05-02"],
         "importance": "1"
      }
      }, 
    {
      "type": "Feature",
      "geometry": {
        "type": "Point",
        "coordinates": [4.35556, 52.00667]
      },
      "properties": {
         "id": "pmb90517",
         "title": "Delft",
         "lat": "52.00667",
         "lon": "4.35556",
         "timestamp": ["1922-05-04"],
         "importance": "1"
      }
      }, 
    {
      "type": "Feature",
      "geometry": {
        "type": "Point",
        "coordinates": [5.84583, 51.98583]
      },
      "properties": {
         "id": "pmb40725",
         "title": "Oosterbeek",
         "lat": "51.98583",
         "lon": "5.84583",
         "timestamp": ["1922-05-06", "1922-05-07", "1922-05-08"],
         "importance": "3"
      }
      }, 
    {
      "type": "Feature",
      "geometry": {
        "type": "Point",
        "coordinates": [5.85278, 51.8425]
      },
      "properties": {
         "id": "pmb91371",
         "title": "Nijmegen",
         "lat": "51.8425",
         "lon": "5.85278",
         "timestamp": ["1922-05-07"],
         "importance": "1"
      }
      }, 
    {
      "type": "Feature",
      "geometry": {
        "type": "Point",
        "coordinates": [13.387328, 52.500042]
      },
      "properties": {
         "id": "pmb13",
         "title": "Hebbel-Theater",
         "lat": "52.500042",
         "lon": "13.387328",
         "timestamp": ["1922-05-09"],
         "importance": "1"
      }
      }, 
    {
      "type": "Feature",
      "geometry": {
        "type": "Point",
        "coordinates": [11.31038, 47.95947]
      },
      "properties": {
         "id": "pmb34896",
         "title": "Possenhofen",
         "lat": "47.95947",
         "lon": "11.31038",
         "timestamp": ["1922-05-17"],
         "importance": "1"
      }
      }, 
    {
      "type": "Feature",
      "geometry": {
        "type": "Point",
        "coordinates": [15.4379, 47.0698]
      },
      "properties": {
         "id": "pmb183437",
         "title": "Stefaniensaal",
         "lat": "47.0698",
         "lon": "15.4379",
         "timestamp": ["1922-06-08", "1922-06-09"],
         "importance": "2"
      }
      }, 
    {
      "type": "Feature",
      "geometry": {
        "type": "Point",
        "coordinates": [15.442751, 47.068538]
      },
      "properties": {
         "id": "pmb186925",
         "title": "Operncafé",
         "lat": "47.068538",
         "lon": "15.442751",
         "timestamp": ["1922-06-11"],
         "importance": "1"
      }
      }, 
    {
      "type": "Feature",
      "geometry": {
        "type": "Point",
        "coordinates": [16.01667, 47.55]
      },
      "properties": {
         "id": "pmb90172",
         "title": "Sankt Peter am Wechsel",
         "lat": "47.55",
         "lon": "16.01667",
         "timestamp": ["1922-07-06", "1922-07-07"],
         "importance": "2"
      }
      }, 
    {
      "type": "Feature",
      "geometry": {
        "type": "Point",
        "coordinates": [16.359119523893, 48.205828458126]
      },
      "properties": {
         "id": "pmb278",
         "title": "Bellariastraße",
         "lat": "48.205828458126",
         "lon": "16.359119523893",
         "timestamp": ["1922-07-11"],
         "importance": "1"
      }
      }, 
    {
      "type": "Feature",
      "geometry": {
        "type": "Point",
        "coordinates": [11.29326, 47.94602]
      },
      "properties": {
         "id": "pmb9376",
         "title": "Feldafing",
         "lat": "47.94602",
         "lon": "11.29326",
         "timestamp": ["1922-07-26", "1922-07-27", "1922-07-30", "1922-07-31", "1922-08-01", "1922-08-02", "1922-08-03", "1922-08-04", "1922-08-05", "1922-08-06", "1922-08-07"],
         "importance": "11"
      }
      }, 
    {
      "type": "Feature",
      "geometry": {
        "type": "Point",
        "coordinates": [11.298363683529006, 47.94933649585533]
      },
      "properties": {
         "id": "pmb53152",
         "title": "Hotel Kaiserin Elisabeth",
         "lat": "47.94933649585533",
         "lon": "11.298363683529006",
         "timestamp": ["1922-07-28", "1922-07-29"],
         "importance": "2"
      }
      }, 
    {
      "type": "Feature",
      "geometry": {
        "type": "Point",
        "coordinates": [12.85313, 47.60661]
      },
      "properties": {
         "id": "pmb90883",
         "title": "Hintersee",
         "lat": "47.60661",
         "lon": "12.85313",
         "timestamp": ["1922-09-02"],
         "importance": "1"
      }
      }, 
    {
      "type": "Feature",
      "geometry": {
        "type": "Point",
        "coordinates": [14.428587, 50.091467]
      },
      "properties": {
         "id": "pmb183469",
         "title": "Urania Prag",
         "lat": "50.091467",
         "lon": "14.428587",
         "timestamp": ["1922-10-27"],
         "importance": "1"
      }
      }, 
    {
      "type": "Feature",
      "geometry": {
        "type": "Point",
        "coordinates": [13.19159, 51.40574]
      },
      "properties": {
         "id": "pmb90286",
         "title": "Außig",
         "lat": "51.40574",
         "lon": "13.19159",
         "timestamp": ["1922-10-31", "1922-11-01", "1922-11-05", "1922-11-06"],
         "importance": "4"
      }
      }, 
    {
      "type": "Feature",
      "geometry": {
        "type": "Point",
        "coordinates": [14.036053, 50.659774]
      },
      "properties": {
         "id": "pmb183478",
         "title": "Weinmanneum",
         "lat": "50.659774",
         "lon": "14.036053",
         "timestamp": ["1922-10-31"],
         "importance": "1"
      }
      }, 
    {
      "type": "Feature",
      "geometry": {
        "type": "Point",
        "coordinates": [15.08238888888889, 50.78066666666667]
      },
      "properties": {
         "id": "pmb183490",
         "title": "Lesní divadlo Lidové sady",
         "lat": "50.78066666666667",
         "lon": "15.08238888888889",
         "timestamp": ["1922-11-02"],
         "importance": "1"
      }
      }, 
    {
      "type": "Feature",
      "geometry": {
        "type": "Point",
        "coordinates": [15.05619, 50.76711]
      },
      "properties": {
         "id": "pmb8622",
         "title": "Liberec",
         "lat": "50.76711",
         "lon": "15.05619",
         "timestamp": ["1922-11-03"],
         "importance": "1"
      }
      }, 
    {
      "type": "Feature",
      "geometry": {
        "type": "Point",
        "coordinates": [13.835923, 50.641038]
      },
      "properties": {
         "id": "pmb183493",
         "title": "Lipový dvůr",
         "lat": "50.641038",
         "lon": "13.835923",
         "timestamp": ["1922-11-03"],
         "importance": "1"
      }
      }, 
    {
      "type": "Feature",
      "geometry": {
        "type": "Point",
        "coordinates": [16.370836, 48.212304]
      },
      "properties": {
         "id": "pmb186855",
         "title": "Restaurant altes Rathaus",
         "lat": "48.212304",
         "lon": "16.370836",
         "timestamp": ["1922-12-21"],
         "importance": "1"
      }
      }
  ]
}