{
  "type": "FeatureCollection",
  "features": [
    {
      "type": "Feature",
      "geometry": {
        "type": "Point",
        "coordinates": [16.373056, 48.208333]
      },
      "properties": {
         "id": "pmb50",
         "title": "Wien",
         "lat": "48.208333",
         "lon": "16.373056",
         "timestamp": ["1922-06-01", "1922-06-02", "1922-06-03", "1922-06-04", "1922-06-05", "1922-06-06", "1922-06-07", "1922-06-12", "1922-06-13", "1922-06-14", "1922-06-15", "1922-06-16", "1922-06-17", "1922-06-18", "1922-06-19", "1922-06-20", "1922-06-21", "1922-06-22", "1922-06-23", "1922-06-24", "1922-06-25", "1922-06-26", "1922-06-27", "1922-06-28", "1922-06-29", "1922-06-30"],
         "importance": "26"
      }
      }, 
    {
      "type": "Feature",
      "geometry": {
        "type": "Point",
        "coordinates": [16.36678, 48.20608]
      },
      "properties": {
         "id": "pmb828",
         "title": "Nationalbibliothek",
         "lat": "48.20608",
         "lon": "16.36678",
         "timestamp": ["1922-06-21"],
         "importance": "1"
      }
      }, 
    {
      "type": "Feature",
      "geometry": {
        "type": "Point",
        "coordinates": [16.333568462613, 48.235119783861]
      },
      "properties": {
         "id": "pmb113",
         "title": "Türkenschanzpark",
         "lat": "48.235119783861",
         "lon": "16.333568462613",
         "timestamp": ["1922-06-06"],
         "importance": "1"
      }
      }, 
    {
      "type": "Feature",
      "geometry": {
        "type": "Point",
        "coordinates": [16.276509500872, 48.241960480337]
      },
      "properties": {
         "id": "pmb176",
         "title": "Schwarzenbergpark",
         "lat": "48.241960480337",
         "lon": "16.276509500872",
         "timestamp": ["1922-06-05"],
         "importance": "1"
      }
      }, 
    {
      "type": "Feature",
      "geometry": {
        "type": "Point",
        "coordinates": [16.300034240016, 48.246838181084]
      },
      "properties": {
         "id": "pmb169",
         "title": "Pötzleinsdorf",
         "lat": "48.246838181084",
         "lon": "16.300034240016",
         "timestamp": ["1922-06-02", "1922-06-04", "1922-06-05", "1922-06-18", "1922-06-25"],
         "importance": "5"
      }
      }, 
    {
      "type": "Feature",
      "geometry": {
        "type": "Point",
        "coordinates": [16.28610371233, 48.233119188484]
      },
      "properties": {
         "id": "pmb170",
         "title": "Neuwaldegg",
         "lat": "48.233119188484",
         "lon": "16.28610371233",
         "timestamp": ["1922-06-18", "1922-06-25"],
         "importance": "2"
      }
      }, 
    {
      "type": "Feature",
      "geometry": {
        "type": "Point",
        "coordinates": [15.43333, 47.06667]
      },
      "properties": {
         "id": "pmb860",
         "title": "Graz",
         "lat": "47.06667",
         "lon": "15.43333",
         "timestamp": ["1922-06-08", "1922-06-09", "1922-06-10", "1922-06-11"],
         "importance": "4"
      }
      }, 
    {
      "type": "Feature",
      "geometry": {
        "type": "Point",
        "coordinates": [15.460869, 47.084328]
      },
      "properties": {
         "id": "pmb192816",
         "title": "Hilmteich",
         "lat": "47.084328",
         "lon": "15.460869",
         "timestamp": ["1922-06-09"],
         "importance": "1"
      }
      }, 
    {
      "type": "Feature",
      "geometry": {
        "type": "Point",
        "coordinates": [16.339722, 48.192222]
      },
      "properties": {
         "id": "pmb77",
         "title": "Raimund-Theater",
         "lat": "48.192222",
         "lon": "16.339722",
         "timestamp": ["1922-06-12", "1922-06-13"],
         "importance": "2"
      }
      }, 
    {
      "type": "Feature",
      "geometry": {
        "type": "Point",
        "coordinates": [15.43778, 47.07673]
      },
      "properties": {
         "id": "pmb91689",
         "title": "Schlossberg",
         "lat": "47.07673",
         "lon": "15.43778",
         "timestamp": ["1922-06-09"],
         "importance": "1"
      }
      }, 
    {
      "type": "Feature",
      "geometry": {
        "type": "Point",
        "coordinates": [15.479915, 47.088633]
      },
      "properties": {
         "id": "pmb92551",
         "title": "Stifting",
         "lat": "47.088633",
         "lon": "15.479915",
         "timestamp": ["1922-06-09"],
         "importance": "1"
      }
      }, 
    {
      "type": "Feature",
      "geometry": {
        "type": "Point",
        "coordinates": [16.328822485916, 48.231291362993]
      },
      "properties": {
         "id": "pmb291",
         "title": "Gersthof",
         "lat": "48.231291362993",
         "lon": "16.328822485916",
         "timestamp": ["1922-06-29"],
         "importance": "1"
      }
      }, 
    {
      "type": "Feature",
      "geometry": {
        "type": "Point",
        "coordinates": [16.23036, 48.246719]
      },
      "properties": {
         "id": "pmb539",
         "title": "Sophienalpe",
         "lat": "48.246719",
         "lon": "16.23036",
         "timestamp": ["1922-06-18"],
         "importance": "1"
      }
      }, 
    {
      "type": "Feature",
      "geometry": {
        "type": "Point",
        "coordinates": [16.2911, 48.2553]
      },
      "properties": {
         "id": "pmb242",
         "title": "Salmannsdorf",
         "lat": "48.2553",
         "lon": "16.2911",
         "timestamp": ["1922-06-04", "1922-06-05"],
         "importance": "2"
      }
      }, 
    {
      "type": "Feature",
      "geometry": {
        "type": "Point",
        "coordinates": [16.29273, 48.23975]
      },
      "properties": {
         "id": "pmb532",
         "title": "Schafberg [Wien|",
         "lat": "48.23975",
         "lon": "16.29273",
         "timestamp": ["1922-06-15", "1922-06-29"],
         "importance": "2"
      }
      }, 
    {
      "type": "Feature",
      "geometry": {
        "type": "Point",
        "coordinates": [16.320719, 48.238032]
      },
      "properties": {
         "id": "pmb248",
         "title": "Kratzer’s Restaurant Gersthof",
         "lat": "48.238032",
         "lon": "16.320719",
         "timestamp": ["1922-06-02"],
         "importance": "1"
      }
      }, 
    {
      "type": "Feature",
      "geometry": {
        "type": "Point",
        "coordinates": [16.28606, 48.25849]
      },
      "properties": {
         "id": "pmb537",
         "title": "Dreimarkstein [Wien]",
         "lat": "48.25849",
         "lon": "16.28606",
         "timestamp": ["1922-06-18"],
         "importance": "1"
      }
      }, 
    {
      "type": "Feature",
      "geometry": {
        "type": "Point",
        "coordinates": [16.33716, 48.23188]
      },
      "properties": {
         "id": "pmb168815",
         "title": "Sternwartestraße 71",
         "lat": "48.23188",
         "lon": "16.33716",
         "timestamp": ["1922-06-01", "1922-06-02", "1922-06-03", "1922-06-04", "1922-06-05", "1922-06-06", "1922-06-07", "1922-06-12", "1922-06-13", "1922-06-14", "1922-06-15", "1922-06-16", "1922-06-17", "1922-06-18", "1922-06-19", "1922-06-20", "1922-06-21", "1922-06-22", "1922-06-23", "1922-06-24", "1922-06-25", "1922-06-26", "1922-06-27", "1922-06-28", "1922-06-29", "1922-06-30"],
         "importance": "26"
      }
      }, 
    {
      "type": "Feature",
      "geometry": {
        "type": "Point",
        "coordinates": [16.35137, 48.21346]
      },
      "properties": {
         "id": "pmb232800",
         "title": "Laudongasse 12",
         "lat": "48.21346",
         "lon": "16.35137",
         "timestamp": ["1922-06-14"],
         "importance": "1"
      }
      }, 
    {
      "type": "Feature",
      "geometry": {
        "type": "Point",
        "coordinates": [16.2387111, 48.239965]
      },
      "properties": {
         "id": "pmb551",
         "title": "Rieglerhütte",
         "lat": "48.239965",
         "lon": "16.2387111",
         "timestamp": ["1922-06-18"],
         "importance": "1"
      }
      }, 
    {
      "type": "Feature",
      "geometry": {
        "type": "Point",
        "coordinates": [16.367725, 48.212284]
      },
      "properties": {
         "id": "pmb207301",
         "title": "Tiefer Graben 17",
         "lat": "48.212284",
         "lon": "16.367725",
         "timestamp": ["1922-06-14", "1922-06-28"],
         "importance": "2"
      }
      }, 
    {
      "type": "Feature",
      "geometry": {
        "type": "Point",
        "coordinates": [16.377117625773, 48.200254933632]
      },
      "properties": {
         "id": "pmb520",
         "title": "Akademietheater",
         "lat": "48.200254933632",
         "lon": "16.377117625773",
         "timestamp": ["1922-06-24"],
         "importance": "1"
      }
      }, 
    {
      "type": "Feature",
      "geometry": {
        "type": "Point",
        "coordinates": [15.4379, 47.0698]
      },
      "properties": {
         "id": "pmb183437",
         "title": "Stefaniensaal",
         "lat": "47.0698",
         "lon": "15.4379",
         "timestamp": ["1922-06-08", "1922-06-09"],
         "importance": "2"
      }
      }, 
    {
      "type": "Feature",
      "geometry": {
        "type": "Point",
        "coordinates": [15.442751, 47.068538]
      },
      "properties": {
         "id": "pmb186925",
         "title": "Operncafé",
         "lat": "47.068538",
         "lon": "15.442751",
         "timestamp": ["1922-06-11"],
         "importance": "1"
      }
      }
  ]
}