{
  "type": "FeatureCollection",
  "features": [
    {
      "type": "Feature",
      "geometry": {
        "type": "Point",
        "coordinates": [16.384444, 48.215]
      },
      "properties": {
         "id": "pmb118",
         "title": "Carl-Theater",
         "lat": "48.215",
         "lon": "16.384444",
         "timestamp": ["1924-07-24"],
         "importance": "1"
      }
      }, 
    {
      "type": "Feature",
      "geometry": {
        "type": "Point",
        "coordinates": [16.373056, 48.208333]
      },
      "properties": {
         "id": "pmb50",
         "title": "Wien",
         "lat": "48.208333",
         "lon": "16.373056",
         "timestamp": ["1924-07-07", "1924-07-08", "1924-07-09", "1924-07-10", "1924-07-11", "1924-07-12", "1924-07-14", "1924-07-15", "1924-07-16", "1924-07-17", "1924-07-18", "1924-07-19", "1924-07-20", "1924-07-21", "1924-07-22", "1924-07-23", "1924-07-24", "1924-07-25", "1924-07-26", "1924-07-27", "1924-07-29", "1924-07-30", "1924-07-31"],
         "importance": "23"
      }
      }, 
    {
      "type": "Feature",
      "geometry": {
        "type": "Point",
        "coordinates": [11.57549, 48.13743]
      },
      "properties": {
         "id": "pmb38129",
         "title": "München",
         "lat": "48.13743",
         "lon": "11.57549",
         "timestamp": ["1924-07-03"],
         "importance": "1"
      }
      }, 
    {
      "type": "Feature",
      "geometry": {
        "type": "Point",
        "coordinates": [16.3734013, 48.2098832]
      },
      "properties": {
         "id": "pmb42749",
         "title": "Stefanskeller",
         "lat": "48.2098832",
         "lon": "16.3734013",
         "timestamp": ["1924-07-24"],
         "importance": "1"
      }
      }, 
    {
      "type": "Feature",
      "geometry": {
        "type": "Point",
        "coordinates": [16.355191, 48.248422]
      },
      "properties": {
         "id": "pmb92292",
         "title": "Hohe Warte",
         "lat": "48.248422",
         "lon": "16.355191",
         "timestamp": ["1924-07-13"],
         "importance": "1"
      }
      }, 
    {
      "type": "Feature",
      "geometry": {
        "type": "Point",
        "coordinates": [8.23975, 48.7606]
      },
      "properties": {
         "id": "pmb228",
         "title": "Baden-Baden",
         "lat": "48.7606",
         "lon": "8.23975",
         "timestamp": ["1924-07-01", "1924-07-02", "1924-07-03"],
         "importance": "3"
      }
      }, 
    {
      "type": "Feature",
      "geometry": {
        "type": "Point",
        "coordinates": [16.3576, 48.21071]
      },
      "properties": {
         "id": "pmb373",
         "title": "Rathaus",
         "lat": "48.21071",
         "lon": "16.3576",
         "timestamp": ["1924-07-29"],
         "importance": "1"
      }
      }, 
    {
      "type": "Feature",
      "geometry": {
        "type": "Point",
        "coordinates": [13.043401, 47.802045]
      },
      "properties": {
         "id": "pmb230",
         "title": "Österreichischer Hof",
         "lat": "47.802045",
         "lon": "13.043401",
         "timestamp": ["1924-07-03", "1924-07-04", "1924-07-05", "1924-07-06"],
         "importance": "4"
      }
      }, 
    {
      "type": "Feature",
      "geometry": {
        "type": "Point",
        "coordinates": [13.043904, 47.801903]
      },
      "properties": {
         "id": "pmb181",
         "title": "Café Bazar",
         "lat": "47.801903",
         "lon": "13.043904",
         "timestamp": ["1924-07-03", "1924-07-04", "1924-07-05"],
         "importance": "3"
      }
      }, 
    {
      "type": "Feature",
      "geometry": {
        "type": "Point",
        "coordinates": [13.042019, 47.805528]
      },
      "properties": {
         "id": "pmb180",
         "title": "Mirabell",
         "lat": "47.805528",
         "lon": "13.042019",
         "timestamp": ["1924-07-04"],
         "importance": "1"
      }
      }, 
    {
      "type": "Feature",
      "geometry": {
        "type": "Point",
        "coordinates": [12.9291, 48.2081]
      },
      "properties": {
         "id": "pmb91647",
         "title": "Salzach",
         "lat": "48.2081",
         "lon": "12.9291",
         "timestamp": ["1924-07-04", "1924-07-06"],
         "importance": "2"
      }
      }, 
    {
      "type": "Feature",
      "geometry": {
        "type": "Point",
        "coordinates": [16.333568462613, 48.235119783861]
      },
      "properties": {
         "id": "pmb113",
         "title": "Türkenschanzpark",
         "lat": "48.235119783861",
         "lon": "16.333568462613",
         "timestamp": ["1924-07-13", "1924-07-26", "1924-07-27"],
         "importance": "3"
      }
      }, 
    {
      "type": "Feature",
      "geometry": {
        "type": "Point",
        "coordinates": [16.276509500872, 48.241960480337]
      },
      "properties": {
         "id": "pmb176",
         "title": "Schwarzenbergpark",
         "lat": "48.241960480337",
         "lon": "16.276509500872",
         "timestamp": ["1924-07-20"],
         "importance": "1"
      }
      }, 
    {
      "type": "Feature",
      "geometry": {
        "type": "Point",
        "coordinates": [16.361378, 48.203661]
      },
      "properties": {
         "id": "pmb47660",
         "title": "Kunsthistorisches Museum",
         "lat": "48.203661",
         "lon": "16.361378",
         "timestamp": ["1924-07-11"],
         "importance": "1"
      }
      }, 
    {
      "type": "Feature",
      "geometry": {
        "type": "Point",
        "coordinates": [16.338015, 48.234046]
      },
      "properties": {
         "id": "pmb185644",
         "title": "Peregringasse 4",
         "lat": "48.234046",
         "lon": "16.338015",
         "timestamp": ["1924-07-29"],
         "importance": "1"
      }
      }, 
    {
      "type": "Feature",
      "geometry": {
        "type": "Point",
        "coordinates": [16.320719, 48.238032]
      },
      "properties": {
         "id": "pmb248",
         "title": "Kratzer’s Restaurant Gersthof",
         "lat": "48.238032",
         "lon": "16.320719",
         "timestamp": ["1924-07-07", "1924-07-10"],
         "importance": "2"
      }
      }, 
    {
      "type": "Feature",
      "geometry": {
        "type": "Point",
        "coordinates": [16.299761255551, 48.272363233241]
      },
      "properties": {
         "id": "pmb534",
         "title": "Jägerwiese",
         "lat": "48.272363233241",
         "lon": "16.299761255551",
         "timestamp": ["1924-07-13"],
         "importance": "1"
      }
      }, 
    {
      "type": "Feature",
      "geometry": {
        "type": "Point",
        "coordinates": [16.33716, 48.23188]
      },
      "properties": {
         "id": "pmb168815",
         "title": "Sternwartestraße 71",
         "lat": "48.23188",
         "lon": "16.33716",
         "timestamp": ["1924-07-09"],
         "importance": "1"
      }
      }, 
    {
      "type": "Feature",
      "geometry": {
        "type": "Point",
        "coordinates": [16.3125, 48.186667]
      },
      "properties": {
         "id": "pmb44649",
         "title": "Schlosstheater Schönbrunn",
         "lat": "48.186667",
         "lon": "16.3125",
         "timestamp": ["1924-07-28"],
         "importance": "1"
      }
      }, 
    {
      "type": "Feature",
      "geometry": {
        "type": "Point",
        "coordinates": [16.349979, 48.224251]
      },
      "properties": {
         "id": "pmb185452",
         "title": "Josef Pohl",
         "lat": "48.224251",
         "lon": "16.349979",
         "timestamp": ["1924-07-25"],
         "importance": "1"
      }
      }, 
    {
      "type": "Feature",
      "geometry": {
        "type": "Point",
        "coordinates": [13.040353, 47.793525]
      },
      "properties": {
         "id": "pmb92483",
         "title": "Richterhöhe",
         "lat": "47.793525",
         "lon": "13.040353",
         "timestamp": ["1924-07-05"],
         "importance": "1"
      }
      }, 
    {
      "type": "Feature",
      "geometry": {
        "type": "Point",
        "coordinates": [16.35709, 48.21422]
      },
      "properties": {
         "id": "pmb234",
         "title": "Josef Krautstofl",
         "lat": "48.21422",
         "lon": "16.35709",
         "timestamp": ["1924-07-17"],
         "importance": "1"
      }
      }
  ]
}