{
  "type": "FeatureCollection",
  "features": [
    {
      "type": "Feature",
      "geometry": {
        "type": "Point",
        "coordinates": [15.84704, 47.70466]
      },
      "properties": {
         "id": "pmb796",
         "title": "Thalhof",
         "lat": "47.70466",
         "lon": "15.84704",
         "timestamp": ["1924-06-19"],
         "importance": "1"
      }
      }, 
    {
      "type": "Feature",
      "geometry": {
        "type": "Point",
        "coordinates": [16.351111, 48.209583]
      },
      "properties": {
         "id": "pmb40",
         "title": "Theater in der Josefstadt",
         "lat": "48.209583",
         "lon": "16.351111",
         "timestamp": ["1924-06-18"],
         "importance": "1"
      }
      }, 
    {
      "type": "Feature",
      "geometry": {
        "type": "Point",
        "coordinates": [16.373056, 48.208333]
      },
      "properties": {
         "id": "pmb50",
         "title": "Wien",
         "lat": "48.208333",
         "lon": "16.373056",
         "timestamp": ["1924-06-01", "1924-06-02", "1924-06-03", "1924-06-04", "1924-06-05", "1924-06-06", "1924-06-07", "1924-06-08", "1924-06-09", "1924-06-10", "1924-06-11", "1924-06-12", "1924-06-13", "1924-06-16", "1924-06-17", "1924-06-18", "1924-06-19", "1924-06-20", "1924-06-21", "1924-06-22", "1924-06-23", "1924-06-24", "1924-06-25", "1924-06-26"],
         "importance": "24"
      }
      }, 
    {
      "type": "Feature",
      "geometry": {
        "type": "Point",
        "coordinates": [16.361139, 48.210333]
      },
      "properties": {
         "id": "pmb14",
         "title": "Burgtheater",
         "lat": "48.210333",
         "lon": "16.361139",
         "timestamp": ["1924-06-04"],
         "importance": "1"
      }
      }, 
    {
      "type": "Feature",
      "geometry": {
        "type": "Point",
        "coordinates": [16.364351, 48.199478]
      },
      "properties": {
         "id": "pmb92603",
         "title": "Wiednertheater",
         "lat": "48.199478",
         "lon": "16.364351",
         "timestamp": ["1924-06-04"],
         "importance": "1"
      }
      }, 
    {
      "type": "Feature",
      "geometry": {
        "type": "Point",
        "coordinates": [16.275701, 48.219421]
      },
      "properties": {
         "id": "pmb90687",
         "title": "Gallitzinberg",
         "lat": "48.219421",
         "lon": "16.275701",
         "timestamp": ["1924-06-15"],
         "importance": "1"
      }
      }, 
    {
      "type": "Feature",
      "geometry": {
        "type": "Point",
        "coordinates": [8.23975, 48.7606]
      },
      "properties": {
         "id": "pmb228",
         "title": "Baden-Baden",
         "lat": "48.7606",
         "lon": "8.23975",
         "timestamp": ["1924-06-27", "1924-06-28", "1924-06-29", "1924-06-30"],
         "importance": "4"
      }
      }, 
    {
      "type": "Feature",
      "geometry": {
        "type": "Point",
        "coordinates": [16.36471, 48.200556]
      },
      "properties": {
         "id": "pmb97",
         "title": "Zum Weingartl",
         "lat": "48.200556",
         "lon": "16.36471",
         "timestamp": ["1924-06-04"],
         "importance": "1"
      }
      }, 
    {
      "type": "Feature",
      "geometry": {
        "type": "Point",
        "coordinates": [16.333568462613, 48.235119783861]
      },
      "properties": {
         "id": "pmb113",
         "title": "Türkenschanzpark",
         "lat": "48.235119783861",
         "lon": "16.333568462613",
         "timestamp": ["1924-06-25"],
         "importance": "1"
      }
      }, 
    {
      "type": "Feature",
      "geometry": {
        "type": "Point",
        "coordinates": [16.276509500872, 48.241960480337]
      },
      "properties": {
         "id": "pmb176",
         "title": "Schwarzenbergpark",
         "lat": "48.241960480337",
         "lon": "16.276509500872",
         "timestamp": ["1924-06-22"],
         "importance": "1"
      }
      }, 
    {
      "type": "Feature",
      "geometry": {
        "type": "Point",
        "coordinates": [16.254331, 48.133848]
      },
      "properties": {
         "id": "pmb177",
         "title": "Gasthaus Stelzer",
         "lat": "48.133848",
         "lon": "16.254331",
         "timestamp": ["1924-06-12"],
         "importance": "1"
      }
      }, 
    {
      "type": "Feature",
      "geometry": {
        "type": "Point",
        "coordinates": [16.338015, 48.234046]
      },
      "properties": {
         "id": "pmb185644",
         "title": "Peregringasse 4",
         "lat": "48.234046",
         "lon": "16.338015",
         "timestamp": ["1924-06-13", "1924-06-24"],
         "importance": "2"
      }
      }, 
    {
      "type": "Feature",
      "geometry": {
        "type": "Point",
        "coordinates": [16.287997, 48.217079]
      },
      "properties": {
         "id": "pmb92374",
         "title": "Liebhartstal",
         "lat": "48.217079",
         "lon": "16.287997",
         "timestamp": ["1924-06-15"],
         "importance": "1"
      }
      }, 
    {
      "type": "Feature",
      "geometry": {
        "type": "Point",
        "coordinates": [15.84453, 47.69852]
      },
      "properties": {
         "id": "pmb44982",
         "title": "Kurhaus Rudolfsbad",
         "lat": "47.69852",
         "lon": "15.84453",
         "timestamp": ["1924-06-19"],
         "importance": "1"
      }
      }, 
    {
      "type": "Feature",
      "geometry": {
        "type": "Point",
        "coordinates": [16.2911, 48.2553]
      },
      "properties": {
         "id": "pmb242",
         "title": "Salmannsdorf",
         "lat": "48.2553",
         "lon": "16.2911",
         "timestamp": ["1924-06-01"],
         "importance": "1"
      }
      }, 
    {
      "type": "Feature",
      "geometry": {
        "type": "Point",
        "coordinates": [16.293147561818, 48.251927827778]
      },
      "properties": {
         "id": "pmb540",
         "title": "Hameau",
         "lat": "48.251927827778",
         "lon": "16.293147561818",
         "timestamp": ["1924-06-01"],
         "importance": "1"
      }
      }, 
    {
      "type": "Feature",
      "geometry": {
        "type": "Point",
        "coordinates": [16.31268, 48.2629]
      },
      "properties": {
         "id": "pmb285",
         "title": "Am Himmel",
         "lat": "48.2629",
         "lon": "16.31268",
         "timestamp": ["1924-06-08"],
         "importance": "1"
      }
      }, 
    {
      "type": "Feature",
      "geometry": {
        "type": "Point",
        "coordinates": [16.30627, 48.2435]
      },
      "properties": {
         "id": "pmb147205",
         "title": "Zum weißen Lamm",
         "lat": "48.2435",
         "lon": "16.30627",
         "timestamp": ["1924-06-20"],
         "importance": "1"
      }
      }, 
    {
      "type": "Feature",
      "geometry": {
        "type": "Point",
        "coordinates": [16.299761255551, 48.272363233241]
      },
      "properties": {
         "id": "pmb534",
         "title": "Jägerwiese",
         "lat": "48.272363233241",
         "lon": "16.299761255551",
         "timestamp": ["1924-06-08"],
         "importance": "1"
      }
      }, 
    {
      "type": "Feature",
      "geometry": {
        "type": "Point",
        "coordinates": [16.2656, 48.2213]
      },
      "properties": {
         "id": "pmb232079",
         "title": "Jubiläumswarte [Wien]",
         "lat": "48.2213",
         "lon": "16.2656",
         "timestamp": ["1924-06-15"],
         "importance": "1"
      }
      }, 
    {
      "type": "Feature",
      "geometry": {
        "type": "Point",
        "coordinates": [16.26161, 48.21575]
      },
      "properties": {
         "id": "pmb91663",
         "title": "Satzberg",
         "lat": "48.21575",
         "lon": "16.26161",
         "timestamp": ["1924-06-22"],
         "importance": "1"
      }
      }, 
    {
      "type": "Feature",
      "geometry": {
        "type": "Point",
        "coordinates": [16.39074, 48.19598]
      },
      "properties": {
         "id": "pmb1025",
         "title": "Krankenhaus Rudolfstiftung",
         "lat": "48.19598",
         "lon": "16.39074",
         "timestamp": ["1924-06-11"],
         "importance": "1"
      }
      }, 
    {
      "type": "Feature",
      "geometry": {
        "type": "Point",
        "coordinates": [16.3125, 48.186667]
      },
      "properties": {
         "id": "pmb44649",
         "title": "Schlosstheater Schönbrunn",
         "lat": "48.186667",
         "lon": "16.3125",
         "timestamp": ["1924-06-14"],
         "importance": "1"
      }
      }, 
    {
      "type": "Feature",
      "geometry": {
        "type": "Point",
        "coordinates": [16.261773522319, 48.186111063958]
      },
      "properties": {
         "id": "pmb620",
         "title": "Winzerstraße",
         "lat": "48.186111063958",
         "lon": "16.261773522319",
         "timestamp": ["1924-06-01"],
         "importance": "1"
      }
      }
  ]
}