{
  "type": "FeatureCollection",
  "features": [
    {
      "type": "Feature",
      "geometry": {
        "type": "Point",
        "coordinates": [16.3691, 48.203]
      },
      "properties": {
         "id": "pmb15",
         "title": "Oper",
         "lat": "48.203",
         "lon": "16.3691",
         "timestamp": ["1924-02-25"],
         "importance": "1"
      }
      }, 
    {
      "type": "Feature",
      "geometry": {
        "type": "Point",
        "coordinates": [16.373056, 48.208333]
      },
      "properties": {
         "id": "pmb50",
         "title": "Wien",
         "lat": "48.208333",
         "lon": "16.373056",
         "timestamp": ["1924-02-01", "1924-02-02", "1924-02-03", "1924-02-04", "1924-02-05", "1924-02-06", "1924-02-07", "1924-02-08", "1924-02-09", "1924-02-10", "1924-02-11", "1924-02-12", "1924-02-13", "1924-02-14", "1924-02-15", "1924-02-16", "1924-02-18", "1924-02-19", "1924-02-20", "1924-02-21", "1924-02-22", "1924-02-23", "1924-02-24", "1924-02-25", "1924-02-26", "1924-02-27", "1924-02-28"],
         "importance": "27"
      }
      }, 
    {
      "type": "Feature",
      "geometry": {
        "type": "Point",
        "coordinates": [16.361139, 48.210333]
      },
      "properties": {
         "id": "pmb14",
         "title": "Burgtheater",
         "lat": "48.210333",
         "lon": "16.361139",
         "timestamp": ["1924-02-14"],
         "importance": "1"
      }
      }, 
    {
      "type": "Feature",
      "geometry": {
        "type": "Point",
        "coordinates": [16.355191, 48.248422]
      },
      "properties": {
         "id": "pmb92292",
         "title": "Hohe Warte",
         "lat": "48.248422",
         "lon": "16.355191",
         "timestamp": ["1924-02-17"],
         "importance": "1"
      }
      }, 
    {
      "type": "Feature",
      "geometry": {
        "type": "Point",
        "coordinates": [16.3566, 48.205142]
      },
      "properties": {
         "id": "pmb20",
         "title": "Volkstheater",
         "lat": "48.205142",
         "lon": "16.3566",
         "timestamp": ["1924-02-21"],
         "importance": "1"
      }
      }, 
    {
      "type": "Feature",
      "geometry": {
        "type": "Point",
        "coordinates": [16.367998, 48.203159]
      },
      "properties": {
         "id": "pmb185989",
         "title": "Opernrestaurant",
         "lat": "48.203159",
         "lon": "16.367998",
         "timestamp": ["1924-02-06"],
         "importance": "1"
      }
      }, 
    {
      "type": "Feature",
      "geometry": {
        "type": "Point",
        "coordinates": [16.371211, 48.206416]
      },
      "properties": {
         "id": "pmb96",
         "title": "Meissl & Schadn",
         "lat": "48.206416",
         "lon": "16.371211",
         "timestamp": ["1924-02-14"],
         "importance": "1"
      }
      }, 
    {
      "type": "Feature",
      "geometry": {
        "type": "Point",
        "coordinates": [16.339722, 48.192222]
      },
      "properties": {
         "id": "pmb77",
         "title": "Raimund-Theater",
         "lat": "48.192222",
         "lon": "16.339722",
         "timestamp": ["1924-02-05", "1924-02-10"],
         "importance": "2"
      }
      }, 
    {
      "type": "Feature",
      "geometry": {
        "type": "Point",
        "coordinates": [16.359721, 48.216481]
      },
      "properties": {
         "id": "pmb184975",
         "title": "Alt Pilsenetzer Bierhalle",
         "lat": "48.216481",
         "lon": "16.359721",
         "timestamp": ["1924-02-12"],
         "importance": "1"
      }
      }, 
    {
      "type": "Feature",
      "geometry": {
        "type": "Point",
        "coordinates": [16.338015, 48.234046]
      },
      "properties": {
         "id": "pmb185644",
         "title": "Peregringasse 4",
         "lat": "48.234046",
         "lon": "16.338015",
         "timestamp": ["1924-02-07"],
         "importance": "1"
      }
      }, 
    {
      "type": "Feature",
      "geometry": {
        "type": "Point",
        "coordinates": [16.366551, 48.206783]
      },
      "properties": {
         "id": "pmb48198",
         "title": "Redoutensaal",
         "lat": "48.206783",
         "lon": "16.366551",
         "timestamp": ["1924-02-14"],
         "importance": "1"
      }
      }, 
    {
      "type": "Feature",
      "geometry": {
        "type": "Point",
        "coordinates": [16.327625, 48.234219]
      },
      "properties": {
         "id": "pmb190567",
         "title": "Gersthofer Elitetheater",
         "lat": "48.234219",
         "lon": "16.327625",
         "timestamp": ["1924-02-29"],
         "importance": "1"
      }
      }
  ]
}