{
  "type": "FeatureCollection",
  "features": [
    {
      "type": "Feature",
      "geometry": {
        "type": "Point",
        "coordinates": [16.373056, 48.208333]
      },
      "properties": {
         "id": "pmb50",
         "title": "Wien",
         "lat": "48.208333",
         "lon": "16.373056",
         "timestamp": ["1925-09-21", "1925-09-22", "1925-09-23", "1925-09-24", "1925-09-25", "1925-09-26", "1925-09-27", "1925-09-28", "1925-09-29", "1925-09-30"],
         "importance": "10"
      }
      }, 
    {
      "type": "Feature",
      "geometry": {
        "type": "Point",
        "coordinates": [9.18951, 45.46427]
      },
      "properties": {
         "id": "pmb886",
         "title": "Mailand",
         "lat": "45.46427",
         "lon": "9.18951",
         "timestamp": ["1925-09-07", "1925-09-08"],
         "importance": "2"
      }
      }, 
    {
      "type": "Feature",
      "geometry": {
        "type": "Point",
        "coordinates": [16.3566, 48.205142]
      },
      "properties": {
         "id": "pmb20",
         "title": "Volkstheater",
         "lat": "48.205142",
         "lon": "16.3566",
         "timestamp": ["1925-09-23"],
         "importance": "1"
      }
      }, 
    {
      "type": "Feature",
      "geometry": {
        "type": "Point",
        "coordinates": [12.33835, 45.43411]
      },
      "properties": {
         "id": "pmb261",
         "title": "Piazza San Marco",
         "lat": "45.43411",
         "lon": "12.33835",
         "timestamp": ["1925-09-17"],
         "importance": "1"
      }
      }, 
    {
      "type": "Feature",
      "geometry": {
        "type": "Point",
        "coordinates": [16.339722, 48.192222]
      },
      "properties": {
         "id": "pmb77",
         "title": "Raimund-Theater",
         "lat": "48.192222",
         "lon": "16.339722",
         "timestamp": ["1925-09-25"],
         "importance": "1"
      }
      }, 
    {
      "type": "Feature",
      "geometry": {
        "type": "Point",
        "coordinates": [16.331527, 48.23428]
      },
      "properties": {
         "id": "pmb74",
         "title": "Restauration Türkenschanz-Park",
         "lat": "48.23428",
         "lon": "16.331527",
         "timestamp": ["1925-09-21"],
         "importance": "1"
      }
      }, 
    {
      "type": "Feature",
      "geometry": {
        "type": "Point",
        "coordinates": [8.94439, 44.40478]
      },
      "properties": {
         "id": "pmb114105",
         "title": "Genua",
         "lat": "44.40478",
         "lon": "8.94439",
         "timestamp": ["1925-09-08"],
         "importance": "1"
      }
      }, 
    {
      "type": "Feature",
      "geometry": {
        "type": "Point",
        "coordinates": [11.24626, 43.77925]
      },
      "properties": {
         "id": "pmb263",
         "title": "Florenz",
         "lat": "43.77925",
         "lon": "11.24626",
         "timestamp": ["1925-09-15", "1925-09-17"],
         "importance": "2"
      }
      }, 
    {
      "type": "Feature",
      "geometry": {
        "type": "Point",
        "coordinates": [11.2559, 43.768439]
      },
      "properties": {
         "id": "pmb970",
         "title": "Uffizien",
         "lat": "43.768439",
         "lon": "11.2559",
         "timestamp": ["1925-09-16"],
         "importance": "1"
      }
      }, 
    {
      "type": "Feature",
      "geometry": {
        "type": "Point",
        "coordinates": [11.27030278, 43.76081111]
      },
      "properties": {
         "id": "pmb231525",
         "title": "Viali dei Colli [Florenz]",
         "lat": "43.76081111",
         "lon": "11.27030278",
         "timestamp": ["1925-09-14"],
         "importance": "1"
      }
      }, 
    {
      "type": "Feature",
      "geometry": {
        "type": "Point",
        "coordinates": [11.264722, 43.759722]
      },
      "properties": {
         "id": "pmb52728",
         "title": "San Miniato al Monte",
         "lat": "43.759722",
         "lon": "11.264722",
         "timestamp": ["1925-09-14"],
         "importance": "1"
      }
      }, 
    {
      "type": "Feature",
      "geometry": {
        "type": "Point",
        "coordinates": [11.29487, 43.80455]
      },
      "properties": {
         "id": "pmb1193",
         "title": "Fiesole",
         "lat": "43.80455",
         "lon": "11.29487",
         "timestamp": ["1925-09-15"],
         "importance": "1"
      }
      }, 
    {
      "type": "Feature",
      "geometry": {
        "type": "Point",
        "coordinates": [12.4169, 45.4731]
      },
      "properties": {
         "id": "pmb232826",
         "title": "San Francesco del Deserto",
         "lat": "45.4731",
         "lon": "12.4169",
         "timestamp": ["1925-09-19"],
         "importance": "1"
      }
      }, 
    {
      "type": "Feature",
      "geometry": {
        "type": "Point",
        "coordinates": [12.41785, 45.49794]
      },
      "properties": {
         "id": "pmb44094",
         "title": "Torcello",
         "lat": "45.49794",
         "lon": "12.41785",
         "timestamp": ["1925-09-19"],
         "importance": "1"
      }
      }, 
    {
      "type": "Feature",
      "geometry": {
        "type": "Point",
        "coordinates": [9.8622, 46.5146]
      },
      "properties": {
         "id": "pmb12589",
         "title": "Celerina",
         "lat": "46.5146",
         "lon": "9.8622",
         "timestamp": ["1925-09-01", "1925-09-02", "1925-09-03", "1925-09-04", "1925-09-05", "1925-09-06"],
         "importance": "6"
      }
      }, 
    {
      "type": "Feature",
      "geometry": {
        "type": "Point",
        "coordinates": [16.349979, 48.224251]
      },
      "properties": {
         "id": "pmb185452",
         "title": "Josef Pohl",
         "lat": "48.224251",
         "lon": "16.349979",
         "timestamp": ["1925-09-28", "1925-09-30"],
         "importance": "2"
      }
      }, 
    {
      "type": "Feature",
      "geometry": {
        "type": "Point",
        "coordinates": [9.39816, 46.32063]
      },
      "properties": {
         "id": "pmb90468",
         "title": "Chiavenna",
         "lat": "46.32063",
         "lon": "9.39816",
         "timestamp": ["1925-09-06", "1925-09-07"],
         "importance": "2"
      }
      }, 
    {
      "type": "Feature",
      "geometry": {
        "type": "Point",
        "coordinates": [10.17478, 43.96388]
      },
      "properties": {
         "id": "pmb1169",
         "title": "Forte dei Marmi",
         "lat": "43.96388",
         "lon": "10.17478",
         "timestamp": ["1925-09-08", "1925-09-09", "1925-09-10", "1925-09-11", "1925-09-12", "1925-09-12", "1925-09-13", "1925-09-14"],
         "importance": "8"
      }
      }, 
    {
      "type": "Feature",
      "geometry": {
        "type": "Point",
        "coordinates": [12.338208333333334, 45.433675]
      },
      "properties": {
         "id": "pmb232856",
         "title": "Caffè Florian",
         "lat": "45.433675",
         "lon": "12.338208333333334",
         "timestamp": ["1925-09-17", "1925-09-18"],
         "importance": "2"
      }
      }, 
    {
      "type": "Feature",
      "geometry": {
        "type": "Point",
        "coordinates": [12.33265, 45.43713]
      },
      "properties": {
         "id": "pmb462",
         "title": "Venedig",
         "lat": "45.43713",
         "lon": "12.33265",
         "timestamp": ["1925-09-19", "1925-09-20"],
         "importance": "2"
      }
      }
  ]
}