{
  "type": "FeatureCollection",
  "features": [
    {
      "type": "Feature",
      "geometry": {
        "type": "Point",
        "coordinates": [16.373056, 48.208333]
      },
      "properties": {
         "id": "pmb50",
         "title": "Wien",
         "lat": "48.208333",
         "lon": "16.373056",
         "timestamp": ["1925-06-01", "1925-06-02", "1925-06-03", "1925-06-04", "1925-06-05", "1925-06-06", "1925-06-07", "1925-06-08", "1925-06-09", "1925-06-10", "1925-06-11", "1925-06-12", "1925-06-13", "1925-06-14", "1925-06-15", "1925-06-16", "1925-06-17", "1925-06-18", "1925-06-19", "1925-06-20", "1925-06-21"],
         "importance": "21"
      }
      }, 
    {
      "type": "Feature",
      "geometry": {
        "type": "Point",
        "coordinates": [11.57549, 48.13743]
      },
      "properties": {
         "id": "pmb38129",
         "title": "München",
         "lat": "48.13743",
         "lon": "11.57549",
         "timestamp": ["1925-06-22", "1925-06-23"],
         "importance": "2"
      }
      }, 
    {
      "type": "Feature",
      "geometry": {
        "type": "Point",
        "coordinates": [11.15953, 46.66817]
      },
      "properties": {
         "id": "pmb887",
         "title": "Meran",
         "lat": "46.66817",
         "lon": "11.15953",
         "timestamp": ["1925-06-23", "1925-06-24"],
         "importance": "2"
      }
      }, 
    {
      "type": "Feature",
      "geometry": {
        "type": "Point",
        "coordinates": [11.33982, 46.49067]
      },
      "properties": {
         "id": "pmb6937",
         "title": "Bozen",
         "lat": "46.49067",
         "lon": "11.33982",
         "timestamp": ["1925-06-25", "1925-06-26", "1925-06-27", "1925-06-28", "1925-06-29", "1925-06-30"],
         "importance": "6"
      }
      }, 
    {
      "type": "Feature",
      "geometry": {
        "type": "Point",
        "coordinates": [16.37312, 48.20122]
      },
      "properties": {
         "id": "pmb43",
         "title": "Café Imperial",
         "lat": "48.20122",
         "lon": "16.37312",
         "timestamp": ["1925-06-04"],
         "importance": "1"
      }
      }, 
    {
      "type": "Feature",
      "geometry": {
        "type": "Point",
        "coordinates": [16.258056, 48.201667]
      },
      "properties": {
         "id": "pmb271",
         "title": "Hütteldorf",
         "lat": "48.201667",
         "lon": "16.258056",
         "timestamp": ["1925-06-01"],
         "importance": "1"
      }
      }, 
    {
      "type": "Feature",
      "geometry": {
        "type": "Point",
        "coordinates": [16.359721, 48.216481]
      },
      "properties": {
         "id": "pmb184975",
         "title": "Alt Pilsenetzer Bierhalle",
         "lat": "48.216481",
         "lon": "16.359721",
         "timestamp": ["1925-06-03"],
         "importance": "1"
      }
      }, 
    {
      "type": "Feature",
      "geometry": {
        "type": "Point",
        "coordinates": [11.561467767769052, 48.13907960520144]
      },
      "properties": {
         "id": "pmb806",
         "title": "Hotel Rheinischer Hof München",
         "lat": "48.13907960520144",
         "lon": "11.561467767769052",
         "timestamp": ["1925-06-22", "1925-06-23"],
         "importance": "2"
      }
      }, 
    {
      "type": "Feature",
      "geometry": {
        "type": "Point",
        "coordinates": [11.8, 46.26667]
      },
      "properties": {
         "id": "pmb1060",
         "title": "San Martino di Castrozza",
         "lat": "46.26667",
         "lon": "11.8",
         "timestamp": ["1925-06-27"],
         "importance": "1"
      }
      }, 
    {
      "type": "Feature",
      "geometry": {
        "type": "Point",
        "coordinates": [16.322222222222, 48.263611111111]
      },
      "properties": {
         "id": "pmb194903",
         "title": "Am Kobenzl",
         "lat": "48.263611111111",
         "lon": "16.322222222222",
         "timestamp": ["1925-06-06"],
         "importance": "1"
      }
      }, 
    {
      "type": "Feature",
      "geometry": {
        "type": "Point",
        "coordinates": [11.58817, 46.41147]
      },
      "properties": {
         "id": "pmb91003",
         "title": "Carezza",
         "lat": "46.41147",
         "lon": "11.58817",
         "timestamp": ["1925-06-27"],
         "importance": "1"
      }
      }, 
    {
      "type": "Feature",
      "geometry": {
        "type": "Point",
        "coordinates": [11.35552, 46.49817]
      },
      "properties": {
         "id": "pmb233170",
         "title": "Hotel Greif",
         "lat": "46.49817",
         "lon": "11.35552",
         "timestamp": ["1925-06-25"],
         "importance": "1"
      }
      }, 
    {
      "type": "Feature",
      "geometry": {
        "type": "Point",
        "coordinates": [16.296768550115, 48.248935842869]
      },
      "properties": {
         "id": "pmb243",
         "title": "Sommerhaidenweg",
         "lat": "48.248935842869",
         "lon": "16.296768550115",
         "timestamp": ["1925-06-07"],
         "importance": "1"
      }
      }, 
    {
      "type": "Feature",
      "geometry": {
        "type": "Point",
        "coordinates": [16.35689, 48.21787]
      },
      "properties": {
         "id": "pmb232768",
         "title": "Beethovengasse 6",
         "lat": "48.21787",
         "lon": "16.35689",
         "timestamp": ["1925-06-03"],
         "importance": "1"
      }
      }, 
    {
      "type": "Feature",
      "geometry": {
        "type": "Point",
        "coordinates": [16.33716, 48.23188]
      },
      "properties": {
         "id": "pmb168815",
         "title": "Sternwartestraße 71",
         "lat": "48.23188",
         "lon": "16.33716",
         "timestamp": ["1925-06-01", "1925-06-02", "1925-06-03", "1925-06-04", "1925-06-05", "1925-06-06", "1925-06-07", "1925-06-08", "1925-06-09", "1925-06-10", "1925-06-11", "1925-06-12", "1925-06-13", "1925-06-14", "1925-06-15", "1925-06-16", "1925-06-17", "1925-06-18", "1925-06-19", "1925-06-20", "1925-06-21"],
         "importance": "21"
      }
      }, 
    {
      "type": "Feature",
      "geometry": {
        "type": "Point",
        "coordinates": [16.26161, 48.21575]
      },
      "properties": {
         "id": "pmb91663",
         "title": "Satzberg",
         "lat": "48.21575",
         "lon": "16.26161",
         "timestamp": ["1925-06-01"],
         "importance": "1"
      }
      }, 
    {
      "type": "Feature",
      "geometry": {
        "type": "Point",
        "coordinates": [16.35137, 48.21346]
      },
      "properties": {
         "id": "pmb232800",
         "title": "Laudongasse 12",
         "lat": "48.21346",
         "lon": "16.35137",
         "timestamp": ["1925-06-03", "1925-06-13"],
         "importance": "2"
      }
      }, 
    {
      "type": "Feature",
      "geometry": {
        "type": "Point",
        "coordinates": [16.36171, 48.2116]
      },
      "properties": {
         "id": "pmb235784",
         "title": "Oppolzergasse 6",
         "lat": "48.2116",
         "lon": "16.36171",
         "timestamp": ["1925-06-10"],
         "importance": "1"
      }
      }, 
    {
      "type": "Feature",
      "geometry": {
        "type": "Point",
        "coordinates": [16.377117625773, 48.200254933632]
      },
      "properties": {
         "id": "pmb520",
         "title": "Akademietheater",
         "lat": "48.200254933632",
         "lon": "16.377117625773",
         "timestamp": ["1925-06-04"],
         "importance": "1"
      }
      }, 
    {
      "type": "Feature",
      "geometry": {
        "type": "Point",
        "coordinates": [11.553336, 48.145952]
      },
      "properties": {
         "id": "pmb186796",
         "title": "Spatenbräu",
         "lat": "48.145952",
         "lon": "11.553336",
         "timestamp": ["1925-06-22"],
         "importance": "1"
      }
      }, 
    {
      "type": "Feature",
      "geometry": {
        "type": "Point",
        "coordinates": [16.349979, 48.224251]
      },
      "properties": {
         "id": "pmb185452",
         "title": "Josef Pohl",
         "lat": "48.224251",
         "lon": "16.349979",
         "timestamp": ["1925-06-07"],
         "importance": "1"
      }
      }, 
    {
      "type": "Feature",
      "geometry": {
        "type": "Point",
        "coordinates": [11.1526, 46.669]
      },
      "properties": {
         "id": "pmb185222",
         "title": "Hotel Savoy [Meran]",
         "lat": "46.669",
         "lon": "11.1526",
         "timestamp": ["1925-06-23", "1925-06-24", "1925-06-25"],
         "importance": "3"
      }
      }, 
    {
      "type": "Feature",
      "geometry": {
        "type": "Point",
        "coordinates": [12.00876, 46.51889]
      },
      "properties": {
         "id": "pmb90613",
         "title": "Passo di Falzarego",
         "lat": "46.51889",
         "lon": "12.00876",
         "timestamp": ["1925-06-29"],
         "importance": "1"
      }
      }, 
    {
      "type": "Feature",
      "geometry": {
        "type": "Point",
        "coordinates": [11.434, 46.54]
      },
      "properties": {
         "id": "pmb65722",
         "title": "Renon",
         "lat": "46.54",
         "lon": "11.434",
         "timestamp": ["1925-06-30"],
         "importance": "1"
      }
      }
  ]
}