{
  "type": "FeatureCollection",
  "features": [
    {
      "type": "Feature",
      "geometry": {
        "type": "Point",
        "coordinates": [16.373056, 48.208333]
      },
      "properties": {
         "id": "pmb50",
         "title": "Wien",
         "lat": "48.208333",
         "lon": "16.373056",
         "timestamp": ["1925-03-01", "1925-03-02", "1925-03-03", "1925-03-04", "1925-03-05", "1925-03-06", "1925-03-07", "1925-03-08", "1925-03-09", "1925-03-10", "1925-03-11", "1925-03-12", "1925-03-13", "1925-03-14", "1925-03-15", "1925-03-16", "1925-03-17", "1925-03-18", "1925-03-19", "1925-03-20", "1925-03-21", "1925-03-22", "1925-03-23", "1925-03-24", "1925-03-25", "1925-03-26", "1925-03-27", "1925-03-28", "1925-03-29", "1925-03-30", "1925-03-31"],
         "importance": "31"
      }
      }, 
    {
      "type": "Feature",
      "geometry": {
        "type": "Point",
        "coordinates": [16.3691, 48.203]
      },
      "properties": {
         "id": "pmb15",
         "title": "Oper",
         "lat": "48.203",
         "lon": "16.3691",
         "timestamp": ["1925-03-08"],
         "importance": "1"
      }
      }, 
    {
      "type": "Feature",
      "geometry": {
        "type": "Point",
        "coordinates": [16.351111, 48.209583]
      },
      "properties": {
         "id": "pmb40",
         "title": "Theater in der Josefstadt",
         "lat": "48.209583",
         "lon": "16.351111",
         "timestamp": ["1925-03-02"],
         "importance": "1"
      }
      }, 
    {
      "type": "Feature",
      "geometry": {
        "type": "Point",
        "coordinates": [13.41053, 52.52437]
      },
      "properties": {
         "id": "pmb168",
         "title": "Berlin",
         "lat": "52.52437",
         "lon": "13.41053",
         "timestamp": ["1925-03-14", "1925-03-15", "1925-03-16", "1925-03-17", "1925-03-18", "1925-03-19", "1925-03-20", "1925-03-21", "1925-03-22", "1925-03-23", "1925-03-24"],
         "importance": "11"
      }
      }, 
    {
      "type": "Feature",
      "geometry": {
        "type": "Point",
        "coordinates": [16.275701, 48.219421]
      },
      "properties": {
         "id": "pmb90687",
         "title": "Gallitzinberg",
         "lat": "48.219421",
         "lon": "16.275701",
         "timestamp": ["1925-03-08"],
         "importance": "1"
      }
      }, 
    {
      "type": "Feature",
      "geometry": {
        "type": "Point",
        "coordinates": [13.392222, 52.513611]
      },
      "properties": {
         "id": "pmb143",
         "title": "Schauspielhaus Berlin",
         "lat": "52.513611",
         "lon": "13.392222",
         "timestamp": ["1925-03-14", "1925-03-15", "1925-03-19"],
         "importance": "3"
      }
      }, 
    {
      "type": "Feature",
      "geometry": {
        "type": "Point",
        "coordinates": [16.339722, 48.192222]
      },
      "properties": {
         "id": "pmb77",
         "title": "Raimund-Theater",
         "lat": "48.192222",
         "lon": "16.339722",
         "timestamp": ["1925-03-30"],
         "importance": "1"
      }
      }, 
    {
      "type": "Feature",
      "geometry": {
        "type": "Point",
        "coordinates": [16.359721, 48.216481]
      },
      "properties": {
         "id": "pmb184975",
         "title": "Alt Pilsenetzer Bierhalle",
         "lat": "48.216481",
         "lon": "16.359721",
         "timestamp": ["1925-03-04", "1925-03-07"],
         "importance": "2"
      }
      }, 
    {
      "type": "Feature",
      "geometry": {
        "type": "Point",
        "coordinates": [13.376389, 52.5225]
      },
      "properties": {
         "id": "pmb18",
         "title": "Lessing-Theater",
         "lat": "52.5225",
         "lon": "13.376389",
         "timestamp": ["1925-03-16"],
         "importance": "1"
      }
      }, 
    {
      "type": "Feature",
      "geometry": {
        "type": "Point",
        "coordinates": [13.366666, 52.516666]
      },
      "properties": {
         "id": "pmb36914",
         "title": "Tiergarten",
         "lat": "52.516666",
         "lon": "13.366666",
         "timestamp": ["1925-03-23"],
         "importance": "1"
      }
      }, 
    {
      "type": "Feature",
      "geometry": {
        "type": "Point",
        "coordinates": [13.318058, 52.511709]
      },
      "properties": {
         "id": "pmb334",
         "title": "Schiller-Theater",
         "lat": "52.511709",
         "lon": "13.318058",
         "timestamp": ["1925-03-15", "1925-03-18"],
         "importance": "2"
      }
      }, 
    {
      "type": "Feature",
      "geometry": {
        "type": "Point",
        "coordinates": [13.373611, 52.51]
      },
      "properties": {
         "id": "pmb146875",
         "title": "Café Josty",
         "lat": "52.51",
         "lon": "13.373611",
         "timestamp": ["1925-03-22"],
         "importance": "1"
      }
      }, 
    {
      "type": "Feature",
      "geometry": {
        "type": "Point",
        "coordinates": [16.35689, 48.21787]
      },
      "properties": {
         "id": "pmb232768",
         "title": "Beethovengasse 6",
         "lat": "48.21787",
         "lon": "16.35689",
         "timestamp": ["1925-03-10"],
         "importance": "1"
      }
      }, 
    {
      "type": "Feature",
      "geometry": {
        "type": "Point",
        "coordinates": [16.33716, 48.23188]
      },
      "properties": {
         "id": "pmb168815",
         "title": "Sternwartestraße 71",
         "lat": "48.23188",
         "lon": "16.33716",
         "timestamp": ["1925-03-01", "1925-03-02", "1925-03-03", "1925-03-04", "1925-03-05", "1925-03-06", "1925-03-07", "1925-03-08", "1925-03-09", "1925-03-10", "1925-03-11", "1925-03-12", "1925-03-13", "1925-03-14", "1925-03-15", "1925-03-16", "1925-03-17", "1925-03-18", "1925-03-19", "1925-03-20", "1925-03-21", "1925-03-22", "1925-03-23", "1925-03-24", "1925-03-25", "1925-03-26", "1925-03-27", "1925-03-28", "1925-03-29", "1925-03-30", "1925-03-31"],
         "importance": "31"
      }
      }, 
    {
      "type": "Feature",
      "geometry": {
        "type": "Point",
        "coordinates": [16.35137, 48.21346]
      },
      "properties": {
         "id": "pmb232800",
         "title": "Laudongasse 12",
         "lat": "48.21346",
         "lon": "16.35137",
         "timestamp": ["1925-03-10", "1925-03-31"],
         "importance": "2"
      }
      }, 
    {
      "type": "Feature",
      "geometry": {
        "type": "Point",
        "coordinates": [16.367725, 48.212284]
      },
      "properties": {
         "id": "pmb207301",
         "title": "Tiefer Graben 17",
         "lat": "48.212284",
         "lon": "16.367725",
         "timestamp": ["1925-03-31"],
         "importance": "1"
      }
      }, 
    {
      "type": "Feature",
      "geometry": {
        "type": "Point",
        "coordinates": [13.456944, 48.573333]
      },
      "properties": {
         "id": "pmb5907",
         "title": "Passau",
         "lat": "48.573333",
         "lon": "13.456944",
         "timestamp": ["1925-03-13"],
         "importance": "1"
      }
      }, 
    {
      "type": "Feature",
      "geometry": {
        "type": "Point",
        "coordinates": [13.32009, 52.51297]
      },
      "properties": {
         "id": "pmb231769",
         "title": "Grand-Hotel am Knie",
         "lat": "52.51297",
         "lon": "13.32009",
         "timestamp": ["1925-03-18"],
         "importance": "1"
      }
      }, 
    {
      "type": "Feature",
      "geometry": {
        "type": "Point",
        "coordinates": [13.3886, 52.5208]
      },
      "properties": {
         "id": "pmb186059",
         "title": "Admiralspalast",
         "lat": "52.5208",
         "lon": "13.3886",
         "timestamp": ["1925-03-21"],
         "importance": "1"
      }
      }, 
    {
      "type": "Feature",
      "geometry": {
        "type": "Point",
        "coordinates": [16.363758, 48.212483]
      },
      "properties": {
         "id": "pmb185333",
         "title": "Gastwirtschaft Alfred Leupold",
         "lat": "48.212483",
         "lon": "16.363758",
         "timestamp": ["1925-03-28"],
         "importance": "1"
      }
      }
  ]
}