{
  "type": "FeatureCollection",
  "features": [
    {
      "type": "Feature",
      "geometry": {
        "type": "Point",
        "coordinates": [16.373056, 48.208333]
      },
      "properties": {
         "id": "pmb50",
         "title": "Wien",
         "lat": "48.208333",
         "lon": "16.373056",
         "timestamp": ["1925-02-02", "1925-02-03", "1925-02-04", "1925-02-05", "1925-02-06", "1925-02-07", "1925-02-08", "1925-02-09", "1925-02-10", "1925-02-11", "1925-02-12", "1925-02-13", "1925-02-14", "1925-02-15", "1925-02-16", "1925-02-17", "1925-02-18", "1925-02-19", "1925-02-20", "1925-02-21", "1925-02-22", "1925-02-23", "1925-02-24", "1925-02-25", "1925-02-26", "1925-02-27", "1925-02-28"],
         "importance": "27"
      }
      }, 
    {
      "type": "Feature",
      "geometry": {
        "type": "Point",
        "coordinates": [16.3691, 48.203]
      },
      "properties": {
         "id": "pmb15",
         "title": "Oper",
         "lat": "48.203",
         "lon": "16.3691",
         "timestamp": ["1925-02-18"],
         "importance": "1"
      }
      }, 
    {
      "type": "Feature",
      "geometry": {
        "type": "Point",
        "coordinates": [16.351111, 48.209583]
      },
      "properties": {
         "id": "pmb40",
         "title": "Theater in der Josefstadt",
         "lat": "48.209583",
         "lon": "16.351111",
         "timestamp": ["1925-02-04"],
         "importance": "1"
      }
      }, 
    {
      "type": "Feature",
      "geometry": {
        "type": "Point",
        "coordinates": [16.299116267833, 48.230916826952]
      },
      "properties": {
         "id": "pmb499",
         "title": "Dornbach",
         "lat": "48.230916826952",
         "lon": "16.299116267833",
         "timestamp": ["1925-02-11"],
         "importance": "1"
      }
      }, 
    {
      "type": "Feature",
      "geometry": {
        "type": "Point",
        "coordinates": [9.84327, 46.49937]
      },
      "properties": {
         "id": "pmb1059",
         "title": "Sankt Moritz",
         "lat": "46.49937",
         "lon": "9.84327",
         "timestamp": ["1925-02-01"],
         "importance": "1"
      }
      }, 
    {
      "type": "Feature",
      "geometry": {
        "type": "Point",
        "coordinates": [16.371211, 48.206416]
      },
      "properties": {
         "id": "pmb96",
         "title": "Meissl & Schadn",
         "lat": "48.206416",
         "lon": "16.371211",
         "timestamp": ["1925-02-09", "1925-02-18"],
         "importance": "2"
      }
      }, 
    {
      "type": "Feature",
      "geometry": {
        "type": "Point",
        "coordinates": [16.300034240016, 48.246838181084]
      },
      "properties": {
         "id": "pmb169",
         "title": "Pötzleinsdorf",
         "lat": "48.246838181084",
         "lon": "16.300034240016",
         "timestamp": ["1925-02-11", "1925-02-15"],
         "importance": "2"
      }
      }, 
    {
      "type": "Feature",
      "geometry": {
        "type": "Point",
        "coordinates": [16.359721, 48.216481]
      },
      "properties": {
         "id": "pmb184975",
         "title": "Alt Pilsenetzer Bierhalle",
         "lat": "48.216481",
         "lon": "16.359721",
         "timestamp": ["1925-02-16", "1925-02-26"],
         "importance": "2"
      }
      }, 
    {
      "type": "Feature",
      "geometry": {
        "type": "Point",
        "coordinates": [16.296768550115, 48.248935842869]
      },
      "properties": {
         "id": "pmb243",
         "title": "Sommerhaidenweg",
         "lat": "48.248935842869",
         "lon": "16.296768550115",
         "timestamp": ["1925-02-11"],
         "importance": "1"
      }
      }, 
    {
      "type": "Feature",
      "geometry": {
        "type": "Point",
        "coordinates": [16.35689, 48.21787]
      },
      "properties": {
         "id": "pmb232768",
         "title": "Beethovengasse 6",
         "lat": "48.21787",
         "lon": "16.35689",
         "timestamp": ["1925-02-03", "1925-02-17", "1925-02-25"],
         "importance": "3"
      }
      }, 
    {
      "type": "Feature",
      "geometry": {
        "type": "Point",
        "coordinates": [16.33716, 48.23188]
      },
      "properties": {
         "id": "pmb168815",
         "title": "Sternwartestraße 71",
         "lat": "48.23188",
         "lon": "16.33716",
         "timestamp": ["1925-02-02", "1925-02-03", "1925-02-04", "1925-02-05", "1925-02-06", "1925-02-07", "1925-02-08", "1925-02-09", "1925-02-10", "1925-02-11", "1925-02-12", "1925-02-13", "1925-02-14", "1925-02-15", "1925-02-16", "1925-02-17", "1925-02-18", "1925-02-19", "1925-02-20", "1925-02-21", "1925-02-22", "1925-02-23", "1925-02-24", "1925-02-25", "1925-02-26", "1925-02-27", "1925-02-28"],
         "importance": "27"
      }
      }, 
    {
      "type": "Feature",
      "geometry": {
        "type": "Point",
        "coordinates": [16.375833, 48.211111]
      },
      "properties": {
         "id": "pmb633",
         "title": "Kammerspiele Wien",
         "lat": "48.211111",
         "lon": "16.375833",
         "timestamp": ["1925-02-09"],
         "importance": "1"
      }
      }, 
    {
      "type": "Feature",
      "geometry": {
        "type": "Point",
        "coordinates": [16.35137, 48.21346]
      },
      "properties": {
         "id": "pmb232800",
         "title": "Laudongasse 12",
         "lat": "48.21346",
         "lon": "16.35137",
         "timestamp": ["1925-02-06"],
         "importance": "1"
      }
      }, 
    {
      "type": "Feature",
      "geometry": {
        "type": "Point",
        "coordinates": [16.367725, 48.212284]
      },
      "properties": {
         "id": "pmb207301",
         "title": "Tiefer Graben 17",
         "lat": "48.212284",
         "lon": "16.367725",
         "timestamp": ["1925-02-10", "1925-02-24"],
         "importance": "2"
      }
      }, 
    {
      "type": "Feature",
      "geometry": {
        "type": "Point",
        "coordinates": [16.36171, 48.2116]
      },
      "properties": {
         "id": "pmb235784",
         "title": "Oppolzergasse 6",
         "lat": "48.2116",
         "lon": "16.36171",
         "timestamp": ["1925-02-12"],
         "importance": "1"
      }
      }, 
    {
      "type": "Feature",
      "geometry": {
        "type": "Point",
        "coordinates": [16.349979, 48.224251]
      },
      "properties": {
         "id": "pmb185452",
         "title": "Josef Pohl",
         "lat": "48.224251",
         "lon": "16.349979",
         "timestamp": ["1925-02-07"],
         "importance": "1"
      }
      }, 
    {
      "type": "Feature",
      "geometry": {
        "type": "Point",
        "coordinates": [16.35967, 48.21623]
      },
      "properties": {
         "id": "pmb700",
         "title": "Hotel Regina [Wien]",
         "lat": "48.21623",
         "lon": "16.35967",
         "timestamp": ["1925-02-21"],
         "importance": "1"
      }
      }
  ]
}