{
  "type": "FeatureCollection",
  "features": [
    {
      "type": "Feature",
      "geometry": {
        "type": "Point",
        "coordinates": [16.373056, 48.208333]
      },
      "properties": {
         "id": "pmb50",
         "title": "Wien",
         "lat": "48.208333",
         "lon": "16.373056",
         "timestamp": ["1926-05-20", "1926-05-21", "1926-05-22", "1926-05-23", "1926-05-24", "1926-05-25", "1926-05-26", "1926-05-27", "1926-05-28", "1926-05-29", "1926-05-30", "1926-05-31"],
         "importance": "12"
      }
      }, 
    {
      "type": "Feature",
      "geometry": {
        "type": "Point",
        "coordinates": [16.299116267833, 48.230916826952]
      },
      "properties": {
         "id": "pmb499",
         "title": "Dornbach",
         "lat": "48.230916826952",
         "lon": "16.299116267833",
         "timestamp": ["1926-05-24"],
         "importance": "1"
      }
      }, 
    {
      "type": "Feature",
      "geometry": {
        "type": "Point",
        "coordinates": [13.41053, 52.52437]
      },
      "properties": {
         "id": "pmb168",
         "title": "Berlin",
         "lat": "52.52437",
         "lon": "13.41053",
         "timestamp": ["1926-05-11", "1926-05-14", "1926-05-15", "1926-05-16", "1926-05-17", "1926-05-18", "1926-05-19"],
         "importance": "7"
      }
      }, 
    {
      "type": "Feature",
      "geometry": {
        "type": "Point",
        "coordinates": [13.392222, 52.513611]
      },
      "properties": {
         "id": "pmb143",
         "title": "Schauspielhaus Berlin",
         "lat": "52.513611",
         "lon": "13.392222",
         "timestamp": ["1926-05-12", "1926-05-13"],
         "importance": "2"
      }
      }, 
    {
      "type": "Feature",
      "geometry": {
        "type": "Point",
        "coordinates": [16.43898217221, 48.19252071812]
      },
      "properties": {
         "id": "pmb185",
         "title": "Lusthaus",
         "lat": "48.19252071812",
         "lon": "16.43898217221",
         "timestamp": ["1926-05-30"],
         "importance": "1"
      }
      }, 
    {
      "type": "Feature",
      "geometry": {
        "type": "Point",
        "coordinates": [9.98277778, 53.54]
      },
      "properties": {
         "id": "pmb199707",
         "title": "Hamburger Hafen",
         "lat": "53.54",
         "lon": "9.98277778",
         "timestamp": ["1926-05-11"],
         "importance": "1"
      }
      }, 
    {
      "type": "Feature",
      "geometry": {
        "type": "Point",
        "coordinates": [16.347492624475, 48.216264483348]
      },
      "properties": {
         "id": "pmb89",
         "title": "Sanatorium Loew",
         "lat": "48.216264483348",
         "lon": "16.347492624475",
         "timestamp": ["1926-05-25"],
         "importance": "1"
      }
      }, 
    {
      "type": "Feature",
      "geometry": {
        "type": "Point",
        "coordinates": [16.495, 48.165833333333]
      },
      "properties": {
         "id": "pmb200745",
         "title": "Praterspitz",
         "lat": "48.165833333333",
         "lon": "16.495",
         "timestamp": ["1926-05-30"],
         "importance": "1"
      }
      }, 
    {
      "type": "Feature",
      "geometry": {
        "type": "Point",
        "coordinates": [13.0385, 52.40416]
      },
      "properties": {
         "id": "pmb16682",
         "title": "Schloss Sanssouci",
         "lat": "52.40416",
         "lon": "13.0385",
         "timestamp": ["1926-05-15"],
         "importance": "1"
      }
      }, 
    {
      "type": "Feature",
      "geometry": {
        "type": "Point",
        "coordinates": [16.322222222222, 48.263611111111]
      },
      "properties": {
         "id": "pmb194903",
         "title": "Am Kobenzl",
         "lat": "48.263611111111",
         "lon": "16.322222222222",
         "timestamp": ["1926-05-28"],
         "importance": "1"
      }
      }, 
    {
      "type": "Feature",
      "geometry": {
        "type": "Point",
        "coordinates": [13.366666, 52.516666]
      },
      "properties": {
         "id": "pmb36914",
         "title": "Tiergarten",
         "lat": "52.516666",
         "lon": "13.366666",
         "timestamp": ["1926-05-12"],
         "importance": "1"
      }
      }, 
    {
      "type": "Feature",
      "geometry": {
        "type": "Point",
        "coordinates": [16.349979, 48.224251]
      },
      "properties": {
         "id": "pmb185452",
         "title": "Josef Pohl",
         "lat": "48.224251",
         "lon": "16.349979",
         "timestamp": ["1926-05-26", "1926-05-29", "1926-05-31"],
         "importance": "3"
      }
      }, 
    {
      "type": "Feature",
      "geometry": {
        "type": "Point",
        "coordinates": [-15.41343, 28.09973]
      },
      "properties": {
         "id": "pmb1096",
         "title": "Las Palmas de Gran Canaria",
         "lat": "28.09973",
         "lon": "-15.41343",
         "timestamp": ["1926-05-01", "1926-05-02", "1926-05-03", "1926-05-04"],
         "importance": "4"
      }
      }, 
    {
      "type": "Feature",
      "geometry": {
        "type": "Point",
        "coordinates": [1.61392, 50.72571]
      },
      "properties": {
         "id": "pmb3276",
         "title": "Boulogne-sur-Mer",
         "lat": "50.72571",
         "lon": "1.61392",
         "timestamp": ["1926-05-09"],
         "importance": "1"
      }
      }, 
    {
      "type": "Feature",
      "geometry": {
        "type": "Point",
        "coordinates": [8.69902, 53.86828]
      },
      "properties": {
         "id": "pmb90504",
         "title": "Cuxhaven",
         "lat": "53.86828",
         "lon": "8.69902",
         "timestamp": ["1926-05-10"],
         "importance": "1"
      }
      }
  ]
}