{
  "type": "FeatureCollection",
  "features": [
    {
      "type": "Feature",
      "geometry": {
        "type": "Point",
        "coordinates": [16.373056, 48.208333]
      },
      "properties": {
         "id": "pmb50",
         "title": "Wien",
         "lat": "48.208333",
         "lon": "16.373056",
         "timestamp": ["1926-11-01", "1926-11-02", "1926-11-03", "1926-11-04", "1926-11-05", "1926-11-06", "1926-11-07", "1926-11-08", "1926-11-09", "1926-11-10", "1926-11-11", "1926-11-12", "1926-11-13", "1926-11-14", "1926-11-15", "1926-11-16", "1926-11-17", "1926-11-18", "1926-11-19", "1926-11-20", "1926-11-21", "1926-11-22", "1926-11-23", "1926-11-24", "1926-11-25", "1926-11-26", "1926-11-27", "1926-11-28", "1926-11-29", "1926-11-30"],
         "importance": "30"
      }
      }, 
    {
      "type": "Feature",
      "geometry": {
        "type": "Point",
        "coordinates": [16.372564182283, 48.201265597319]
      },
      "properties": {
         "id": "pmb516",
         "title": "Musikverein",
         "lat": "48.201265597319",
         "lon": "16.372564182283",
         "timestamp": ["1926-11-04"],
         "importance": "1"
      }
      }, 
    {
      "type": "Feature",
      "geometry": {
        "type": "Point",
        "coordinates": [16.351111, 48.209583]
      },
      "properties": {
         "id": "pmb40",
         "title": "Theater in der Josefstadt",
         "lat": "48.209583",
         "lon": "16.351111",
         "timestamp": ["1926-11-21"],
         "importance": "1"
      }
      }, 
    {
      "type": "Feature",
      "geometry": {
        "type": "Point",
        "coordinates": [16.361139, 48.210333]
      },
      "properties": {
         "id": "pmb14",
         "title": "Burgtheater",
         "lat": "48.210333",
         "lon": "16.361139",
         "timestamp": ["1926-11-05"],
         "importance": "1"
      }
      }, 
    {
      "type": "Feature",
      "geometry": {
        "type": "Point",
        "coordinates": [16.36471, 48.200556]
      },
      "properties": {
         "id": "pmb97",
         "title": "Zum Weingartl",
         "lat": "48.200556",
         "lon": "16.36471",
         "timestamp": ["1926-11-17"],
         "importance": "1"
      }
      }, 
    {
      "type": "Feature",
      "geometry": {
        "type": "Point",
        "coordinates": [16.37312, 48.20122]
      },
      "properties": {
         "id": "pmb43",
         "title": "Café Imperial",
         "lat": "48.20122",
         "lon": "16.37312",
         "timestamp": ["1926-11-22", "1926-11-26"],
         "importance": "2"
      }
      }, 
    {
      "type": "Feature",
      "geometry": {
        "type": "Point",
        "coordinates": [16.333568462613, 48.235119783861]
      },
      "properties": {
         "id": "pmb113",
         "title": "Türkenschanzpark",
         "lat": "48.235119783861",
         "lon": "16.333568462613",
         "timestamp": ["1926-11-02"],
         "importance": "1"
      }
      }, 
    {
      "type": "Feature",
      "geometry": {
        "type": "Point",
        "coordinates": [16.276509500872, 48.241960480337]
      },
      "properties": {
         "id": "pmb176",
         "title": "Schwarzenbergpark",
         "lat": "48.241960480337",
         "lon": "16.276509500872",
         "timestamp": ["1926-11-14"],
         "importance": "1"
      }
      }, 
    {
      "type": "Feature",
      "geometry": {
        "type": "Point",
        "coordinates": [16.338015, 48.234046]
      },
      "properties": {
         "id": "pmb185644",
         "title": "Peregringasse 4",
         "lat": "48.234046",
         "lon": "16.338015",
         "timestamp": ["1926-11-08", "1926-11-13", "1926-11-24"],
         "importance": "3"
      }
      }, 
    {
      "type": "Feature",
      "geometry": {
        "type": "Point",
        "coordinates": [16.377815, 48.21318]
      },
      "properties": {
         "id": "pmb185465",
         "title": "Tonello beim Dianabad",
         "lat": "48.21318",
         "lon": "16.377815",
         "timestamp": ["1926-11-05"],
         "importance": "1"
      }
      }, 
    {
      "type": "Feature",
      "geometry": {
        "type": "Point",
        "coordinates": [16.37312, 48.20122]
      },
      "properties": {
         "id": "pmb126",
         "title": "Hotel Imperial",
         "lat": "48.20122",
         "lon": "16.37312",
         "timestamp": ["1926-11-22"],
         "importance": "1"
      }
      }, 
    {
      "type": "Feature",
      "geometry": {
        "type": "Point",
        "coordinates": [16.353889, 48.1975]
      },
      "properties": {
         "id": "pmb52023",
         "title": "Apollo-Theater [Wien]",
         "lat": "48.1975",
         "lon": "16.353889",
         "timestamp": ["1926-11-22"],
         "importance": "1"
      }
      }, 
    {
      "type": "Feature",
      "geometry": {
        "type": "Point",
        "coordinates": [16.23114, 48.012864]
      },
      "properties": {
         "id": "pmb92195",
         "title": "Kurpark",
         "lat": "48.012864",
         "lon": "16.23114",
         "timestamp": ["1926-11-01"],
         "importance": "1"
      }
      }, 
    {
      "type": "Feature",
      "geometry": {
        "type": "Point",
        "coordinates": [16.35689, 48.21787]
      },
      "properties": {
         "id": "pmb232768",
         "title": "Beethovengasse 6",
         "lat": "48.21787",
         "lon": "16.35689",
         "timestamp": ["1926-11-09", "1926-11-17", "1926-11-24", "1926-11-30"],
         "importance": "4"
      }
      }, 
    {
      "type": "Feature",
      "geometry": {
        "type": "Point",
        "coordinates": [16.33716, 48.23188]
      },
      "properties": {
         "id": "pmb168815",
         "title": "Sternwartestraße 71",
         "lat": "48.23188",
         "lon": "16.33716",
         "timestamp": ["1926-11-01", "1926-11-02", "1926-11-03", "1926-11-04", "1926-11-05", "1926-11-06", "1926-11-07", "1926-11-08", "1926-11-09", "1926-11-10", "1926-11-11", "1926-11-12", "1926-11-13", "1926-11-14", "1926-11-15", "1926-11-16", "1926-11-17", "1926-11-18", "1926-11-19", "1926-11-20", "1926-11-21", "1926-11-22", "1926-11-23", "1926-11-24", "1926-11-25", "1926-11-26", "1926-11-27", "1926-11-28", "1926-11-29", "1926-11-30"],
         "importance": "30"
      }
      }, 
    {
      "type": "Feature",
      "geometry": {
        "type": "Point",
        "coordinates": [16.26161, 48.21575]
      },
      "properties": {
         "id": "pmb91663",
         "title": "Satzberg",
         "lat": "48.21575",
         "lon": "16.26161",
         "timestamp": ["1926-11-07", "1926-11-21"],
         "importance": "2"
      }
      }, 
    {
      "type": "Feature",
      "geometry": {
        "type": "Point",
        "coordinates": [16.35137, 48.21346]
      },
      "properties": {
         "id": "pmb232800",
         "title": "Laudongasse 12",
         "lat": "48.21346",
         "lon": "16.35137",
         "timestamp": ["1926-11-16"],
         "importance": "1"
      }
      }, 
    {
      "type": "Feature",
      "geometry": {
        "type": "Point",
        "coordinates": [16.367725, 48.212284]
      },
      "properties": {
         "id": "pmb207301",
         "title": "Tiefer Graben 17",
         "lat": "48.212284",
         "lon": "16.367725",
         "timestamp": ["1926-11-19", "1926-11-30"],
         "importance": "2"
      }
      }, 
    {
      "type": "Feature",
      "geometry": {
        "type": "Point",
        "coordinates": [16.34629, 48.21327]
      },
      "properties": {
         "id": "pmb211373",
         "title": "Wiener Stadttheater [8. Wiener Gemeindebezirk]",
         "lat": "48.21327",
         "lon": "16.34629",
         "timestamp": ["1926-11-24"],
         "importance": "1"
      }
      }, 
    {
      "type": "Feature",
      "geometry": {
        "type": "Point",
        "coordinates": [16.372609, 48.208087]
      },
      "properties": {
         "id": "pmb185324",
         "title": "Meinl Churhaus-Restaurant",
         "lat": "48.208087",
         "lon": "16.372609",
         "timestamp": ["1926-11-19"],
         "importance": "1"
      }
      }, 
    {
      "type": "Feature",
      "geometry": {
        "type": "Point",
        "coordinates": [16.37997, 48.21366]
      },
      "properties": {
         "id": "pmb584",
         "title": "Zentralkino",
         "lat": "48.21366",
         "lon": "16.37997",
         "timestamp": ["1926-11-05"],
         "importance": "1"
      }
      }, 
    {
      "type": "Feature",
      "geometry": {
        "type": "Point",
        "coordinates": [16.327784, 48.227627]
      },
      "properties": {
         "id": "pmb190582",
         "title": "Michelbeuerntheater",
         "lat": "48.227627",
         "lon": "16.327784",
         "timestamp": ["1926-11-06"],
         "importance": "1"
      }
      }
  ]
}