{
  "type": "FeatureCollection",
  "features": [
    {
      "type": "Feature",
      "geometry": {
        "type": "Point",
        "coordinates": [16.372564182283, 48.201265597319]
      },
      "properties": {
         "id": "pmb516",
         "title": "Musikverein",
         "lat": "48.201265597319",
         "lon": "16.372564182283",
         "timestamp": ["1926-02-13"],
         "importance": "1"
      }
      }, 
    {
      "type": "Feature",
      "geometry": {
        "type": "Point",
        "coordinates": [16.373056, 48.208333]
      },
      "properties": {
         "id": "pmb50",
         "title": "Wien",
         "lat": "48.208333",
         "lon": "16.373056",
         "timestamp": ["1926-02-01", "1926-02-02", "1926-02-03", "1926-02-04", "1926-02-17", "1926-02-18", "1926-02-19", "1926-02-20", "1926-02-21", "1926-02-22", "1926-02-23", "1926-02-24", "1926-02-25", "1926-02-26", "1926-02-27", "1926-02-28"],
         "importance": "16"
      }
      }, 
    {
      "type": "Feature",
      "geometry": {
        "type": "Point",
        "coordinates": [13.41053, 52.52437]
      },
      "properties": {
         "id": "pmb168",
         "title": "Berlin",
         "lat": "52.52437",
         "lon": "13.41053",
         "timestamp": ["1926-02-05", "1926-02-06", "1926-02-08", "1926-02-09", "1926-02-10", "1926-02-11", "1926-02-12", "1926-02-13", "1926-02-14", "1926-02-15", "1926-02-16"],
         "importance": "11"
      }
      }, 
    {
      "type": "Feature",
      "geometry": {
        "type": "Point",
        "coordinates": [16.338015, 48.234046]
      },
      "properties": {
         "id": "pmb185644",
         "title": "Peregringasse 4",
         "lat": "48.234046",
         "lon": "16.338015",
         "timestamp": ["1926-02-01"],
         "importance": "1"
      }
      }, 
    {
      "type": "Feature",
      "geometry": {
        "type": "Point",
        "coordinates": [16.366551, 48.206783]
      },
      "properties": {
         "id": "pmb48198",
         "title": "Redoutensaal",
         "lat": "48.206783",
         "lon": "16.366551",
         "timestamp": ["1926-02-26"],
         "importance": "1"
      }
      }, 
    {
      "type": "Feature",
      "geometry": {
        "type": "Point",
        "coordinates": [16.363758, 48.212483]
      },
      "properties": {
         "id": "pmb185333",
         "title": "Gastwirtschaft Alfred Leupold",
         "lat": "48.212483",
         "lon": "16.363758",
         "timestamp": ["1926-02-19"],
         "importance": "1"
      }
      }, 
    {
      "type": "Feature",
      "geometry": {
        "type": "Point",
        "coordinates": [13.376111, 52.518611]
      },
      "properties": {
         "id": "pmb142545",
         "title": "Reichstag",
         "lat": "52.518611",
         "lon": "13.376111",
         "timestamp": ["1926-02-07"],
         "importance": "1"
      }
      }
  ]
}