{
  "type": "FeatureCollection",
  "features": [
    {
      "type": "Feature",
      "geometry": {
        "type": "Point",
        "coordinates": [16.373056, 48.208333]
      },
      "properties": {
         "id": "pmb50",
         "title": "Wien",
         "lat": "48.208333",
         "lon": "16.373056",
         "timestamp": ["1926-06-01", "1926-06-02", "1926-06-03", "1926-06-04", "1926-06-05", "1926-06-06", "1926-06-07", "1926-06-08", "1926-06-09", "1926-06-10", "1926-06-11", "1926-06-12", "1926-06-13", "1926-06-14", "1926-06-15", "1926-06-16", "1926-06-17", "1926-06-18", "1926-06-19", "1926-06-20", "1926-06-21", "1926-06-22", "1926-06-23", "1926-06-24", "1926-06-25", "1926-06-26", "1926-06-27", "1926-06-28", "1926-06-29", "1926-06-30"],
         "importance": "30"
      }
      }, 
    {
      "type": "Feature",
      "geometry": {
        "type": "Point",
        "coordinates": [16.351111, 48.209583]
      },
      "properties": {
         "id": "pmb40",
         "title": "Theater in der Josefstadt",
         "lat": "48.209583",
         "lon": "16.351111",
         "timestamp": ["1926-06-07", "1926-06-08"],
         "importance": "2"
      }
      }, 
    {
      "type": "Feature",
      "geometry": {
        "type": "Point",
        "coordinates": [16.365211, 48.189213]
      },
      "properties": {
         "id": "pmb185540",
         "title": "Gasthof zum Hirschen, Leopold Wallner",
         "lat": "48.189213",
         "lon": "16.365211",
         "timestamp": ["1926-06-12"],
         "importance": "1"
      }
      }, 
    {
      "type": "Feature",
      "geometry": {
        "type": "Point",
        "coordinates": [16.3566, 48.205142]
      },
      "properties": {
         "id": "pmb20",
         "title": "Volkstheater",
         "lat": "48.205142",
         "lon": "16.3566",
         "timestamp": ["1926-06-10", "1926-06-11"],
         "importance": "2"
      }
      }, 
    {
      "type": "Feature",
      "geometry": {
        "type": "Point",
        "coordinates": [16.36471, 48.200556]
      },
      "properties": {
         "id": "pmb97",
         "title": "Zum Weingartl",
         "lat": "48.200556",
         "lon": "16.36471",
         "timestamp": ["1926-06-10"],
         "importance": "1"
      }
      }, 
    {
      "type": "Feature",
      "geometry": {
        "type": "Point",
        "coordinates": [16.37312, 48.20122]
      },
      "properties": {
         "id": "pmb43",
         "title": "Café Imperial",
         "lat": "48.20122",
         "lon": "16.37312",
         "timestamp": ["1926-06-17"],
         "importance": "1"
      }
      }, 
    {
      "type": "Feature",
      "geometry": {
        "type": "Point",
        "coordinates": [16.276509500872, 48.241960480337]
      },
      "properties": {
         "id": "pmb176",
         "title": "Schwarzenbergpark",
         "lat": "48.241960480337",
         "lon": "16.276509500872",
         "timestamp": ["1926-06-22"],
         "importance": "1"
      }
      }, 
    {
      "type": "Feature",
      "geometry": {
        "type": "Point",
        "coordinates": [16.362946, 48.214527]
      },
      "properties": {
         "id": "pmb337",
         "title": "Hotel de France",
         "lat": "48.214527",
         "lon": "16.362946",
         "timestamp": ["1926-06-18"],
         "importance": "1"
      }
      }, 
    {
      "type": "Feature",
      "geometry": {
        "type": "Point",
        "coordinates": [16.34618, 48.27805]
      },
      "properties": {
         "id": "pmb59364",
         "title": "Leopoldsberg",
         "lat": "48.27805",
         "lon": "16.34618",
         "timestamp": ["1926-06-27"],
         "importance": "1"
      }
      }, 
    {
      "type": "Feature",
      "geometry": {
        "type": "Point",
        "coordinates": [16.23333, 48.26667]
      },
      "properties": {
         "id": "pmb289",
         "title": "Steinriegl",
         "lat": "48.26667",
         "lon": "16.23333",
         "timestamp": ["1926-06-06", "1926-06-20"],
         "importance": "2"
      }
      }, 
    {
      "type": "Feature",
      "geometry": {
        "type": "Point",
        "coordinates": [16.338015, 48.234046]
      },
      "properties": {
         "id": "pmb185644",
         "title": "Peregringasse 4",
         "lat": "48.234046",
         "lon": "16.338015",
         "timestamp": ["1926-06-19"],
         "importance": "1"
      }
      }, 
    {
      "type": "Feature",
      "geometry": {
        "type": "Point",
        "coordinates": [16.35468, 48.27475]
      },
      "properties": {
         "id": "pmb90969",
         "title": "Kahlenbergerdorf",
         "lat": "48.27475",
         "lon": "16.35468",
         "timestamp": ["1926-06-27"],
         "importance": "1"
      }
      }, 
    {
      "type": "Feature",
      "geometry": {
        "type": "Point",
        "coordinates": [16.2911, 48.2553]
      },
      "properties": {
         "id": "pmb242",
         "title": "Salmannsdorf",
         "lat": "48.2553",
         "lon": "16.2911",
         "timestamp": ["1926-06-13"],
         "importance": "1"
      }
      }, 
    {
      "type": "Feature",
      "geometry": {
        "type": "Point",
        "coordinates": [16.320719, 48.238032]
      },
      "properties": {
         "id": "pmb248",
         "title": "Kratzer’s Restaurant Gersthof",
         "lat": "48.238032",
         "lon": "16.320719",
         "timestamp": ["1926-06-24"],
         "importance": "1"
      }
      }, 
    {
      "type": "Feature",
      "geometry": {
        "type": "Point",
        "coordinates": [16.28606, 48.25849]
      },
      "properties": {
         "id": "pmb537",
         "title": "Dreimarkstein [Wien]",
         "lat": "48.25849",
         "lon": "16.28606",
         "timestamp": ["1926-06-13", "1926-06-29"],
         "importance": "2"
      }
      }, 
    {
      "type": "Feature",
      "geometry": {
        "type": "Point",
        "coordinates": [16.33494, 48.23365]
      },
      "properties": {
         "id": "pmb235251",
         "title": "Hasenauerstraße 59",
         "lat": "48.23365",
         "lon": "16.33494",
         "timestamp": ["1926-06-02"],
         "importance": "1"
      }
      }, 
    {
      "type": "Feature",
      "geometry": {
        "type": "Point",
        "coordinates": [16.35113888888889, 48.27713888888889]
      },
      "properties": {
         "id": "pmb239320",
         "title": "Nasenweg",
         "lat": "48.27713888888889",
         "lon": "16.35113888888889",
         "timestamp": ["1926-06-27"],
         "importance": "1"
      }
      }, 
    {
      "type": "Feature",
      "geometry": {
        "type": "Point",
        "coordinates": [16.35689, 48.21787]
      },
      "properties": {
         "id": "pmb232768",
         "title": "Beethovengasse 6",
         "lat": "48.21787",
         "lon": "16.35689",
         "timestamp": ["1926-06-01", "1926-06-09", "1926-06-30"],
         "importance": "3"
      }
      }, 
    {
      "type": "Feature",
      "geometry": {
        "type": "Point",
        "coordinates": [16.33716, 48.23188]
      },
      "properties": {
         "id": "pmb168815",
         "title": "Sternwartestraße 71",
         "lat": "48.23188",
         "lon": "16.33716",
         "timestamp": ["1926-06-01", "1926-06-02", "1926-06-03", "1926-06-04", "1926-06-05", "1926-06-06", "1926-06-07", "1926-06-08", "1926-06-09", "1926-06-10", "1926-06-11", "1926-06-12", "1926-06-13", "1926-06-14", "1926-06-15", "1926-06-16", "1926-06-17", "1926-06-18", "1926-06-19", "1926-06-20", "1926-06-21", "1926-06-22", "1926-06-23", "1926-06-24", "1926-06-25", "1926-06-26", "1926-06-27", "1926-06-28", "1926-06-29", "1926-06-30"],
         "importance": "30"
      }
      }, 
    {
      "type": "Feature",
      "geometry": {
        "type": "Point",
        "coordinates": [16.35137, 48.21346]
      },
      "properties": {
         "id": "pmb232800",
         "title": "Laudongasse 12",
         "lat": "48.21346",
         "lon": "16.35137",
         "timestamp": ["1926-06-11", "1926-06-25"],
         "importance": "2"
      }
      }, 
    {
      "type": "Feature",
      "geometry": {
        "type": "Point",
        "coordinates": [16.367725, 48.212284]
      },
      "properties": {
         "id": "pmb207301",
         "title": "Tiefer Graben 17",
         "lat": "48.212284",
         "lon": "16.367725",
         "timestamp": ["1926-06-09", "1926-06-18", "1926-06-30"],
         "importance": "3"
      }
      }, 
    {
      "type": "Feature",
      "geometry": {
        "type": "Point",
        "coordinates": [16.37743, 48.1984]
      },
      "properties": {
         "id": "pmb92525",
         "title": "Kammer-Lichtspiele",
         "lat": "48.1984",
         "lon": "16.37743",
         "timestamp": ["1926-06-12"],
         "importance": "1"
      }
      }, 
    {
      "type": "Feature",
      "geometry": {
        "type": "Point",
        "coordinates": [16.349979, 48.224251]
      },
      "properties": {
         "id": "pmb185452",
         "title": "Josef Pohl",
         "lat": "48.224251",
         "lon": "16.349979",
         "timestamp": ["1926-06-04"],
         "importance": "1"
      }
      }
  ]
}