{
  "type": "FeatureCollection",
  "features": [
    {
      "type": "Feature", 
      "geometry": {
        "type": "LineString", 
        "coordinates": [
            [16.361139, 48.210333], 
            [16.367998, 48.203159], 
            [16.373056, 48.208333], 
            [16.3559, 48.2523], 
            [16.355191, 48.248422], 
            [16.33716, 48.23188]
          ]
      },
      "properties": {
        "name": "24. März 1928"
      }
    },
    {
      "type": "Feature",
      "geometry": {
        "type": "Point",
        "coordinates": [
          16.373056, 48.208333
        ]
      },
      "properties": {
        "title": "Wien",
        "timestamp": ["1928-03-24"],
        "pmb": "https://pmb.acdh.oeaw.ac.at/entity//", 
        "wikipedia": "https://de.wikipedia.org/wiki/Wien"
      }
      },
    {
      "type": "Feature",
      "geometry": {
        "type": "Point",
        "coordinates": [
          16.355191, 48.248422
        ]
      },
      "properties": {
        "title": "Hohe Warte",
        "timestamp": ["1928-03-24"],
        "pmb": "https://pmb.acdh.oeaw.ac.at/entity//", 
        "wikipedia": "https://de.wikipedia.org/wiki/Hohe_Warte_(Wien)"
      }
      },
    {
      "type": "Feature",
      "geometry": {
        "type": "Point",
        "coordinates": [
          16.367998, 48.203159
        ]
      },
      "properties": {
        "title": "Opernrestaurant",
        "timestamp": ["1928-03-24"],
        "pmb": "https://pmb.acdh.oeaw.ac.at/entity//"
      }
      },
    {
      "type": "Feature",
      "geometry": {
        "type": "Point",
        "coordinates": [
          16.361139, 48.210333
        ]
      },
      "properties": {
        "title": "Burgtheater",
        "timestamp": ["1928-03-24"],
        "pmb": "https://pmb.acdh.oeaw.ac.at/entity//"
      }
      },
    {
      "type": "Feature",
      "geometry": {
        "type": "Point",
        "coordinates": [
          16.3559, 48.2523
        ]
      },
      "properties": {
        "title": "Haus Moll",
        "timestamp": ["1928-03-24"],
        "pmb": "https://pmb.acdh.oeaw.ac.at/entity//"
      }
      },
    {
      "type": "Feature",
      "geometry": {
        "type": "Point",
        "coordinates": [
          16.33716, 48.23188
        ]
      },
      "properties": {
        "title": "Sternwartestraße 71",
        "timestamp": ["1928-03-24"],
        "pmb": "https://pmb.acdh.oeaw.ac.at/entity//"
      }
      }
  ]
}