{
  "type": "FeatureCollection",
  "features": [
    {
      "type": "Feature", 
      "geometry": {
        "type": "LineString", 
        "coordinates": [
            [13.61893, 47.71109], 
            [13.62173, 47.7105], 
            [13.779, 47.80716], 
            [13.723216, 47.811987], 
            [13.72253, 47.8163]
          ]
      },
      "properties": {
        "name": "13. Juni 1928"
      }
    },
    {
      "type": "Feature",
      "geometry": {
        "type": "Point",
        "coordinates": [
          13.61893, 47.71109
        ]
      },
      "properties": {
        "title": "Bad Ischl",
        "timestamp": ["1928-06-13"],
        "pmb": "https://pmb.acdh.oeaw.ac.at/entity//", 
        "wikipedia": "https://de.wikipedia.org/wiki/Bad_Ischl"
      }
      },
    {
      "type": "Feature",
      "geometry": {
        "type": "Point",
        "coordinates": [
          13.62173, 47.7105
        ]
      },
      "properties": {
        "title": "Hotel Kaiserin Elisabeth",
        "timestamp": ["1928-06-13"],
        "pmb": "https://pmb.acdh.oeaw.ac.at/entity//"
      }
      },
    {
      "type": "Feature",
      "geometry": {
        "type": "Point",
        "coordinates": [
          13.779, 47.80716
        ]
      },
      "properties": {
        "title": "Ebensee am Traunsee",
        "timestamp": ["1928-06-13"],
        "pmb": "https://pmb.acdh.oeaw.ac.at/entity//", 
        "wikipedia": "https://de.wikipedia.org/wiki/Ebensee_am_Traunsee"
      }
      },
    {
      "type": "Feature",
      "geometry": {
        "type": "Point",
        "coordinates": [
          13.723216, 47.811987
        ]
      },
      "properties": {
        "title": "Kranabethsattel",
        "timestamp": ["1928-06-13"],
        "pmb": "https://pmb.acdh.oeaw.ac.at/entity//"
      }
      },
    {
      "type": "Feature",
      "geometry": {
        "type": "Point",
        "coordinates": [
          13.72253, 47.8163
        ]
      },
      "properties": {
        "title": "Feuerkogel",
        "timestamp": ["1928-06-13"],
        "pmb": "https://pmb.acdh.oeaw.ac.at/entity//"
      }
      }
  ]
}