{
  "type": "FeatureCollection",
  "features": [
    {
      "type": "Feature", 
      "geometry": {
        "type": "LineString", 
        "coordinates": [
            [28.9779209, 41.0084038], 
            [28.98, 41.00833333333333], 
            [29.0944, 40.8753], 
            [29.013, 41.00388], 
            [29.06097, 41.10164], 
            [28.9775, 41.03694], 
            [28.973055555556, 41.02], 
            [28.94966, 41.01384]
          ]
      },
      "properties": {
        "name": "23. April 1928"
      }
    },
    {
      "type": "Feature",
      "geometry": {
        "type": "Point",
        "coordinates": [
          28.94966, 41.01384
        ]
      },
      "properties": {
        "title": "Istanbul",
        "timestamp": ["1928-04-23"],
        "pmb": "https://pmb.acdh.oeaw.ac.at/entity//", 
        "wikipedia": "https://de.wikipedia.org/wiki/Istanbul"
      }
      },
    {
      "type": "Feature",
      "geometry": {
        "type": "Point",
        "coordinates": [
          28.9775, 41.03694
        ]
      },
      "properties": {
        "title": "Beyoğlu",
        "timestamp": ["1928-04-23"],
        "pmb": "https://pmb.acdh.oeaw.ac.at/entity//"
      }
      },
    {
      "type": "Feature",
      "geometry": {
        "type": "Point",
        "coordinates": [
          29.06097, 41.10164
        ]
      },
      "properties": {
        "title": "Bosporus",
        "timestamp": ["1928-04-23"],
        "pmb": "https://pmb.acdh.oeaw.ac.at/entity//"
      }
      },
    {
      "type": "Feature",
      "geometry": {
        "type": "Point",
        "coordinates": [
          29.013, 41.00388
        ]
      },
      "properties": {
        "title": "Haydarpaşa",
        "timestamp": ["1928-04-23"],
        "pmb": "https://pmb.acdh.oeaw.ac.at/entity//"
      }
      },
    {
      "type": "Feature",
      "geometry": {
        "type": "Point",
        "coordinates": [
          28.98, 41.00833333333333
        ]
      },
      "properties": {
        "title": "Hagia Sophia",
        "timestamp": ["1928-04-23"],
        "pmb": "https://pmb.acdh.oeaw.ac.at/entity//", 
        "wikipedia": "https://de.wikipedia.org/wiki/Hagia_Sophia"
      }
      },
    {
      "type": "Feature",
      "geometry": {
        "type": "Point",
        "coordinates": [
          28.9779209, 41.0084038
        ]
      },
      "properties": {
        "title": "Cisterna Basilica",
        "timestamp": ["1928-04-23"],
        "pmb": "https://pmb.acdh.oeaw.ac.at/entity//", 
        "wikipedia": "https://de.wikipedia.org/wiki/Yerebatan-Zisterne"
      }
      },
    {
      "type": "Feature",
      "geometry": {
        "type": "Point",
        "coordinates": [
          28.973055555556, 41.02
        ]
      },
      "properties": {
        "title": "Galatabrücke",
        "timestamp": ["1928-04-23"],
        "pmb": "https://pmb.acdh.oeaw.ac.at/entity//", 
        "wikipedia": "https://de.wikipedia.org/wiki/Galatabr%C3%BCcke"
      }
      },
    {
      "type": "Feature",
      "geometry": {
        "type": "Point",
        "coordinates": [
          29.0944, 40.8753
        ]
      },
      "properties": {
        "title": "Prinzeninseln",
        "timestamp": ["1928-04-23"],
        "pmb": "https://pmb.acdh.oeaw.ac.at/entity//", 
        "wikipedia": "https://de.wikipedia.org/wiki/Prinzeninseln_(Istanbul)"
      }
      }
  ]
}