{
  "type": "FeatureCollection",
  "features": [
    {
      "type": "Feature",
      "geometry": {
        "type": "Point",
        "coordinates": [16.373056, 48.208333]
      },
      "properties": {
         "id": "pmb50",
         "title": "Wien",
         "lat": "48.208333",
         "lon": "16.373056",
         "timestamp": ["1929-12-01", "1929-12-02", "1929-12-03", "1929-12-04", "1929-12-05", "1929-12-06", "1929-12-08", "1929-12-09", "1929-12-10", "1929-12-12", "1929-12-13", "1929-12-14", "1929-12-15", "1929-12-16", "1929-12-17", "1929-12-19", "1929-12-20", "1929-12-21", "1929-12-22", "1929-12-23", "1929-12-24", "1929-12-25", "1929-12-26", "1929-12-27"],
         "importance": "24"
      }
      }, 
    {
      "type": "Feature",
      "geometry": {
        "type": "Point",
        "coordinates": [16.361139, 48.210333]
      },
      "properties": {
         "id": "pmb14",
         "title": "Burgtheater",
         "lat": "48.210333",
         "lon": "16.361139",
         "timestamp": ["1929-12-02"],
         "importance": "1"
      }
      }, 
    {
      "type": "Feature",
      "geometry": {
        "type": "Point",
        "coordinates": [13.41053, 52.52437]
      },
      "properties": {
         "id": "pmb168",
         "title": "Berlin",
         "lat": "52.52437",
         "lon": "13.41053",
         "timestamp": ["1929-12-28", "1929-12-29", "1929-12-31"],
         "importance": "3"
      }
      }, 
    {
      "type": "Feature",
      "geometry": {
        "type": "Point",
        "coordinates": [16.3747466, 48.2104057]
      },
      "properties": {
         "id": "pmb705",
         "title": "Zur Linde",
         "lat": "48.2104057",
         "lon": "16.3747466",
         "timestamp": ["1929-12-05"],
         "importance": "1"
      }
      }, 
    {
      "type": "Feature",
      "geometry": {
        "type": "Point",
        "coordinates": [16.36714, 48.19198]
      },
      "properties": {
         "id": "pmb54",
         "title": "IV., Wieden",
         "lat": "48.19198",
         "lon": "16.36714",
         "timestamp": ["1929-12-18"],
         "importance": "1"
      }
      }, 
    {
      "type": "Feature",
      "geometry": {
        "type": "Point",
        "coordinates": [16.3566, 48.205142]
      },
      "properties": {
         "id": "pmb20",
         "title": "Volkstheater",
         "lat": "48.205142",
         "lon": "16.3566",
         "timestamp": ["1929-12-19", "1929-12-21"],
         "importance": "2"
      }
      }, 
    {
      "type": "Feature",
      "geometry": {
        "type": "Point",
        "coordinates": [16.36471, 48.200556]
      },
      "properties": {
         "id": "pmb97",
         "title": "Zum Weingartl",
         "lat": "48.200556",
         "lon": "16.36471",
         "timestamp": ["1929-12-13"],
         "importance": "1"
      }
      }, 
    {
      "type": "Feature",
      "geometry": {
        "type": "Point",
        "coordinates": [16.34706, 48.21126]
      },
      "properties": {
         "id": "pmb58",
         "title": "VIII., Josefstadt",
         "lat": "48.21126",
         "lon": "16.34706",
         "timestamp": ["1929-12-11"],
         "importance": "1"
      }
      }, 
    {
      "type": "Feature",
      "geometry": {
        "type": "Point",
        "coordinates": [16.338015, 48.234046]
      },
      "properties": {
         "id": "pmb185644",
         "title": "Peregringasse 4",
         "lat": "48.234046",
         "lon": "16.338015",
         "timestamp": ["1929-12-25"],
         "importance": "1"
      }
      }, 
    {
      "type": "Feature",
      "geometry": {
        "type": "Point",
        "coordinates": [16.328822485916, 48.231291362993]
      },
      "properties": {
         "id": "pmb291",
         "title": "Gersthof",
         "lat": "48.231291362993",
         "lon": "16.328822485916",
         "timestamp": ["1929-12-08"],
         "importance": "1"
      }
      }, 
    {
      "type": "Feature",
      "geometry": {
        "type": "Point",
        "coordinates": [13.38832, 52.51699]
      },
      "properties": {
         "id": "pmb216",
         "title": "Unter den Linden",
         "lat": "52.51699",
         "lon": "13.38832",
         "timestamp": ["1929-12-30"],
         "importance": "1"
      }
      }, 
    {
      "type": "Feature",
      "geometry": {
        "type": "Point",
        "coordinates": [16.351435, 48.209524]
      },
      "properties": {
         "id": "pmb185511",
         "title": "Restaurant zum weißen Hahn",
         "lat": "48.209524",
         "lon": "16.351435",
         "timestamp": ["1929-12-07"],
         "importance": "1"
      }
      }, 
    {
      "type": "Feature",
      "geometry": {
        "type": "Point",
        "coordinates": [16.388115, 48.21638]
      },
      "properties": {
         "id": "pmb185527",
         "title": "Gastwirtschaft E. Hauswirth",
         "lat": "48.21638",
         "lon": "16.388115",
         "timestamp": ["1929-12-03"],
         "importance": "1"
      }
      }, 
    {
      "type": "Feature",
      "geometry": {
        "type": "Point",
        "coordinates": [16.350607, 48.206352]
      },
      "properties": {
         "id": "pmb190698",
         "title": "Phönixkino",
         "lat": "48.206352",
         "lon": "16.350607",
         "timestamp": ["1929-12-07"],
         "importance": "1"
      }
      }
  ]
}