{
  "type": "FeatureCollection",
  "features": [
    {
      "type": "Feature", 
      "geometry": {
        "type": "LineString", 
        "coordinates": [
            [16.16265, 48.19512], 
            [16.12098, 48.1587], 
            [16.17359, 48.15486], 
            [16.255556, 48.133611], 
            [16.258056, 48.201667], 
            [16.258056, 48.201667], 
            [16.33716, 48.23188], 
            [16.338016, 48.234091], 
            [16.28610371233, 48.233119188484], 
            [16.2911, 48.2553], 
            [16.258244, 48.230796], 
            [16.258244, 48.230796]
          ]
      },
      "properties": {
        "name": "17. Juli 1929"
      }
    },
    {
      "type": "Feature",
      "geometry": {
        "type": "Point",
        "coordinates": [
          16.28610371233, 48.233119188484
        ]
      },
      "properties": {
        "title": "Neuwaldegg",
        "timestamp": ["1929-07-17"],
        "pmb": "https://pmb.acdh.oeaw.ac.at/entity//"
      }
      },
    {
      "type": "Feature",
      "geometry": {
        "type": "Point",
        "coordinates": [
          16.255556, 48.133611
        ]
      },
      "properties": {
        "title": "Hofmannsthal-Schlössl",
        "timestamp": ["1929-07-17"],
        "pmb": "https://pmb.acdh.oeaw.ac.at/entity//", 
        "wikipedia": "https://de.wikipedia.org/wiki/Hofmannsthal-Schl%C3%B6ssl"
      }
      },
    {
      "type": "Feature",
      "geometry": {
        "type": "Point",
        "coordinates": [
          16.2911, 48.2553
        ]
      },
      "properties": {
        "title": "Salmannsdorf",
        "timestamp": ["1929-07-17"],
        "pmb": "https://pmb.acdh.oeaw.ac.at/entity//", 
        "wikipedia": "https://de.wikipedia.org/wiki/Salmannsdorf_(Wien)"
      }
      },
    {
      "type": "Feature",
      "geometry": {
        "type": "Point",
        "coordinates": [
          16.258056, 48.201667
        ]
      },
      "properties": {
        "title": "Hütteldorf",
        "timestamp": ["1929-07-17"],
        "pmb": "https://pmb.acdh.oeaw.ac.at/entity//", 
        "wikipedia": "https://de.wikipedia.org/wiki/H%C3%BCtteldorf"
      }
      },
    {
      "type": "Feature",
      "geometry": {
        "type": "Point",
        "coordinates": [
          16.258244, 48.230796
        ]
      },
      "properties": {
        "title": "Schottenhof [Penzing]",
        "timestamp": ["1929-07-17"],
        "pmb": "https://pmb.acdh.oeaw.ac.at/entity//", 
        "wikipedia": "https://de.wikipedia.org/wiki/Schottenhof_(Wienerwald)"
      }
      },
    {
      "type": "Feature",
      "geometry": {
        "type": "Point",
        "coordinates": [
          16.33716, 48.23188
        ]
      },
      "properties": {
        "title": "Sternwartestraße 71",
        "timestamp": ["1929-07-17"],
        "pmb": "https://pmb.acdh.oeaw.ac.at/entity//"
      }
      },
    {
      "type": "Feature",
      "geometry": {
        "type": "Point",
        "coordinates": [
          16.258056, 48.201667
        ]
      },
      "properties": {
        "title": "Hütteldorf",
        "timestamp": ["1929-07-17"],
        "pmb": "https://pmb.acdh.oeaw.ac.at/entity//", 
        "wikipedia": "https://de.wikipedia.org/wiki/H%C3%BCtteldorf"
      }
      },
    {
      "type": "Feature",
      "geometry": {
        "type": "Point",
        "coordinates": [
          16.258244, 48.230796
        ]
      },
      "properties": {
        "title": "Schottenhof [Penzing]",
        "timestamp": ["1929-07-17"],
        "pmb": "https://pmb.acdh.oeaw.ac.at/entity//", 
        "wikipedia": "https://de.wikipedia.org/wiki/Schottenhof_(Wienerwald)"
      }
      },
    {
      "type": "Feature",
      "geometry": {
        "type": "Point",
        "coordinates": [
          16.16265, 48.19512
        ]
      },
      "properties": {
        "title": "Purkersdorf",
        "timestamp": ["1929-07-17"],
        "pmb": "https://pmb.acdh.oeaw.ac.at/entity//", 
        "wikipedia": "https://de.wikipedia.org/wiki/Purkersdorf"
      }
      },
    {
      "type": "Feature",
      "geometry": {
        "type": "Point",
        "coordinates": [
          16.17359, 48.15486
        ]
      },
      "properties": {
        "title": "Laab im Walde",
        "timestamp": ["1929-07-17"],
        "pmb": "https://pmb.acdh.oeaw.ac.at/entity//"
      }
      },
    {
      "type": "Feature",
      "geometry": {
        "type": "Point",
        "coordinates": [
          16.12098, 48.1587
        ]
      },
      "properties": {
        "title": "Wolfsgraben",
        "timestamp": ["1929-07-17"],
        "pmb": "https://pmb.acdh.oeaw.ac.at/entity//"
      }
      },
    {
      "type": "Feature",
      "geometry": {
        "type": "Point",
        "coordinates": [
          16.338016, 48.234091
        ]
      },
      "properties": {
        "title": "Gregor-Mendel-Straße 34",
        "timestamp": ["1929-07-17"],
        "pmb": "https://pmb.acdh.oeaw.ac.at/entity//"
      }
      }
  ]
}