{
  "type": "FeatureCollection",
  "features": [
    {
      "type": "Feature", 
      "geometry": {
        "type": "LineString", 
        "coordinates": [
            [6.92619, 46.4336], 
            [6.92122, 46.42863], 
            [6.9237, 46.4256], 
            [6.93855, 46.43241], 
            [6.940279, 46.43239], 
            [6.94084, 46.45179]
          ]
      },
      "properties": {
        "name": "27. August 1929"
      }
    },
    {
      "type": "Feature",
      "geometry": {
        "type": "Point",
        "coordinates": [
          6.93855, 46.43241
        ]
      },
      "properties": {
        "title": "Caux",
        "timestamp": ["1929-08-27"],
        "pmb": "https://pmb.acdh.oeaw.ac.at/entity//"
      }
      },
    {
      "type": "Feature",
      "geometry": {
        "type": "Point",
        "coordinates": [
          6.940279, 46.43239
        ]
      },
      "properties": {
        "title": "Grand Hotel Excelsior Regina",
        "timestamp": ["1929-08-27"],
        "pmb": "https://pmb.acdh.oeaw.ac.at/entity//"
      }
      },
    {
      "type": "Feature",
      "geometry": {
        "type": "Point",
        "coordinates": [
          6.92619, 46.4336
        ]
      },
      "properties": {
        "title": "Glion",
        "timestamp": ["1929-08-27"],
        "pmb": "https://pmb.acdh.oeaw.ac.at/entity//", 
        "wikipedia": "https://de.wikipedia.org/wiki/Glion"
      }
      },
    {
      "type": "Feature",
      "geometry": {
        "type": "Point",
        "coordinates": [
          6.94084, 46.45179
        ]
      },
      "properties": {
        "title": "Montreux",
        "timestamp": ["1929-08-27"],
        "pmb": "https://pmb.acdh.oeaw.ac.at/entity//", 
        "wikipedia": "https://de.wikipedia.org/wiki/Montreux"
      }
      },
    {
      "type": "Feature",
      "geometry": {
        "type": "Point",
        "coordinates": [
          6.92122, 46.42863
        ]
      },
      "properties": {
        "title": "Territet",
        "timestamp": ["1929-08-27"],
        "pmb": "https://pmb.acdh.oeaw.ac.at/entity//"
      }
      },
    {
      "type": "Feature",
      "geometry": {
        "type": "Point",
        "coordinates": [
          6.9237, 46.4256
        ]
      },
      "properties": {
        "title": "Hôtel des Alpes-Grand Hôtel",
        "timestamp": ["1929-08-27"],
        "pmb": "https://pmb.acdh.oeaw.ac.at/entity//"
      }
      }
  ]
}