{
  "type": "FeatureCollection",
  "features": [
    {
      "type": "Feature", 
      "geometry": {
        "type": "LineString", 
        "coordinates": [
            [13.26269, 52.48383], 
            [13.29602, 52.49005], 
            [13.374444, 52.51], 
            [13.41053, 52.52437], 
            [13.41212, 52.58777]
          ]
      },
      "properties": {
        "name": "19. März 1929"
      }
    },
    {
      "type": "Feature",
      "geometry": {
        "type": "Point",
        "coordinates": [
          13.374444, 52.51
        ]
      },
      "properties": {
        "title": "Hotel Esplanade [Berlin]",
        "timestamp": ["1929-03-19"],
        "pmb": "https://pmb.acdh.oeaw.ac.at/entity//", 
        "wikipedia": "https://de.wikipedia.org/wiki/Hotel_Esplanade_(Berlin)"
      }
      },
    {
      "type": "Feature",
      "geometry": {
        "type": "Point",
        "coordinates": [
          13.41053, 52.52437
        ]
      },
      "properties": {
        "title": "Berlin",
        "timestamp": ["1929-03-19"],
        "pmb": "https://pmb.acdh.oeaw.ac.at/entity//", 
        "wikipedia": "https://de.wikipedia.org/wiki/Berlin"
      }
      },
    {
      "type": "Feature",
      "geometry": {
        "type": "Point",
        "coordinates": [
          13.29602, 52.49005
        ]
      },
      "properties": {
        "title": "Halensee",
        "timestamp": ["1929-03-19"],
        "pmb": "https://pmb.acdh.oeaw.ac.at/entity//"
      }
      },
    {
      "type": "Feature",
      "geometry": {
        "type": "Point",
        "coordinates": [
          13.26269, 52.48383
        ]
      },
      "properties": {
        "title": "Douglasstraße 10",
        "timestamp": ["1929-03-19"],
        "pmb": "https://pmb.acdh.oeaw.ac.at/entity//"
      }
      },
    {
      "type": "Feature",
      "geometry": {
        "type": "Point",
        "coordinates": [
          13.41212, 52.58777
        ]
      },
      "properties": {
        "title": "Lanzsch & Co.",
        "timestamp": ["1929-03-19"],
        "pmb": "https://pmb.acdh.oeaw.ac.at/entity//"
      }
      }
  ]
}