{
  "type": "FeatureCollection",
  "features": [
    {
      "type": "Feature",
      "geometry": {
        "type": "Point",
        "coordinates": [16.373056, 48.208333]
      },
      "properties": {
         "id": "pmb50",
         "title": "Wien",
         "lat": "48.208333",
         "lon": "16.373056",
         "timestamp": ["1929-01-08", "1929-01-09", "1929-01-10", "1929-01-11", "1929-01-12", "1929-01-13", "1929-01-14", "1929-01-15", "1929-01-16", "1929-01-17", "1929-01-18", "1929-01-19", "1929-01-20", "1929-01-21", "1929-01-22", "1929-01-23", "1929-01-24", "1929-01-25", "1929-01-26", "1929-01-27", "1929-01-28", "1929-01-29", "1929-01-30", "1929-01-31", "1929-02-01", "1929-02-02", "1929-02-03", "1929-02-04", "1929-02-05", "1929-02-06", "1929-02-07", "1929-02-08", "1929-02-09", "1929-02-10", "1929-02-11", "1929-02-12", "1929-02-13", "1929-02-14", "1929-02-15", "1929-02-16", "1929-02-17", "1929-02-18", "1929-02-19", "1929-02-20", "1929-02-21", "1929-02-22", "1929-02-23", "1929-02-24", "1929-02-25", "1929-02-26", "1929-02-27", "1929-02-28", "1929-03-01", "1929-03-02", "1929-03-03", "1929-03-04", "1929-03-05", "1929-03-06", "1929-03-07", "1929-03-08", "1929-03-09", "1929-03-10", "1929-03-11", "1929-03-12", "1929-03-28", "1929-03-29", "1929-03-30", "1929-03-31", "1929-04-01", "1929-04-02", "1929-04-03", "1929-04-04", "1929-04-05", "1929-04-06", "1929-04-07", "1929-04-08", "1929-04-09", "1929-04-10", "1929-04-11", "1929-04-12", "1929-04-13", "1929-04-14", "1929-04-15", "1929-04-16", "1929-04-17", "1929-04-18", "1929-04-19", "1929-04-20", "1929-04-21", "1929-04-22", "1929-04-23", "1929-04-24", "1929-04-25", "1929-04-26", "1929-04-27", "1929-04-28", "1929-04-29", "1929-04-30", "1929-05-01", "1929-05-02", "1929-05-04", "1929-05-05", "1929-05-06", "1929-05-07", "1929-05-08", "1929-05-09", "1929-05-10", "1929-05-11", "1929-05-12", "1929-05-13", "1929-05-14", "1929-05-16", "1929-05-17", "1929-05-18", "1929-05-19", "1929-05-20", "1929-05-21", "1929-05-22", "1929-05-23", "1929-05-24", "1929-05-25", "1929-05-26", "1929-05-27", "1929-05-28", "1929-05-29", "1929-05-30", "1929-05-31", "1929-06-01", "1929-06-02", "1929-06-03", "1929-06-04", "1929-06-05", "1929-06-06", "1929-06-07", "1929-06-08", "1929-06-09", "1929-06-10", "1929-06-11", "1929-06-12", "1929-06-13", "1929-06-14", "1929-06-15", "1929-06-16", "1929-06-17", "1929-06-18", "1929-07-01", "1929-07-02", "1929-07-03", "1929-07-04", "1929-07-05", "1929-07-06", "1929-07-07", "1929-07-08", "1929-07-09", "1929-07-10", "1929-07-11", "1929-07-12", "1929-07-13", "1929-07-14", "1929-07-15", "1929-07-16", "1929-07-17", "1929-07-18", "1929-07-19", "1929-07-20", "1929-07-21", "1929-07-22", "1929-07-23", "1929-07-24", "1929-07-25", "1929-07-26", "1929-07-27", "1929-07-28", "1929-07-29", "1929-07-30", "1929-07-31", "1929-08-01", "1929-08-02", "1929-08-03", "1929-08-04", "1929-08-05", "1929-08-06", "1929-08-07", "1929-08-08", "1929-08-09", "1929-08-10", "1929-08-11", "1929-08-12", "1929-08-13", "1929-08-14", "1929-08-15", "1929-08-16", "1929-08-17", "1929-08-18", "1929-08-19", "1929-08-20", "1929-09-21", "1929-09-22", "1929-09-23", "1929-09-24", "1929-09-25", "1929-09-26", "1929-09-27", "1929-09-28", "1929-09-29", "1929-09-30", "1929-10-01", "1929-10-02", "1929-10-03", "1929-10-04", "1929-10-05", "1929-10-06", "1929-10-07", "1929-10-08", "1929-10-09", "1929-10-10", "1929-10-11", "1929-10-12", "1929-10-13", "1929-10-14", "1929-10-15", "1929-10-16", "1929-10-17", "1929-10-18", "1929-10-19", "1929-10-20", "1929-10-21", "1929-10-22", "1929-10-23", "1929-10-24", "1929-10-25", "1929-10-26", "1929-10-27", "1929-10-28", "1929-10-29", "1929-10-30", "1929-10-31", "1929-11-01", "1929-11-02", "1929-11-03", "1929-11-04", "1929-11-05", "1929-11-06", "1929-11-07", "1929-11-08", "1929-11-09", "1929-11-10", "1929-11-11", "1929-11-12", "1929-11-13", "1929-11-14", "1929-11-15", "1929-11-16", "1929-11-17", "1929-11-18", "1929-11-19", "1929-11-20", "1929-11-21", "1929-11-22", "1929-11-23", "1929-11-24", "1929-11-25", "1929-11-26", "1929-11-27", "1929-11-28", "1929-11-29", "1929-11-30", "1929-12-01", "1929-12-02", "1929-12-03", "1929-12-04", "1929-12-05", "1929-12-06", "1929-12-07", "1929-12-08", "1929-12-09", "1929-12-10", "1929-12-11", "1929-12-12", "1929-12-13", "1929-12-14", "1929-12-15", "1929-12-16", "1929-12-17", "1929-12-18", "1929-12-19", "1929-12-20", "1929-12-21", "1929-12-22", "1929-12-23", "1929-12-24", "1929-12-25", "1929-12-26", "1929-12-27"],
         "importance": "294"
      }
      }, 
    {
      "type": "Feature",
      "geometry": {
        "type": "Point",
        "coordinates": [16.372564182283, 48.201265597319]
      },
      "properties": {
         "id": "pmb516",
         "title": "Musikverein",
         "lat": "48.201265597319",
         "lon": "16.372564182283",
         "timestamp": ["1929-04-09"],
         "importance": "1"
      }
      }, 
    {
      "type": "Feature",
      "geometry": {
        "type": "Point",
        "coordinates": [16.351111, 48.209583]
      },
      "properties": {
         "id": "pmb40",
         "title": "Theater in der Josefstadt",
         "lat": "48.209583",
         "lon": "16.351111",
         "timestamp": ["1929-01-10", "1929-01-22", "1929-02-21", "1929-04-29", "1929-10-11", "1929-10-15", "1929-12-11"],
         "importance": "7"
      }
      }, 
    {
      "type": "Feature",
      "geometry": {
        "type": "Point",
        "coordinates": [16.384444, 48.215]
      },
      "properties": {
         "id": "pmb118",
         "title": "Carl-Theater",
         "lat": "48.215",
         "lon": "16.384444",
         "timestamp": ["1929-04-02"],
         "importance": "1"
      }
      }, 
    {
      "type": "Feature",
      "geometry": {
        "type": "Point",
        "coordinates": [16.379608025302, 48.204824018066]
      },
      "properties": {
         "id": "pmb575",
         "title": "Stadtpark",
         "lat": "48.204824018066",
         "lon": "16.379608025302",
         "timestamp": ["1929-04-19"],
         "importance": "1"
      }
      }, 
    {
      "type": "Feature",
      "geometry": {
        "type": "Point",
        "coordinates": [11.57549, 48.13743]
      },
      "properties": {
         "id": "pmb38129",
         "title": "München",
         "lat": "48.13743",
         "lon": "11.57549",
         "timestamp": ["1929-08-20", "1929-08-21"],
         "importance": "2"
      }
      }, 
    {
      "type": "Feature",
      "geometry": {
        "type": "Point",
        "coordinates": [16.361139, 48.210333]
      },
      "properties": {
         "id": "pmb14",
         "title": "Burgtheater",
         "lat": "48.210333",
         "lon": "16.361139",
         "timestamp": ["1929-01-30", "1929-02-27", "1929-04-26", "1929-05-03", "1929-05-28", "1929-09-30", "1929-10-02", "1929-10-09", "1929-11-11", "1929-12-02"],
         "importance": "10"
      }
      }, 
    {
      "type": "Feature",
      "geometry": {
        "type": "Point",
        "coordinates": [16.372194, 48.202111]
      },
      "properties": {
         "id": "pmb255",
         "title": "Grand Hotel Wien",
         "lat": "48.202111",
         "lon": "16.372194",
         "timestamp": ["1929-10-09", "1929-10-26", "1929-11-29", "1929-12-20"],
         "importance": "4"
      }
      }, 
    {
      "type": "Feature",
      "geometry": {
        "type": "Point",
        "coordinates": [16.36157, 48.20809]
      },
      "properties": {
         "id": "pmb103",
         "title": "Volksgarten",
         "lat": "48.20809",
         "lon": "16.36157",
         "timestamp": ["1929-05-03"],
         "importance": "1"
      }
      }, 
    {
      "type": "Feature",
      "geometry": {
        "type": "Point",
        "coordinates": [16.430054, 48.194558]
      },
      "properties": {
         "id": "pmb8",
         "title": "Prater",
         "lat": "48.194558",
         "lon": "16.430054",
         "timestamp": ["1929-02-24", "1929-06-10", "1929-06-15", "1929-06-16"],
         "importance": "4"
      }
      }, 
    {
      "type": "Feature",
      "geometry": {
        "type": "Point",
        "coordinates": [16.33306, 48.25]
      },
      "properties": {
         "id": "pmb69",
         "title": "XIX., Döbling",
         "lat": "48.25",
         "lon": "16.33306",
         "timestamp": ["1929-04-28", "1929-05-12", "1929-05-26", "1929-06-09", "1929-07-14", "1929-08-04", "1929-09-29", "1929-10-06"],
         "importance": "8"
      }
      }, 
    {
      "type": "Feature",
      "geometry": {
        "type": "Point",
        "coordinates": [16.25, 48.26667]
      },
      "properties": {
         "id": "pmb473",
         "title": "Weidlingbach",
         "lat": "48.26667",
         "lon": "16.25",
         "timestamp": ["1929-04-28", "1929-07-14"],
         "importance": "2"
      }
      }, 
    {
      "type": "Feature",
      "geometry": {
        "type": "Point",
        "coordinates": [16.32522, 48.30521]
      },
      "properties": {
         "id": "pmb865",
         "title": "Klosterneuburg",
         "lat": "48.30521",
         "lon": "16.32522",
         "timestamp": ["1929-04-28", "1929-05-12", "1929-06-09", "1929-07-14"],
         "importance": "4"
      }
      }, 
    {
      "type": "Feature",
      "geometry": {
        "type": "Point",
        "coordinates": [13.41053, 52.52437]
      },
      "properties": {
         "id": "pmb168",
         "title": "Berlin",
         "lat": "52.52437",
         "lon": "13.41053",
         "timestamp": ["1929-01-01", "1929-01-02", "1929-01-03", "1929-01-04", "1929-01-05", "1929-01-06", "1929-01-07", "1929-03-13", "1929-03-14", "1929-03-15", "1929-03-16", "1929-03-17", "1929-03-18", "1929-03-19", "1929-03-20", "1929-03-21", "1929-03-22", "1929-03-23", "1929-03-24", "1929-03-25", "1929-03-26", "1929-03-27", "1929-12-28", "1929-12-29", "1929-12-30", "1929-12-31"],
         "importance": "26"
      }
      }, 
    {
      "type": "Feature",
      "geometry": {
        "type": "Point",
        "coordinates": [16.29101, 48.17547]
      },
      "properties": {
         "id": "pmb63",
         "title": "XIII., Hietzing",
         "lat": "48.17547",
         "lon": "16.29101",
         "timestamp": ["1929-01-13", "1929-08-07"],
         "importance": "2"
      }
      }, 
    {
      "type": "Feature",
      "geometry": {
        "type": "Point",
        "coordinates": [16.355191, 48.248422]
      },
      "properties": {
         "id": "pmb92292",
         "title": "Hohe Warte",
         "lat": "48.248422",
         "lon": "16.355191",
         "timestamp": ["1929-02-08", "1929-03-31", "1929-04-18"],
         "importance": "3"
      }
      }, 
    {
      "type": "Feature",
      "geometry": {
        "type": "Point",
        "coordinates": [8.54226, 47.37174]
      },
      "properties": {
         "id": "pmb484",
         "title": "Zürich",
         "lat": "47.37174",
         "lon": "8.54226",
         "timestamp": ["1929-08-21", "1929-09-10", "1929-09-11"],
         "importance": "3"
      }
      }, 
    {
      "type": "Feature",
      "geometry": {
        "type": "Point",
        "coordinates": [16.371667, 48.200556]
      },
      "properties": {
         "id": "pmb21",
         "title": "Künstlerhaus",
         "lat": "48.200556",
         "lon": "16.371667",
         "timestamp": ["1929-04-05"],
         "importance": "1"
      }
      }, 
    {
      "type": "Feature",
      "geometry": {
        "type": "Point",
        "coordinates": [16.28921, 48.08605]
      },
      "properties": {
         "id": "pmb968",
         "title": "Mödling",
         "lat": "48.08605",
         "lon": "16.28921",
         "timestamp": ["1929-05-15"],
         "importance": "1"
      }
      }, 
    {
      "type": "Feature",
      "geometry": {
        "type": "Point",
        "coordinates": [16.3747466, 48.2104057]
      },
      "properties": {
         "id": "pmb705",
         "title": "Zur Linde",
         "lat": "48.2104057",
         "lon": "16.3747466",
         "timestamp": ["1929-01-24", "1929-01-26", "1929-02-01", "1929-02-06", "1929-02-09", "1929-02-14", "1929-02-19", "1929-02-21", "1929-02-22", "1929-03-06", "1929-03-07", "1929-04-02", "1929-04-05", "1929-04-08", "1929-04-10", "1929-04-12", "1929-04-13", "1929-04-20", "1929-04-22", "1929-04-24", "1929-04-25", "1929-04-26", "1929-04-29", "1929-05-21", "1929-05-22", "1929-05-31", "1929-06-03", "1929-06-12", "1929-06-14", "1929-07-27", "1929-08-06", "1929-09-24", "1929-09-25", "1929-12-05"],
         "importance": "34"
      }
      }, 
    {
      "type": "Feature",
      "geometry": {
        "type": "Point",
        "coordinates": [16.37601664270439, 48.198498814707754]
      },
      "properties": {
         "id": "pmb53143",
         "title": "Schwarzenbergplatz",
         "lat": "48.198498814707754",
         "lon": "16.37601664270439",
         "timestamp": ["1929-01-09"],
         "importance": "1"
      }
      }, 
    {
      "type": "Feature",
      "geometry": {
        "type": "Point",
        "coordinates": [16.36714, 48.19198]
      },
      "properties": {
         "id": "pmb54",
         "title": "IV., Wieden",
         "lat": "48.19198",
         "lon": "16.36714",
         "timestamp": ["1929-12-18"],
         "importance": "1"
      }
      }, 
    {
      "type": "Feature",
      "geometry": {
        "type": "Point",
        "coordinates": [13.382222, 52.524444]
      },
      "properties": {
         "id": "pmb3",
         "title": "Deutsches Theater Berlin",
         "lat": "52.524444",
         "lon": "13.382222",
         "timestamp": ["1929-03-14"],
         "importance": "1"
      }
      }, 
    {
      "type": "Feature",
      "geometry": {
        "type": "Point",
        "coordinates": [13.45482, 52.51559]
      },
      "properties": {
         "id": "pmb90659",
         "title": "Friedrichshain",
         "lat": "52.51559",
         "lon": "13.45482",
         "timestamp": ["1929-03-24"],
         "importance": "1"
      }
      }, 
    {
      "type": "Feature",
      "geometry": {
        "type": "Point",
        "coordinates": [13.392222, 52.513611]
      },
      "properties": {
         "id": "pmb143",
         "title": "Schauspielhaus Berlin",
         "lat": "52.513611",
         "lon": "13.392222",
         "timestamp": ["1929-01-06"],
         "importance": "1"
      }
      }, 
    {
      "type": "Feature",
      "geometry": {
        "type": "Point",
        "coordinates": [16.16265, 48.19512]
      },
      "properties": {
         "id": "pmb91552",
         "title": "Purkersdorf",
         "lat": "48.19512",
         "lon": "16.16265",
         "timestamp": ["1929-01-13", "1929-04-07", "1929-07-17"],
         "importance": "3"
      }
      }, 
    {
      "type": "Feature",
      "geometry": {
        "type": "Point",
        "coordinates": [16.337778, 48.196667]
      },
      "properties": {
         "id": "pmb184918",
         "title": "Westbahnhof",
         "lat": "48.196667",
         "lon": "16.337778",
         "timestamp": ["1929-08-18"],
         "importance": "1"
      }
      }, 
    {
      "type": "Feature",
      "geometry": {
        "type": "Point",
        "coordinates": [16.341944, 48.233056]
      },
      "properties": {
         "id": "pmb533",
         "title": "Währinger Cottage",
         "lat": "48.233056",
         "lon": "16.341944",
         "timestamp": ["1929-03-10", "1929-04-21"],
         "importance": "2"
      }
      }, 
    {
      "type": "Feature",
      "geometry": {
        "type": "Point",
        "coordinates": [16.40289, 48.21206]
      },
      "properties": {
         "id": "pmb185523",
         "title": "Zum braunen Hirschen",
         "lat": "48.21206",
         "lon": "16.40289",
         "timestamp": ["1929-11-23"],
         "importance": "1"
      }
      }, 
    {
      "type": "Feature",
      "geometry": {
        "type": "Point",
        "coordinates": [16.3566, 48.205142]
      },
      "properties": {
         "id": "pmb20",
         "title": "Volkstheater",
         "lat": "48.205142",
         "lon": "16.3566",
         "timestamp": ["1929-01-24", "1929-04-22", "1929-05-22", "1929-06-16", "1929-10-09", "1929-11-15", "1929-11-18", "1929-11-19", "1929-11-20", "1929-11-21", "1929-11-25", "1929-11-26", "1929-11-27", "1929-11-29", "1929-12-03", "1929-12-04", "1929-12-07", "1929-12-09", "1929-12-10", "1929-12-11", "1929-12-12", "1929-12-14", "1929-12-16", "1929-12-17", "1929-12-18", "1929-12-19", "1929-12-20", "1929-12-21"],
         "importance": "28"
      }
      }, 
    {
      "type": "Feature",
      "geometry": {
        "type": "Point",
        "coordinates": [16.3576, 48.21071]
      },
      "properties": {
         "id": "pmb373",
         "title": "Rathaus",
         "lat": "48.21071",
         "lon": "16.3576",
         "timestamp": ["1929-11-30"],
         "importance": "1"
      }
      }, 
    {
      "type": "Feature",
      "geometry": {
        "type": "Point",
        "coordinates": [16.30865, 48.291]
      },
      "properties": {
         "id": "pmb991",
         "title": "Weidling",
         "lat": "48.291",
         "lon": "16.30865",
         "timestamp": ["1929-05-12"],
         "importance": "1"
      }
      }, 
    {
      "type": "Feature",
      "geometry": {
        "type": "Point",
        "coordinates": [16.379685, 48.188208]
      },
      "properties": {
         "id": "pmb187206",
         "title": "Restauration »Am Südbahnhof«",
         "lat": "48.188208",
         "lon": "16.379685",
         "timestamp": ["1929-05-09"],
         "importance": "1"
      }
      }, 
    {
      "type": "Feature",
      "geometry": {
        "type": "Point",
        "coordinates": [16.25, 47.8]
      },
      "properties": {
         "id": "pmb587",
         "title": "Wiener Neustadt",
         "lat": "47.8",
         "lon": "16.25",
         "timestamp": ["1929-06-18"],
         "importance": "1"
      }
      }, 
    {
      "type": "Feature",
      "geometry": {
        "type": "Point",
        "coordinates": [16.2, 48.23333]
      },
      "properties": {
         "id": "pmb90821",
         "title": "Hainbach",
         "lat": "48.23333",
         "lon": "16.2",
         "timestamp": ["1929-05-05", "1929-05-26"],
         "importance": "2"
      }
      }, 
    {
      "type": "Feature",
      "geometry": {
        "type": "Point",
        "coordinates": [16.36471, 48.200556]
      },
      "properties": {
         "id": "pmb97",
         "title": "Zum Weingartl",
         "lat": "48.200556",
         "lon": "16.36471",
         "timestamp": ["1929-10-04", "1929-10-29", "1929-11-02", "1929-11-04", "1929-11-08", "1929-11-15", "1929-11-19", "1929-12-13"],
         "importance": "8"
      }
      }, 
    {
      "type": "Feature",
      "geometry": {
        "type": "Point",
        "coordinates": [16.4097, 48.2283]
      },
      "properties": {
         "id": "pmb439",
         "title": "Reichsbrücke",
         "lat": "48.2283",
         "lon": "16.4097",
         "timestamp": ["1929-02-24"],
         "importance": "1"
      }
      }, 
    {
      "type": "Feature",
      "geometry": {
        "type": "Point",
        "coordinates": [16.37312, 48.20122]
      },
      "properties": {
         "id": "pmb43",
         "title": "Café Imperial",
         "lat": "48.20122",
         "lon": "16.37312",
         "timestamp": ["1929-01-30", "1929-10-16", "1929-10-17", "1929-10-19", "1929-11-18", "1929-11-25"],
         "importance": "6"
      }
      }, 
    {
      "type": "Feature",
      "geometry": {
        "type": "Point",
        "coordinates": [16.371211, 48.206416]
      },
      "properties": {
         "id": "pmb96",
         "title": "Meissl & Schadn",
         "lat": "48.206416",
         "lon": "16.371211",
         "timestamp": ["1929-03-30"],
         "importance": "1"
      }
      }, 
    {
      "type": "Feature",
      "geometry": {
        "type": "Point",
        "coordinates": [16.34706, 48.21126]
      },
      "properties": {
         "id": "pmb58",
         "title": "VIII., Josefstadt",
         "lat": "48.21126",
         "lon": "16.34706",
         "timestamp": ["1929-01-10", "1929-01-22", "1929-02-21", "1929-04-02", "1929-04-29", "1929-10-11", "1929-10-15", "1929-12-11"],
         "importance": "8"
      }
      }, 
    {
      "type": "Feature",
      "geometry": {
        "type": "Point",
        "coordinates": [16.333568462613, 48.235119783861]
      },
      "properties": {
         "id": "pmb113",
         "title": "Türkenschanzpark",
         "lat": "48.235119783861",
         "lon": "16.333568462613",
         "timestamp": ["1929-01-20", "1929-02-03", "1929-03-03", "1929-04-01", "1929-05-06", "1929-05-07", "1929-05-09", "1929-05-11", "1929-05-25", "1929-06-11", "1929-07-08", "1929-08-09", "1929-10-05"],
         "importance": "13"
      }
      }, 
    {
      "type": "Feature",
      "geometry": {
        "type": "Point",
        "coordinates": [16.276509500872, 48.241960480337]
      },
      "properties": {
         "id": "pmb176",
         "title": "Schwarzenbergpark",
         "lat": "48.241960480337",
         "lon": "16.276509500872",
         "timestamp": ["1929-10-13"],
         "importance": "1"
      }
      }, 
    {
      "type": "Feature",
      "geometry": {
        "type": "Point",
        "coordinates": [16.25736, 48.11895]
      },
      "properties": {
         "id": "pmb2837",
         "title": "Perchtoldsdorf",
         "lat": "48.11895",
         "lon": "16.25736",
         "timestamp": ["1929-05-09"],
         "importance": "1"
      }
      }, 
    {
      "type": "Feature",
      "geometry": {
        "type": "Point",
        "coordinates": [12.37129, 51.33962]
      },
      "properties": {
         "id": "pmb864",
         "title": "Leipzig",
         "lat": "51.33962",
         "lon": "12.37129",
         "timestamp": ["1929-03-27"],
         "importance": "1"
      }
      }, 
    {
      "type": "Feature",
      "geometry": {
        "type": "Point",
        "coordinates": [16.28929, 48.17381]
      },
      "properties": {
         "id": "pmb24136",
         "title": "Lainz",
         "lat": "48.17381",
         "lon": "16.28929",
         "timestamp": ["1929-06-02"],
         "importance": "1"
      }
      }, 
    {
      "type": "Feature",
      "geometry": {
        "type": "Point",
        "coordinates": [16.300034240016, 48.246838181084]
      },
      "properties": {
         "id": "pmb169",
         "title": "Pötzleinsdorf",
         "lat": "48.246838181084",
         "lon": "16.300034240016",
         "timestamp": ["1929-05-05", "1929-10-06"],
         "importance": "2"
      }
      }, 
    {
      "type": "Feature",
      "geometry": {
        "type": "Point",
        "coordinates": [16.3, 48.2]
      },
      "properties": {
         "id": "pmb64",
         "title": "XIV., Penzing",
         "lat": "48.2",
         "lon": "16.3",
         "timestamp": ["1929-07-17", "1929-10-06"],
         "importance": "2"
      }
      }, 
    {
      "type": "Feature",
      "geometry": {
        "type": "Point",
        "coordinates": [15.8241, 47.64224]
      },
      "properties": {
         "id": "pmb189",
         "title": "Semmering",
         "lat": "47.64224",
         "lon": "15.8241",
         "timestamp": ["1929-06-18", "1929-06-19", "1929-06-20", "1929-06-21", "1929-06-22", "1929-06-23", "1929-06-24", "1929-06-25", "1929-06-26", "1929-06-27", "1929-06-28", "1929-06-29", "1929-06-30", "1929-07-01"],
         "importance": "14"
      }
      }, 
    {
      "type": "Feature",
      "geometry": {
        "type": "Point",
        "coordinates": [16.342154562605, 48.250804274577]
      },
      "properties": {
         "id": "pmb225",
         "title": "Grinzing",
         "lat": "48.250804274577",
         "lon": "16.342154562605",
         "timestamp": ["1929-02-08", "1929-03-31"],
         "importance": "2"
      }
      }, 
    {
      "type": "Feature",
      "geometry": {
        "type": "Point",
        "coordinates": [16.28610371233, 48.233119188484]
      },
      "properties": {
         "id": "pmb170",
         "title": "Neuwaldegg",
         "lat": "48.233119188484",
         "lon": "16.28610371233",
         "timestamp": ["1929-05-05", "1929-07-17", "1929-10-13"],
         "importance": "3"
      }
      }, 
    {
      "type": "Feature",
      "geometry": {
        "type": "Point",
        "coordinates": [16.2652, 48.080769]
      },
      "properties": {
         "id": "pmb192771",
         "title": "Hotel Hajek",
         "lat": "48.080769",
         "lon": "16.2652",
         "timestamp": ["1929-05-15"],
         "importance": "1"
      }
      }, 
    {
      "type": "Feature",
      "geometry": {
        "type": "Point",
        "coordinates": [16.27616, 48.30997]
      },
      "properties": {
         "id": "pmb8062",
         "title": "Kierling",
         "lat": "48.30997",
         "lon": "16.27616",
         "timestamp": ["1929-06-09", "1929-07-14", "1929-08-04"],
         "importance": "3"
      }
      }, 
    {
      "type": "Feature",
      "geometry": {
        "type": "Point",
        "coordinates": [16.209444, 48.327778]
      },
      "properties": {
         "id": "pmb1246",
         "title": "St. Andrä-Wördern",
         "lat": "48.327778",
         "lon": "16.209444",
         "timestamp": ["1929-07-14", "1929-08-04"],
         "importance": "2"
      }
      }, 
    {
      "type": "Feature",
      "geometry": {
        "type": "Point",
        "coordinates": [16.339722, 48.192222]
      },
      "properties": {
         "id": "pmb77",
         "title": "Raimund-Theater",
         "lat": "48.192222",
         "lon": "16.339722",
         "timestamp": ["1929-04-05", "1929-08-12", "1929-11-04", "1929-12-13"],
         "importance": "4"
      }
      }, 
    {
      "type": "Feature",
      "geometry": {
        "type": "Point",
        "coordinates": [16.256152195922, 48.132793312328]
      },
      "properties": {
         "id": "pmb173",
         "title": "Rodaun",
         "lat": "48.132793312328",
         "lon": "16.256152195922",
         "timestamp": ["1929-07-17", "1929-07-28"],
         "importance": "2"
      }
      }, 
    {
      "type": "Feature",
      "geometry": {
        "type": "Point",
        "coordinates": [16.43898217221, 48.19252071812]
      },
      "properties": {
         "id": "pmb185",
         "title": "Lusthaus",
         "lat": "48.19252071812",
         "lon": "16.43898217221",
         "timestamp": ["1929-02-24"],
         "importance": "1"
      }
      }, 
    {
      "type": "Feature",
      "geometry": {
        "type": "Point",
        "coordinates": [16.331527, 48.23428]
      },
      "properties": {
         "id": "pmb74",
         "title": "Restauration Türkenschanz-Park",
         "lat": "48.23428",
         "lon": "16.331527",
         "timestamp": ["1929-05-07", "1929-06-11", "1929-08-09", "1929-10-05"],
         "importance": "4"
      }
      }, 
    {
      "type": "Feature",
      "geometry": {
        "type": "Point",
        "coordinates": [16.258056, 48.201667]
      },
      "properties": {
         "id": "pmb271",
         "title": "Hütteldorf",
         "lat": "48.201667",
         "lon": "16.258056",
         "timestamp": ["1929-07-17", "1929-10-06"],
         "importance": "2"
      }
      }, 
    {
      "type": "Feature",
      "geometry": {
        "type": "Point",
        "coordinates": [16.374444444444, 48.211944444444]
      },
      "properties": {
         "id": "pmb195980",
         "title": "Ruprechtskirche",
         "lat": "48.211944444444",
         "lon": "16.374444444444",
         "timestamp": ["1929-08-18"],
         "importance": "1"
      }
      }, 
    {
      "type": "Feature",
      "geometry": {
        "type": "Point",
        "coordinates": [16.19956, 48.11646]
      },
      "properties": {
         "id": "pmb4845",
         "title": "Kaltenleutgeben",
         "lat": "48.11646",
         "lon": "16.19956",
         "timestamp": ["1929-06-02"],
         "importance": "1"
      }
      }, 
    {
      "type": "Feature",
      "geometry": {
        "type": "Point",
        "coordinates": [16.359721, 48.216481]
      },
      "properties": {
         "id": "pmb184975",
         "title": "Alt Pilsenetzer Bierhalle",
         "lat": "48.216481",
         "lon": "16.359721",
         "timestamp": ["1929-09-27", "1929-10-08"],
         "importance": "2"
      }
      }, 
    {
      "type": "Feature",
      "geometry": {
        "type": "Point",
        "coordinates": [12.72872, 49.96115]
      },
      "properties": {
         "id": "pmb772",
         "title": "Marienbad",
         "lat": "49.96115",
         "lon": "12.72872",
         "timestamp": ["1929-09-12", "1929-09-13", "1929-09-14", "1929-09-15", "1929-09-16", "1929-09-17", "1929-09-18", "1929-09-19", "1929-09-20", "1929-09-21"],
         "importance": "10"
      }
      }, 
    {
      "type": "Feature",
      "geometry": {
        "type": "Point",
        "coordinates": [12.35174, 50.12033]
      },
      "properties": {
         "id": "pmb390",
         "title": "Franzensbad",
         "lat": "50.12033",
         "lon": "12.35174",
         "timestamp": ["1929-09-13", "1929-09-17", "1929-09-21", "1929-09-22", "1929-09-23"],
         "importance": "5"
      }
      }, 
    {
      "type": "Feature",
      "geometry": {
        "type": "Point",
        "coordinates": [12.716619, 49.977638]
      },
      "properties": {
         "id": "pmb147712",
         "title": "Café Forstwarte",
         "lat": "49.977638",
         "lon": "12.716619",
         "timestamp": ["1929-09-14"],
         "importance": "1"
      }
      }, 
    {
      "type": "Feature",
      "geometry": {
        "type": "Point",
        "coordinates": [11.07752, 49.45421]
      },
      "properties": {
         "id": "pmb44172",
         "title": "Nürnberg",
         "lat": "49.45421",
         "lon": "11.07752",
         "timestamp": ["1929-09-11", "1929-09-12"],
         "importance": "2"
      }
      }, 
    {
      "type": "Feature",
      "geometry": {
        "type": "Point",
        "coordinates": [11.569993, 48.143395]
      },
      "properties": {
         "id": "pmb681",
         "title": "Hotel Continental [München]",
         "lat": "48.143395",
         "lon": "11.569993",
         "timestamp": ["1929-08-20", "1929-08-21"],
         "importance": "2"
      }
      }, 
    {
      "type": "Feature",
      "geometry": {
        "type": "Point",
        "coordinates": [16.23333, 48.26667]
      },
      "properties": {
         "id": "pmb289",
         "title": "Steinriegl",
         "lat": "48.26667",
         "lon": "16.23333",
         "timestamp": ["1929-04-28", "1929-05-26", "1929-06-09", "1929-07-14", "1929-08-04", "1929-10-06"],
         "importance": "6"
      }
      }, 
    {
      "type": "Feature",
      "geometry": {
        "type": "Point",
        "coordinates": [16.14492, 48.30198]
      },
      "properties": {
         "id": "pmb34354",
         "title": "Königstetten",
         "lat": "48.30198",
         "lon": "16.14492",
         "timestamp": ["1929-07-14", "1929-08-04"],
         "importance": "2"
      }
      }, 
    {
      "type": "Feature",
      "geometry": {
        "type": "Point",
        "coordinates": [13.38832, 52.51699]
      },
      "properties": {
         "id": "pmb216",
         "title": "Unter den Linden",
         "lat": "52.51699",
         "lon": "13.38832",
         "timestamp": ["1929-12-30"],
         "importance": "1"
      }
      }, 
    {
      "type": "Feature",
      "geometry": {
        "type": "Point",
        "coordinates": [16.338015, 48.234046]
      },
      "properties": {
         "id": "pmb185644",
         "title": "Peregringasse 4",
         "lat": "48.234046",
         "lon": "16.338015",
         "timestamp": ["1929-12-25"],
         "importance": "1"
      }
      }, 
    {
      "type": "Feature",
      "geometry": {
        "type": "Point",
        "coordinates": [16.369913, 48.208613]
      },
      "properties": {
         "id": "pmb39599",
         "title": "Graben",
         "lat": "48.208613",
         "lon": "16.369913",
         "timestamp": ["1929-10-11"],
         "importance": "1"
      }
      }, 
    {
      "type": "Feature",
      "geometry": {
        "type": "Point",
        "coordinates": [13.38084126, 52.51635361]
      },
      "properties": {
         "id": "pmb199896",
         "title": "Zum schwarzen Ferkel",
         "lat": "52.51635361",
         "lon": "13.38084126",
         "timestamp": ["1929-03-14"],
         "importance": "1"
      }
      }, 
    {
      "type": "Feature",
      "geometry": {
        "type": "Point",
        "coordinates": [16.37312, 48.20122]
      },
      "properties": {
         "id": "pmb126",
         "title": "Hotel Imperial",
         "lat": "48.20122",
         "lon": "16.37312",
         "timestamp": ["1929-10-16", "1929-10-19", "1929-11-18"],
         "importance": "3"
      }
      }, 
    {
      "type": "Feature",
      "geometry": {
        "type": "Point",
        "coordinates": [16.347492624475, 48.216264483348]
      },
      "properties": {
         "id": "pmb89",
         "title": "Sanatorium Loew",
         "lat": "48.216264483348",
         "lon": "16.347492624475",
         "timestamp": ["1929-01-25", "1929-04-26"],
         "importance": "2"
      }
      }, 
    {
      "type": "Feature",
      "geometry": {
        "type": "Point",
        "coordinates": [16.33787, 48.19653]
      },
      "properties": {
         "id": "pmb438",
         "title": "Westbahnhof-Restaurant",
         "lat": "48.19653",
         "lon": "16.33787",
         "timestamp": ["1929-08-02", "1929-08-12", "1929-08-18", "1929-08-19"],
         "importance": "4"
      }
      }, 
    {
      "type": "Feature",
      "geometry": {
        "type": "Point",
        "coordinates": [16.365508, 48.200364]
      },
      "properties": {
         "id": "pmb7",
         "title": "Secession",
         "lat": "48.200364",
         "lon": "16.365508",
         "timestamp": ["1929-10-18"],
         "importance": "1"
      }
      }, 
    {
      "type": "Feature",
      "geometry": {
        "type": "Point",
        "coordinates": [15.67877, 47.61131]
      },
      "properties": {
         "id": "pmb19892",
         "title": "Mürzzuschlag",
         "lat": "47.61131",
         "lon": "15.67877",
         "timestamp": ["1929-06-29"],
         "importance": "1"
      }
      }, 
    {
      "type": "Feature",
      "geometry": {
        "type": "Point",
        "coordinates": [15.49145, 47.67556]
      },
      "properties": {
         "id": "pmb91316",
         "title": "Mürzsteg",
         "lat": "47.67556",
         "lon": "15.49145",
         "timestamp": ["1929-06-29"],
         "importance": "1"
      }
      }, 
    {
      "type": "Feature",
      "geometry": {
        "type": "Point",
        "coordinates": [16.301021, 48.185868]
      },
      "properties": {
         "id": "pmb200831",
         "title": "Zum weißen Engel",
         "lat": "48.185868",
         "lon": "16.301021",
         "timestamp": ["1929-08-07"],
         "importance": "1"
      }
      }, 
    {
      "type": "Feature",
      "geometry": {
        "type": "Point",
        "coordinates": [6.63282, 46.516]
      },
      "properties": {
         "id": "pmb8055",
         "title": "Lausanne",
         "lat": "46.516",
         "lon": "6.63282",
         "timestamp": ["1929-08-21", "1929-08-22"],
         "importance": "2"
      }
      }, 
    {
      "type": "Feature",
      "geometry": {
        "type": "Point",
        "coordinates": [6.9275, 46.414167]
      },
      "properties": {
         "id": "pmb40481",
         "title": "Schloss Chillon",
         "lat": "46.414167",
         "lon": "6.9275",
         "timestamp": ["1929-09-02", "1929-09-05"],
         "importance": "2"
      }
      }, 
    {
      "type": "Feature",
      "geometry": {
        "type": "Point",
        "coordinates": [6.92122, 46.42863]
      },
      "properties": {
         "id": "pmb5260",
         "title": "Territet",
         "lat": "46.42863",
         "lon": "6.92122",
         "timestamp": ["1929-08-22", "1929-08-27", "1929-09-02", "1929-09-03", "1929-09-04", "1929-09-05", "1929-09-06", "1929-09-07", "1929-09-08", "1929-09-09", "1929-09-10"],
         "importance": "11"
      }
      }, 
    {
      "type": "Feature",
      "geometry": {
        "type": "Point",
        "coordinates": [6.92619, 46.4336]
      },
      "properties": {
         "id": "pmb40483",
         "title": "Glion",
         "lat": "46.4336",
         "lon": "6.92619",
         "timestamp": ["1929-08-22", "1929-08-27"],
         "importance": "2"
      }
      }, 
    {
      "type": "Feature",
      "geometry": {
        "type": "Point",
        "coordinates": [6.92654, 46.39869]
      },
      "properties": {
         "id": "pmb92015",
         "title": "Villeneuve",
         "lat": "46.39869",
         "lon": "6.92654",
         "timestamp": ["1929-09-04"],
         "importance": "1"
      }
      }, 
    {
      "type": "Feature",
      "geometry": {
        "type": "Point",
        "coordinates": [6.97602, 46.4318]
      },
      "properties": {
         "id": "pmb91604",
         "title": "Rochers de Naye",
         "lat": "46.4318",
         "lon": "6.97602",
         "timestamp": ["1929-08-26"],
         "importance": "1"
      }
      }, 
    {
      "type": "Feature",
      "geometry": {
        "type": "Point",
        "coordinates": [6.84345, 46.46299]
      },
      "properties": {
         "id": "pmb12220",
         "title": "Vevey",
         "lat": "46.46299",
         "lon": "6.84345",
         "timestamp": ["1929-08-22"],
         "importance": "1"
      }
      }, 
    {
      "type": "Feature",
      "geometry": {
        "type": "Point",
        "coordinates": [6.14569, 46.20222]
      },
      "properties": {
         "id": "pmb562",
         "title": "Genf",
         "lat": "46.20222",
         "lon": "6.14569",
         "timestamp": ["1929-09-04"],
         "importance": "1"
      }
      }, 
    {
      "type": "Feature",
      "geometry": {
        "type": "Point",
        "coordinates": [6.94084, 46.45179]
      },
      "properties": {
         "id": "pmb2715",
         "title": "Montreux",
         "lat": "46.45179",
         "lon": "6.94084",
         "timestamp": ["1929-08-27", "1929-09-05", "1929-09-08"],
         "importance": "3"
      }
      }, 
    {
      "type": "Feature",
      "geometry": {
        "type": "Point",
        "coordinates": [16.16793, 48.24514]
      },
      "properties": {
         "id": "pmb942",
         "title": "Mauerbach",
         "lat": "48.24514",
         "lon": "16.16793",
         "timestamp": ["1929-10-06"],
         "importance": "1"
      }
      }, 
    {
      "type": "Feature",
      "geometry": {
        "type": "Point",
        "coordinates": [13.366666666667, 52.516666666667]
      },
      "properties": {
         "id": "pmb207015",
         "title": "Großer Tiergarten",
         "lat": "52.516666666667",
         "lon": "13.366666666667",
         "timestamp": ["1929-01-06"],
         "importance": "1"
      }
      }, 
    {
      "type": "Feature",
      "geometry": {
        "type": "Point",
        "coordinates": [13.366666, 52.516666]
      },
      "properties": {
         "id": "pmb36914",
         "title": "Tiergarten",
         "lat": "52.516666",
         "lon": "13.366666",
         "timestamp": ["1929-01-06", "1929-03-22", "1929-03-24"],
         "importance": "3"
      }
      }, 
    {
      "type": "Feature",
      "geometry": {
        "type": "Point",
        "coordinates": [16.328822485916, 48.231291362993]
      },
      "properties": {
         "id": "pmb291",
         "title": "Gersthof",
         "lat": "48.231291362993",
         "lon": "16.328822485916",
         "timestamp": ["1929-03-10", "1929-12-08"],
         "importance": "2"
      }
      }, 
    {
      "type": "Feature",
      "geometry": {
        "type": "Point",
        "coordinates": [16.23036, 48.246719]
      },
      "properties": {
         "id": "pmb539",
         "title": "Sophienalpe",
         "lat": "48.246719",
         "lon": "16.23036",
         "timestamp": ["1929-05-05", "1929-05-26"],
         "importance": "2"
      }
      }, 
    {
      "type": "Feature",
      "geometry": {
        "type": "Point",
        "coordinates": [16.245159724901, 48.142780596146]
      },
      "properties": {
         "id": "pmb555",
         "title": "Kalksburg",
         "lat": "48.142780596146",
         "lon": "16.245159724901",
         "timestamp": ["1929-06-02"],
         "importance": "1"
      }
      }, 
    {
      "type": "Feature",
      "geometry": {
        "type": "Point",
        "coordinates": [16.17359, 48.15486]
      },
      "properties": {
         "id": "pmb91091",
         "title": "Laab im Walde",
         "lat": "48.15486",
         "lon": "16.17359",
         "timestamp": ["1929-06-02", "1929-07-17"],
         "importance": "2"
      }
      }, 
    {
      "type": "Feature",
      "geometry": {
        "type": "Point",
        "coordinates": [16.322222222222, 48.263611111111]
      },
      "properties": {
         "id": "pmb194903",
         "title": "Am Kobenzl",
         "lat": "48.263611111111",
         "lon": "16.322222222222",
         "timestamp": ["1929-05-13", "1929-05-14", "1929-06-17", "1929-08-08", "1929-09-29", "1929-11-12"],
         "importance": "6"
      }
      }, 
    {
      "type": "Feature",
      "geometry": {
        "type": "Point",
        "coordinates": [16.2911, 48.2553]
      },
      "properties": {
         "id": "pmb242",
         "title": "Salmannsdorf",
         "lat": "48.2553",
         "lon": "16.2911",
         "timestamp": ["1929-07-17"],
         "importance": "1"
      }
      }, 
    {
      "type": "Feature",
      "geometry": {
        "type": "Point",
        "coordinates": [16.255556, 48.133611]
      },
      "properties": {
         "id": "pmb40297",
         "title": "Hofmannsthal-Schlössl",
         "lat": "48.133611",
         "lon": "16.255556",
         "timestamp": ["1929-07-17"],
         "importance": "1"
      }
      }, 
    {
      "type": "Feature",
      "geometry": {
        "type": "Point",
        "coordinates": [13.318058, 52.511709]
      },
      "properties": {
         "id": "pmb334",
         "title": "Schiller-Theater",
         "lat": "52.511709",
         "lon": "13.318058",
         "timestamp": ["1929-03-24"],
         "importance": "1"
      }
      }, 
    {
      "type": "Feature",
      "geometry": {
        "type": "Point",
        "coordinates": [15.86924, 47.64168]
      },
      "properties": {
         "id": "pmb7390",
         "title": "Maria Schutz",
         "lat": "47.64168",
         "lon": "15.86924",
         "timestamp": ["1929-06-23"],
         "importance": "1"
      }
      }, 
    {
      "type": "Feature",
      "geometry": {
        "type": "Point",
        "coordinates": [16.36973, 48.20164]
      },
      "properties": {
         "id": "pmb281",
         "title": "Franz Hartmann, Leidingers Nachfolger",
         "lat": "48.20164",
         "lon": "16.36973",
         "timestamp": ["1929-01-09", "1929-04-09", "1929-10-10"],
         "importance": "3"
      }
      }, 
    {
      "type": "Feature",
      "geometry": {
        "type": "Point",
        "coordinates": [16.349925, 48.224263]
      },
      "properties": {
         "id": "pmb238",
         "title": "Gastwirtschaft Josef Gruß",
         "lat": "48.224263",
         "lon": "16.349925",
         "timestamp": ["1929-07-20", "1929-07-24", "1929-07-31"],
         "importance": "3"
      }
      }, 
    {
      "type": "Feature",
      "geometry": {
        "type": "Point",
        "coordinates": [15.8121, 47.644]
      },
      "properties": {
         "id": "pmb200876",
         "title": "Meierei des Südbahnhotels",
         "lat": "47.644",
         "lon": "15.8121",
         "timestamp": ["1929-06-19", "1929-06-25"],
         "importance": "2"
      }
      }, 
    {
      "type": "Feature",
      "geometry": {
        "type": "Point",
        "coordinates": [13.360365, 52.498452]
      },
      "properties": {
         "id": "pmb233777",
         "title": "Bülowstraße 90",
         "lat": "52.498452",
         "lon": "13.360365",
         "timestamp": ["1929-03-15"],
         "importance": "1"
      }
      }, 
    {
      "type": "Feature",
      "geometry": {
        "type": "Point",
        "coordinates": [13.389438, 52.51547]
      },
      "properties": {
         "id": "pmb233797",
         "title": "Weinhandlung Ewest",
         "lat": "52.51547",
         "lon": "13.389438",
         "timestamp": ["1929-01-02"],
         "importance": "1"
      }
      }, 
    {
      "type": "Feature",
      "geometry": {
        "type": "Point",
        "coordinates": [16.377197811369, 48.200771836002]
      },
      "properties": {
         "id": "pmb240",
         "title": "Konzerthaus",
         "lat": "48.200771836002",
         "lon": "16.377197811369",
         "timestamp": ["1929-10-17"],
         "importance": "1"
      }
      }, 
    {
      "type": "Feature",
      "geometry": {
        "type": "Point",
        "coordinates": [16.38214, 48.21348]
      },
      "properties": {
         "id": "pmb50933",
         "title": "Praterstraße",
         "lat": "48.21348",
         "lon": "16.38214",
         "timestamp": ["1929-04-03"],
         "importance": "1"
      }
      }, 
    {
      "type": "Feature",
      "geometry": {
        "type": "Point",
        "coordinates": [15.62863, 47.64784]
      },
      "properties": {
         "id": "pmb90995",
         "title": "Kapellen",
         "lat": "47.64784",
         "lon": "15.62863",
         "timestamp": ["1929-06-29"],
         "importance": "1"
      }
      }, 
    {
      "type": "Feature",
      "geometry": {
        "type": "Point",
        "coordinates": [16.353889, 48.1975]
      },
      "properties": {
         "id": "pmb52023",
         "title": "Apollo-Theater [Wien]",
         "lat": "48.1975",
         "lon": "16.353889",
         "timestamp": ["1929-10-04", "1929-10-29"],
         "importance": "2"
      }
      }, 
    {
      "type": "Feature",
      "geometry": {
        "type": "Point",
        "coordinates": [16.369495, 48.201427]
      },
      "properties": {
         "id": "pmb235558",
         "title": "Paul Hopfner und Söhne",
         "lat": "48.201427",
         "lon": "16.369495",
         "timestamp": ["1929-02-20", "1929-05-03"],
         "importance": "2"
      }
      }, 
    {
      "type": "Feature",
      "geometry": {
        "type": "Point",
        "coordinates": [15.81667, 47.65]
      },
      "properties": {
         "id": "pmb91482",
         "title": "Pinkenkogel",
         "lat": "47.65",
         "lon": "15.81667",
         "timestamp": ["1929-06-22"],
         "importance": "1"
      }
      }, 
    {
      "type": "Feature",
      "geometry": {
        "type": "Point",
        "coordinates": [15.827286, 47.640258]
      },
      "properties": {
         "id": "pmb236041",
         "title": "Hochstraße [Semmering]",
         "lat": "47.640258",
         "lon": "15.827286",
         "timestamp": ["1929-06-18", "1929-06-20"],
         "importance": "2"
      }
      }, 
    {
      "type": "Feature",
      "geometry": {
        "type": "Point",
        "coordinates": [15.83, 47.647222]
      },
      "properties": {
         "id": "pmb413",
         "title": "Südbahnhotel [Semmering]",
         "lat": "47.647222",
         "lon": "15.83",
         "timestamp": ["1929-06-18", "1929-06-19", "1929-06-20", "1929-06-21", "1929-06-22", "1929-06-23", "1929-06-24", "1929-06-25", "1929-06-26", "1929-06-27", "1929-06-28", "1929-06-29", "1929-06-30", "1929-07-01"],
         "importance": "14"
      }
      }, 
    {
      "type": "Feature",
      "geometry": {
        "type": "Point",
        "coordinates": [13.3969, 52.5172]
      },
      "properties": {
         "id": "pmb235310",
         "title": "Neue Abteilung der Nationalgalerie Berlin im Kronprinzenpalais",
         "lat": "52.5172",
         "lon": "13.3969",
         "timestamp": ["1929-01-02"],
         "importance": "1"
      }
      }, 
    {
      "type": "Feature",
      "geometry": {
        "type": "Point",
        "coordinates": [16.33641, 48.23362]
      },
      "properties": {
         "id": "pmb235132",
         "title": "Türkenschanzstraße 48",
         "lat": "48.23362",
         "lon": "16.33641",
         "timestamp": ["1929-02-11", "1929-04-04", "1929-05-02", "1929-10-24", "1929-11-11"],
         "importance": "5"
      }
      }, 
    {
      "type": "Feature",
      "geometry": {
        "type": "Point",
        "coordinates": [16.394606, 48.217828]
      },
      "properties": {
         "id": "pmb185494",
         "title": "Kaffee-Restaurant Eisvogel",
         "lat": "48.217828",
         "lon": "16.394606",
         "timestamp": ["1929-06-10"],
         "importance": "1"
      }
      }, 
    {
      "type": "Feature",
      "geometry": {
        "type": "Point",
        "coordinates": [15.825278, 47.637222]
      },
      "properties": {
         "id": "pmb204",
         "title": "Hotel Panhans",
         "lat": "47.637222",
         "lon": "15.825278",
         "timestamp": ["1929-06-25"],
         "importance": "1"
      }
      }, 
    {
      "type": "Feature",
      "geometry": {
        "type": "Point",
        "coordinates": [16.33494, 48.23365]
      },
      "properties": {
         "id": "pmb235251",
         "title": "Hasenauerstraße 59",
         "lat": "48.23365",
         "lon": "16.33494",
         "timestamp": ["1929-01-25", "1929-02-03", "1929-02-10", "1929-12-01", "1929-12-26"],
         "importance": "5"
      }
      }, 
    {
      "type": "Feature",
      "geometry": {
        "type": "Point",
        "coordinates": [16.35689, 48.21787]
      },
      "properties": {
         "id": "pmb232768",
         "title": "Beethovengasse 6",
         "lat": "48.21787",
         "lon": "16.35689",
         "timestamp": ["1929-01-11", "1929-02-01", "1929-02-19", "1929-03-01", "1929-04-09", "1929-04-23", "1929-06-04", "1929-09-24", "1929-10-22", "1929-11-03", "1929-11-19", "1929-12-07", "1929-12-22"],
         "importance": "13"
      }
      }, 
    {
      "type": "Feature",
      "geometry": {
        "type": "Point",
        "coordinates": [11.581667, 48.138889]
      },
      "properties": {
         "id": "pmb485",
         "title": "Hotel Vier Jahreszeiten",
         "lat": "48.138889",
         "lon": "11.581667",
         "timestamp": ["1929-08-20"],
         "importance": "1"
      }
      }, 
    {
      "type": "Feature",
      "geometry": {
        "type": "Point",
        "coordinates": [16.33716, 48.23188]
      },
      "properties": {
         "id": "pmb168815",
         "title": "Sternwartestraße 71",
         "lat": "48.23188",
         "lon": "16.33716",
         "timestamp": ["1929-01-08", "1929-01-09", "1929-01-10", "1929-01-11", "1929-01-12", "1929-01-13", "1929-01-14", "1929-01-15", "1929-01-16", "1929-01-17", "1929-01-18", "1929-01-19", "1929-01-20", "1929-01-21", "1929-01-22", "1929-01-23", "1929-01-24", "1929-01-25", "1929-01-26", "1929-01-27", "1929-01-28", "1929-01-29", "1929-01-30", "1929-01-31", "1929-02-01", "1929-02-02", "1929-02-03", "1929-02-04", "1929-02-05", "1929-02-06", "1929-02-07", "1929-02-08", "1929-02-09", "1929-02-10", "1929-02-11", "1929-02-12", "1929-02-13", "1929-02-14", "1929-02-15", "1929-02-16", "1929-02-17", "1929-02-18", "1929-02-19", "1929-02-20", "1929-02-21", "1929-02-22", "1929-02-23", "1929-02-24", "1929-02-25", "1929-02-26", "1929-02-27", "1929-02-28", "1929-03-01", "1929-03-02", "1929-03-03", "1929-03-04", "1929-03-05", "1929-03-06", "1929-03-07", "1929-03-08", "1929-03-09", "1929-03-10", "1929-03-11", "1929-03-12", "1929-03-28", "1929-03-29", "1929-03-30", "1929-03-31", "1929-04-01", "1929-04-02", "1929-04-03", "1929-04-04", "1929-04-05", "1929-04-06", "1929-04-07", "1929-04-08", "1929-04-09", "1929-04-10", "1929-04-11", "1929-04-12", "1929-04-13", "1929-04-14", "1929-04-15", "1929-04-16", "1929-04-17", "1929-04-18", "1929-04-19", "1929-04-20", "1929-04-21", "1929-04-22", "1929-04-23", "1929-04-24", "1929-04-25", "1929-04-26", "1929-04-27", "1929-04-28", "1929-04-29", "1929-04-30", "1929-05-01", "1929-05-02", "1929-05-04", "1929-05-05", "1929-05-06", "1929-05-07", "1929-05-08", "1929-05-09", "1929-05-10", "1929-05-11", "1929-05-12", "1929-05-13", "1929-05-14", "1929-05-16", "1929-05-17", "1929-05-18", "1929-05-19", "1929-05-20", "1929-05-21", "1929-05-22", "1929-05-23", "1929-05-24", "1929-05-25", "1929-05-26", "1929-05-27", "1929-05-28", "1929-05-29", "1929-05-30", "1929-05-31", "1929-06-01", "1929-06-02", "1929-06-03", "1929-06-04", "1929-06-05", "1929-06-06", "1929-06-07", "1929-06-08", "1929-06-09", "1929-06-10", "1929-06-11", "1929-06-12", "1929-06-13", "1929-06-14", "1929-06-15", "1929-06-16", "1929-06-17", "1929-06-18", "1929-07-01", "1929-07-02", "1929-07-03", "1929-07-04", "1929-07-05", "1929-07-06", "1929-07-07", "1929-07-08", "1929-07-09", "1929-07-10", "1929-07-11", "1929-07-12", "1929-07-13", "1929-07-14", "1929-07-15", "1929-07-16", "1929-07-17", "1929-07-18", "1929-07-19", "1929-07-20", "1929-07-21", "1929-07-22", "1929-07-23", "1929-07-24", "1929-07-25", "1929-07-26", "1929-07-27", "1929-07-28", "1929-07-29", "1929-07-30", "1929-07-31", "1929-08-01", "1929-08-02", "1929-08-03", "1929-08-04", "1929-08-05", "1929-08-06", "1929-08-07", "1929-08-08", "1929-08-09", "1929-08-10", "1929-08-11", "1929-08-12", "1929-08-13", "1929-08-14", "1929-08-15", "1929-08-16", "1929-08-17", "1929-08-18", "1929-08-19", "1929-08-20", "1929-09-21", "1929-09-22", "1929-09-23", "1929-09-24", "1929-09-25", "1929-09-26", "1929-09-27", "1929-09-28", "1929-09-29", "1929-09-30", "1929-10-01", "1929-10-02", "1929-10-03", "1929-10-04", "1929-10-05", "1929-10-06", "1929-10-07", "1929-10-08", "1929-10-09", "1929-10-10", "1929-10-11", "1929-10-12", "1929-10-13", "1929-10-14", "1929-10-15", "1929-10-16", "1929-10-17", "1929-10-18", "1929-10-19", "1929-10-20", "1929-10-21", "1929-10-22", "1929-10-23", "1929-10-24", "1929-10-25", "1929-10-26", "1929-10-27", "1929-10-28", "1929-10-29", "1929-10-30", "1929-10-31", "1929-11-01", "1929-11-02", "1929-11-03", "1929-11-04", "1929-11-05", "1929-11-06", "1929-11-07", "1929-11-08", "1929-11-09", "1929-11-10", "1929-11-11", "1929-11-12", "1929-11-13", "1929-11-14", "1929-11-15", "1929-11-16", "1929-11-17", "1929-11-18", "1929-11-19", "1929-11-20", "1929-11-21", "1929-11-22", "1929-11-23", "1929-11-24", "1929-11-25", "1929-11-26", "1929-11-27", "1929-11-28", "1929-11-29", "1929-11-30", "1929-12-01", "1929-12-02", "1929-12-03", "1929-12-04", "1929-12-05", "1929-12-06", "1929-12-07", "1929-12-08", "1929-12-09", "1929-12-10", "1929-12-11", "1929-12-12", "1929-12-13", "1929-12-14", "1929-12-15", "1929-12-16", "1929-12-17", "1929-12-18", "1929-12-19", "1929-12-20", "1929-12-21", "1929-12-22", "1929-12-23", "1929-12-24", "1929-12-25", "1929-12-26", "1929-12-27"],
         "importance": "294"
      }
      }, 
    {
      "type": "Feature",
      "geometry": {
        "type": "Point",
        "coordinates": [16.320696, 48.263217]
      },
      "properties": {
         "id": "pmb194907",
         "title": "Schlosshotel Cobenzl",
         "lat": "48.263217",
         "lon": "16.320696",
         "timestamp": ["1929-08-08"],
         "importance": "1"
      }
      }, 
    {
      "type": "Feature",
      "geometry": {
        "type": "Point",
        "coordinates": [16.35137, 48.21346]
      },
      "properties": {
         "id": "pmb232800",
         "title": "Laudongasse 12",
         "lat": "48.21346",
         "lon": "16.35137",
         "timestamp": ["1929-01-11", "1929-01-22", "1929-02-12", "1929-02-22", "1929-03-05", "1929-03-29", "1929-04-12", "1929-04-19", "1929-04-30", "1929-05-19", "1929-05-31", "1929-07-02", "1929-07-09", "1929-07-16", "1929-09-24", "1929-10-03", "1929-10-15", "1929-10-27", "1929-11-08", "1929-11-21", "1929-12-06", "1929-12-13", "1929-12-24"],
         "importance": "23"
      }
      }, 
    {
      "type": "Feature",
      "geometry": {
        "type": "Point",
        "coordinates": [16.332605, 48.229801]
      },
      "properties": {
         "id": "pmb190702",
         "title": "Währinger Bürgertheater",
         "lat": "48.229801",
         "lon": "16.332605",
         "timestamp": ["1929-07-20"],
         "importance": "1"
      }
      }, 
    {
      "type": "Feature",
      "geometry": {
        "type": "Point",
        "coordinates": [11.5825, 48.1381]
      },
      "properties": {
         "id": "pmb185933",
         "title": "Kammerspiele München",
         "lat": "48.1381",
         "lon": "11.5825",
         "timestamp": ["1929-08-20"],
         "importance": "1"
      }
      }, 
    {
      "type": "Feature",
      "geometry": {
        "type": "Point",
        "coordinates": [16.367725, 48.212284]
      },
      "properties": {
         "id": "pmb207301",
         "title": "Tiefer Graben 17",
         "lat": "48.212284",
         "lon": "16.367725",
         "timestamp": ["1929-01-18", "1929-02-12", "1929-02-22", "1929-03-05", "1929-04-23", "1929-05-31", "1929-06-07", "1929-07-31", "1929-10-08", "1929-10-22", "1929-11-20", "1929-11-30"],
         "importance": "12"
      }
      }, 
    {
      "type": "Feature",
      "geometry": {
        "type": "Point",
        "coordinates": [16.36171, 48.2116]
      },
      "properties": {
         "id": "pmb235784",
         "title": "Oppolzergasse 6",
         "lat": "48.2116",
         "lon": "16.36171",
         "timestamp": ["1929-01-15", "1929-11-05"],
         "importance": "2"
      }
      }, 
    {
      "type": "Feature",
      "geometry": {
        "type": "Point",
        "coordinates": [16.258244, 48.230796]
      },
      "properties": {
         "id": "pmb207323",
         "title": "Schottenhof [Penzing]",
         "lat": "48.230796",
         "lon": "16.258244",
         "timestamp": ["1929-05-26", "1929-07-17"],
         "importance": "2"
      }
      }, 
    {
      "type": "Feature",
      "geometry": {
        "type": "Point",
        "coordinates": [16.377117625773, 48.200254933632]
      },
      "properties": {
         "id": "pmb520",
         "title": "Akademietheater",
         "lat": "48.200254933632",
         "lon": "16.377117625773",
         "timestamp": ["1929-05-07"],
         "importance": "1"
      }
      }, 
    {
      "type": "Feature",
      "geometry": {
        "type": "Point",
        "coordinates": [16.37743, 48.1984]
      },
      "properties": {
         "id": "pmb92525",
         "title": "Kammer-Lichtspiele",
         "lat": "48.1984",
         "lon": "16.37743",
         "timestamp": ["1929-01-09"],
         "importance": "1"
      }
      }, 
    {
      "type": "Feature",
      "geometry": {
        "type": "Point",
        "coordinates": [16.360145, 48.220337]
      },
      "properties": {
         "id": "pmb190562",
         "title": "Fliegerkino",
         "lat": "48.220337",
         "lon": "16.360145",
         "timestamp": ["1929-08-09", "1929-09-27"],
         "importance": "2"
      }
      }, 
    {
      "type": "Feature",
      "geometry": {
        "type": "Point",
        "coordinates": [16.364281, 48.202866]
      },
      "properties": {
         "id": "pmb186043",
         "title": "Elisabethstraße 22",
         "lat": "48.202866",
         "lon": "16.364281",
         "timestamp": ["1929-10-25"],
         "importance": "1"
      }
      }, 
    {
      "type": "Feature",
      "geometry": {
        "type": "Point",
        "coordinates": [13.318595, 52.51421]
      },
      "properties": {
         "id": "pmb1058",
         "title": "Tribüne",
         "lat": "52.51421",
         "lon": "13.318595",
         "timestamp": ["1929-03-20"],
         "importance": "1"
      }
      }, 
    {
      "type": "Feature",
      "geometry": {
        "type": "Point",
        "coordinates": [16.354136, 48.230809]
      },
      "properties": {
         "id": "pmb185321",
         "title": "Restaurant Auge Gottes",
         "lat": "48.230809",
         "lon": "16.354136",
         "timestamp": ["1929-01-29", "1929-02-23", "1929-02-25", "1929-03-09"],
         "importance": "4"
      }
      }, 
    {
      "type": "Feature",
      "geometry": {
        "type": "Point",
        "coordinates": [9.17702, 48.78232]
      },
      "properties": {
         "id": "pmb872",
         "title": "Stuttgart",
         "lat": "48.78232",
         "lon": "9.17702",
         "timestamp": ["1929-09-11"],
         "importance": "1"
      }
      }, 
    {
      "type": "Feature",
      "geometry": {
        "type": "Point",
        "coordinates": [16.351435, 48.209524]
      },
      "properties": {
         "id": "pmb185511",
         "title": "Restaurant zum weißen Hahn",
         "lat": "48.209524",
         "lon": "16.351435",
         "timestamp": ["1929-01-22", "1929-10-15", "1929-11-05", "1929-12-07", "1929-12-11"],
         "importance": "5"
      }
      }, 
    {
      "type": "Feature",
      "geometry": {
        "type": "Point",
        "coordinates": [16.349979, 48.224251]
      },
      "properties": {
         "id": "pmb185452",
         "title": "Josef Pohl",
         "lat": "48.224251",
         "lon": "16.349979",
         "timestamp": ["1929-10-14"],
         "importance": "1"
      }
      }, 
    {
      "type": "Feature",
      "geometry": {
        "type": "Point",
        "coordinates": [13.374444, 52.51]
      },
      "properties": {
         "id": "pmb245",
         "title": "Hotel Esplanade [Berlin]",
         "lat": "52.51",
         "lon": "13.374444",
         "timestamp": ["1929-01-02", "1929-01-03", "1929-01-06", "1929-03-12", "1929-03-13", "1929-03-14", "1929-03-15", "1929-03-16", "1929-03-17", "1929-03-18", "1929-03-19", "1929-03-20", "1929-03-21", "1929-03-22", "1929-03-23", "1929-03-24", "1929-03-25", "1929-03-26", "1929-03-27", "1929-12-28", "1929-12-29", "1929-12-30", "1929-12-31"],
         "importance": "23"
      }
      }, 
    {
      "type": "Feature",
      "geometry": {
        "type": "Point",
        "coordinates": [13.308333, 52.512778]
      },
      "properties": {
         "id": "pmb185949",
         "title": "Städtische Oper Berlin",
         "lat": "52.512778",
         "lon": "13.308333",
         "timestamp": ["1929-01-03"],
         "importance": "1"
      }
      }, 
    {
      "type": "Feature",
      "geometry": {
        "type": "Point",
        "coordinates": [16.35376, 48.22272]
      },
      "properties": {
         "id": "pmb190464",
         "title": "Kolosseum",
         "lat": "48.22272",
         "lon": "16.35376",
         "timestamp": ["1929-10-20"],
         "importance": "1"
      }
      }, 
    {
      "type": "Feature",
      "geometry": {
        "type": "Point",
        "coordinates": [16.37997, 48.21366]
      },
      "properties": {
         "id": "pmb584",
         "title": "Zentralkino",
         "lat": "48.21366",
         "lon": "16.37997",
         "timestamp": ["1929-02-19"],
         "importance": "1"
      }
      }, 
    {
      "type": "Feature",
      "geometry": {
        "type": "Point",
        "coordinates": [13.34181, 52.50538]
      },
      "properties": {
         "id": "pmb185953",
         "title": "Deutsches Künstlertheater",
         "lat": "52.50538",
         "lon": "13.34181",
         "timestamp": ["1929-01-02"],
         "importance": "1"
      }
      }, 
    {
      "type": "Feature",
      "geometry": {
        "type": "Point",
        "coordinates": [16.368443, 48.209585]
      },
      "properties": {
         "id": "pmb185484",
         "title": "Metrophon Konzertsalon und Musikhaus",
         "lat": "48.209585",
         "lon": "16.368443",
         "timestamp": ["1929-04-10"],
         "importance": "1"
      }
      }, 
    {
      "type": "Feature",
      "geometry": {
        "type": "Point",
        "coordinates": [16.395442, 48.217178]
      },
      "properties": {
         "id": "pmb185318",
         "title": "Restauration Prochaska",
         "lat": "48.217178",
         "lon": "16.395442",
         "timestamp": ["1929-06-15", "1929-06-16"],
         "importance": "2"
      }
      }, 
    {
      "type": "Feature",
      "geometry": {
        "type": "Point",
        "coordinates": [13.3451, 52.4981]
      },
      "properties": {
         "id": "pmb185955",
         "title": "Scala",
         "lat": "52.4981",
         "lon": "13.3451",
         "timestamp": ["1929-03-25"],
         "importance": "1"
      }
      }, 
    {
      "type": "Feature",
      "geometry": {
        "type": "Point",
        "coordinates": [16.11437, 48.13047]
      },
      "properties": {
         "id": "pmb90889",
         "title": "Hochroterd",
         "lat": "48.13047",
         "lon": "16.11437",
         "timestamp": ["1929-06-02"],
         "importance": "1"
      }
      }, 
    {
      "type": "Feature",
      "geometry": {
        "type": "Point",
        "coordinates": [16.337998, 48.235859]
      },
      "properties": {
         "id": "pmb232834",
         "title": "Gregor-Mendel-Straße 50",
         "lat": "48.235859",
         "lon": "16.337998",
         "timestamp": ["1929-04-19", "1929-11-30"],
         "importance": "2"
      }
      }, 
    {
      "type": "Feature",
      "geometry": {
        "type": "Point",
        "coordinates": [16.367295, 48.207185]
      },
      "properties": {
         "id": "pmb235837",
         "title": "Reitschulgasse 2",
         "lat": "48.207185",
         "lon": "16.367295",
         "timestamp": ["1929-02-05"],
         "importance": "1"
      }
      }, 
    {
      "type": "Feature",
      "geometry": {
        "type": "Point",
        "coordinates": [16.12209, 48.2794]
      },
      "properties": {
         "id": "pmb91955",
         "title": "Tulbing",
         "lat": "48.2794",
         "lon": "16.12209",
         "timestamp": ["1929-08-04"],
         "importance": "1"
      }
      }, 
    {
      "type": "Feature",
      "geometry": {
        "type": "Point",
        "coordinates": [16.19733, 48.20444]
      },
      "properties": {
         "id": "pmb52452",
         "title": "Sanatorium Purkersdorf",
         "lat": "48.20444",
         "lon": "16.19733",
         "timestamp": ["1929-01-13", "1929-04-07"],
         "importance": "2"
      }
      }, 
    {
      "type": "Feature",
      "geometry": {
        "type": "Point",
        "coordinates": [13.36797, 52.50937]
      },
      "properties": {
         "id": "pmb1160",
         "title": "Herbert-von-Karajan-Straße",
         "lat": "52.50937",
         "lon": "13.36797",
         "timestamp": ["1929-01-07"],
         "importance": "1"
      }
      }, 
    {
      "type": "Feature",
      "geometry": {
        "type": "Point",
        "coordinates": [13.36821, 52.50982]
      },
      "properties": {
         "id": "pmb233325",
         "title": "Herbert-von-Karajan-Straße 15",
         "lat": "52.50982",
         "lon": "13.36821",
         "timestamp": ["1929-01-01", "1929-01-03", "1929-01-04", "1929-01-06", "1929-01-07", "1929-03-13", "1929-03-15", "1929-03-16", "1929-03-17", "1929-03-20", "1929-03-21", "1929-03-23", "1929-03-24", "1929-03-26", "1929-03-27", "1929-12-28", "1929-12-29", "1929-12-30", "1929-12-31"],
         "importance": "19"
      }
      }, 
    {
      "type": "Feature",
      "geometry": {
        "type": "Point",
        "coordinates": [13.34156, 52.51667]
      },
      "properties": {
         "id": "pmb92267",
         "title": "Händelallee",
         "lat": "52.51667",
         "lon": "13.34156",
         "timestamp": ["1929-01-03"],
         "importance": "1"
      }
      }, 
    {
      "type": "Feature",
      "geometry": {
        "type": "Point",
        "coordinates": [13.34291, 52.51456]
      },
      "properties": {
         "id": "pmb233576",
         "title": "Händelallee 8",
         "lat": "52.51456",
         "lon": "13.34291",
         "timestamp": ["1929-03-17"],
         "importance": "1"
      }
      }, 
    {
      "type": "Feature",
      "geometry": {
        "type": "Point",
        "coordinates": [13.364497, 52.497646]
      },
      "properties": {
         "id": "pmb237733",
         "title": "Bülowstraße 78",
         "lat": "52.497646",
         "lon": "13.364497",
         "timestamp": ["1929-01-01", "1929-01-04", "1929-12-29", "1929-12-31"],
         "importance": "4"
      }
      }, 
    {
      "type": "Feature",
      "geometry": {
        "type": "Point",
        "coordinates": [13.2743, 52.4907]
      },
      "properties": {
         "id": "pmb233695",
         "title": "Erdener Straße 6",
         "lat": "52.4907",
         "lon": "13.2743",
         "timestamp": ["1929-03-17", "1929-03-18", "1929-03-21", "1929-03-25"],
         "importance": "4"
      }
      }, 
    {
      "type": "Feature",
      "geometry": {
        "type": "Point",
        "coordinates": [16.338016, 48.234091]
      },
      "properties": {
         "id": "pmb236372",
         "title": "Gregor-Mendel-Straße 34",
         "lat": "48.234091",
         "lon": "16.338016",
         "timestamp": ["1929-01-08", "1929-01-11", "1929-01-13", "1929-01-14", "1929-01-15", "1929-01-16", "1929-01-17", "1929-01-18", "1929-01-19", "1929-01-21", "1929-02-07", "1929-02-11", "1929-02-15", "1929-02-18", "1929-03-10", "1929-03-12", "1929-03-28", "1929-04-01", "1929-04-03", "1929-04-04", "1929-05-03", "1929-05-07", "1929-05-12", "1929-05-14", "1929-05-16", "1929-05-17", "1929-05-19", "1929-05-23", "1929-05-26", "1929-05-27", "1929-06-01", "1929-06-04", "1929-06-05", "1929-06-06", "1929-06-07", "1929-06-08", "1929-07-02", "1929-07-03", "1929-07-04", "1929-07-06", "1929-07-07", "1929-07-10", "1929-07-11", "1929-07-12", "1929-07-13", "1929-07-14", "1929-07-15", "1929-07-17", "1929-07-18", "1929-07-21", "1929-07-24", "1929-07-25", "1929-07-30", "1929-08-01", "1929-08-02", "1929-08-11", "1929-08-14", "1929-08-15", "1929-08-18", "1929-09-28", "1929-10-01", "1929-10-02", "1929-10-23", "1929-10-28", "1929-10-30", "1929-11-11", "1929-11-12", "1929-11-26", "1929-11-28", "1929-11-29", "1929-11-30", "1929-12-10", "1929-12-14", "1929-12-16", "1929-12-17", "1929-12-21", "1929-12-25", "1929-12-26"],
         "importance": "78"
      }
      }, 
    {
      "type": "Feature",
      "geometry": {
        "type": "Point",
        "coordinates": [16.37675, 48.20762]
      },
      "properties": {
         "id": "pmb235120",
         "title": "Schulerstraße 22",
         "lat": "48.20762",
         "lon": "16.37675",
         "timestamp": ["1929-01-25", "1929-10-04", "1929-10-05", "1929-10-11"],
         "importance": "4"
      }
      }, 
    {
      "type": "Feature",
      "geometry": {
        "type": "Point",
        "coordinates": [16.33286, 48.25644]
      },
      "properties": {
         "id": "pmb235184",
         "title": "Himmelstraße 55",
         "lat": "48.25644",
         "lon": "16.33286",
         "timestamp": ["1929-04-11", "1929-10-19"],
         "importance": "2"
      }
      }, 
    {
      "type": "Feature",
      "geometry": {
        "type": "Point",
        "coordinates": [16.333056, 48.233056]
      },
      "properties": {
         "id": "pmb61755",
         "title": "Cottage-Sanatorium für Nerven- und Stoffwechselkranke",
         "lat": "48.233056",
         "lon": "16.333056",
         "timestamp": ["1929-05-13", "1929-05-14", "1929-05-16", "1929-05-18", "1929-05-20", "1929-05-21", "1929-05-22", "1929-05-23", "1929-05-24", "1929-05-25", "1929-05-26", "1929-05-27"],
         "importance": "12"
      }
      }, 
    {
      "type": "Feature",
      "geometry": {
        "type": "Point",
        "coordinates": [13.381944444444, 52.503055555556]
      },
      "properties": {
         "id": "pmb235301",
         "title": "Berlin Anhalter Bahnhof",
         "lat": "52.503055555556",
         "lon": "13.381944444444",
         "timestamp": ["1929-01-02"],
         "importance": "1"
      }
      }, 
    {
      "type": "Feature",
      "geometry": {
        "type": "Point",
        "coordinates": [13.29417, 52.46601]
      },
      "properties": {
         "id": "pmb235344",
         "title": "Podbielskiallee 35–37",
         "lat": "52.46601",
         "lon": "13.29417",
         "timestamp": ["1929-01-05"],
         "importance": "1"
      }
      }, 
    {
      "type": "Feature",
      "geometry": {
        "type": "Point",
        "coordinates": [16.36384, 48.217747]
      },
      "properties": {
         "id": "pmb92572",
         "title": "Türkenstraße",
         "lat": "48.217747",
         "lon": "16.36384",
         "timestamp": ["1929-01-13"],
         "importance": "1"
      }
      }, 
    {
      "type": "Feature",
      "geometry": {
        "type": "Point",
        "coordinates": [16.309305, 48.253492]
      },
      "properties": {
         "id": "pmb237889",
         "title": "Agnesgasse 30",
         "lat": "48.253492",
         "lon": "16.309305",
         "timestamp": ["1929-01-15", "1929-04-26", "1929-04-30", "1929-05-19", "1929-08-05", "1929-09-27", "1929-10-03", "1929-10-31", "1929-12-24"],
         "importance": "9"
      }
      }, 
    {
      "type": "Feature",
      "geometry": {
        "type": "Point",
        "coordinates": [16.38226, 48.21063]
      },
      "properties": {
         "id": "pmb235806",
         "title": "Atelier Trude Geiringer und Dora Horovitz",
         "lat": "48.21063",
         "lon": "16.38226",
         "timestamp": ["1929-01-25"],
         "importance": "1"
      }
      }, 
    {
      "type": "Feature",
      "geometry": {
        "type": "Point",
        "coordinates": [16.37354, 48.1948]
      },
      "properties": {
         "id": "pmb235885",
         "title": "Phaidon Verlag",
         "lat": "48.1948",
         "lon": "16.37354",
         "timestamp": ["1929-02-22"],
         "importance": "1"
      }
      }, 
    {
      "type": "Feature",
      "geometry": {
        "type": "Point",
        "coordinates": [13.39333, 52.51483]
      },
      "properties": {
         "id": "pmb493",
         "title": "Bank für Auswärtigen Handel",
         "lat": "52.51483",
         "lon": "13.39333",
         "timestamp": ["1929-03-14", "1929-12-30"],
         "importance": "2"
      }
      }, 
    {
      "type": "Feature",
      "geometry": {
        "type": "Point",
        "coordinates": [13.3759, 52.51028]
      },
      "properties": {
         "id": "pmb141471",
         "title": "Potsdamer Platz",
         "lat": "52.51028",
         "lon": "13.3759",
         "timestamp": ["1929-03-15"],
         "importance": "1"
      }
      }, 
    {
      "type": "Feature",
      "geometry": {
        "type": "Point",
        "coordinates": [13.34635, 52.49755]
      },
      "properties": {
         "id": "pmb235925",
         "title": "Horcher",
         "lat": "52.49755",
         "lon": "13.34635",
         "timestamp": ["1929-03-15"],
         "importance": "1"
      }
      }, 
    {
      "type": "Feature",
      "geometry": {
        "type": "Point",
        "coordinates": [13.41212, 52.58777]
      },
      "properties": {
         "id": "pmb144055",
         "title": "Lanzsch & Co.",
         "lat": "52.58777",
         "lon": "13.41212",
         "timestamp": ["1929-03-16", "1929-03-18", "1929-03-19", "1929-03-20", "1929-03-24", "1929-03-25", "1929-12-30"],
         "importance": "7"
      }
      }, 
    {
      "type": "Feature",
      "geometry": {
        "type": "Point",
        "coordinates": [13.29602, 52.49005]
      },
      "properties": {
         "id": "pmb90827",
         "title": "Halensee",
         "lat": "52.49005",
         "lon": "13.29602",
         "timestamp": ["1929-03-19"],
         "importance": "1"
      }
      }, 
    {
      "type": "Feature",
      "geometry": {
        "type": "Point",
        "coordinates": [13.26269, 52.48383]
      },
      "properties": {
         "id": "pmb235943",
         "title": "Douglasstraße 10",
         "lat": "52.48383",
         "lon": "13.26269",
         "timestamp": ["1929-03-19"],
         "importance": "1"
      }
      }, 
    {
      "type": "Feature",
      "geometry": {
        "type": "Point",
        "coordinates": [13.28702, 52.4581]
      },
      "properties": {
         "id": "pmb90508",
         "title": "Dahlem",
         "lat": "52.4581",
         "lon": "13.28702",
         "timestamp": ["1929-03-22"],
         "importance": "1"
      }
      }, 
    {
      "type": "Feature",
      "geometry": {
        "type": "Point",
        "coordinates": [13.282212, 52.449736]
      },
      "properties": {
         "id": "pmb92232",
         "title": "Faradayweg",
         "lat": "52.449736",
         "lon": "13.282212",
         "timestamp": ["1929-03-22"],
         "importance": "1"
      }
      }, 
    {
      "type": "Feature",
      "geometry": {
        "type": "Point",
        "coordinates": [13.28135, 52.45014]
      },
      "properties": {
         "id": "pmb235968",
         "title": "Faradayweg 16",
         "lat": "52.45014",
         "lon": "13.28135",
         "timestamp": ["1929-03-22"],
         "importance": "1"
      }
      }, 
    {
      "type": "Feature",
      "geometry": {
        "type": "Point",
        "coordinates": [13.33465, 52.50422]
      },
      "properties": {
         "id": "pmb235978",
         "title": "Zum Austernmeyer",
         "lat": "52.50422",
         "lon": "13.33465",
         "timestamp": ["1929-03-22"],
         "importance": "1"
      }
      }, 
    {
      "type": "Feature",
      "geometry": {
        "type": "Point",
        "coordinates": [16.38599, 48.21519]
      },
      "properties": {
         "id": "pmb236013",
         "title": "Praterstraße 42",
         "lat": "48.21519",
         "lon": "16.38599",
         "timestamp": ["1929-04-03"],
         "importance": "1"
      }
      }, 
    {
      "type": "Feature",
      "geometry": {
        "type": "Point",
        "coordinates": [16.356412, 48.213361]
      },
      "properties": {
         "id": "pmb236861",
         "title": "Krankenhaus der Wiener Kaufmannschaft",
         "lat": "48.213361",
         "lon": "16.356412",
         "timestamp": ["1929-04-12", "1929-10-30"],
         "importance": "2"
      }
      }, 
    {
      "type": "Feature",
      "geometry": {
        "type": "Point",
        "coordinates": [16.37819, 48.20771]
      },
      "properties": {
         "id": "pmb190590",
         "title": "Elitekino",
         "lat": "48.20771",
         "lon": "16.37819",
         "timestamp": ["1929-04-25"],
         "importance": "1"
      }
      }, 
    {
      "type": "Feature",
      "geometry": {
        "type": "Point",
        "coordinates": [16.37449, 48.19871]
      },
      "properties": {
         "id": "pmb236131",
         "title": "Technikerstraße 2",
         "lat": "48.19871",
         "lon": "16.37449",
         "timestamp": ["1929-04-27"],
         "importance": "1"
      }
      }, 
    {
      "type": "Feature",
      "geometry": {
        "type": "Point",
        "coordinates": [16.3533, 48.20823]
      },
      "properties": {
         "id": "pmb236135",
         "title": "Josefsgasse 7",
         "lat": "48.20823",
         "lon": "16.3533",
         "timestamp": ["1929-04-27"],
         "importance": "1"
      }
      }, 
    {
      "type": "Feature",
      "geometry": {
        "type": "Point",
        "coordinates": [16.21667, 48.3]
      },
      "properties": {
         "id": "pmb90881",
         "title": "Hintersdorf",
         "lat": "48.3",
         "lon": "16.21667",
         "timestamp": ["1929-04-28"],
         "importance": "1"
      }
      }, 
    {
      "type": "Feature",
      "geometry": {
        "type": "Point",
        "coordinates": [16.373682, 48.210522]
      },
      "properties": {
         "id": "pmb185504",
         "title": "Café Ankerhof",
         "lat": "48.210522",
         "lon": "16.373682",
         "timestamp": ["1929-05-04"],
         "importance": "1"
      }
      }, 
    {
      "type": "Feature",
      "geometry": {
        "type": "Point",
        "coordinates": [16.334494, 48.239251]
      },
      "properties": {
         "id": "pmb92273",
         "title": "Hartäckerpark",
         "lat": "48.239251",
         "lon": "16.334494",
         "timestamp": ["1929-05-06"],
         "importance": "1"
      }
      }, 
    {
      "type": "Feature",
      "geometry": {
        "type": "Point",
        "coordinates": [16.29487, 48.14719]
      },
      "properties": {
         "id": "pmb23511",
         "title": "Atzgersdorf",
         "lat": "48.14719",
         "lon": "16.29487",
         "timestamp": ["1929-05-15"],
         "importance": "1"
      }
      }, 
    {
      "type": "Feature",
      "geometry": {
        "type": "Point",
        "coordinates": [16.3782, 48.20493]
      },
      "properties": {
         "id": "pmb55901",
         "title": "Parkring",
         "lat": "48.20493",
         "lon": "16.3782",
         "timestamp": ["1929-05-28"],
         "importance": "1"
      }
      }, 
    {
      "type": "Feature",
      "geometry": {
        "type": "Point",
        "coordinates": [16.37895, 48.20614]
      },
      "properties": {
         "id": "pmb236200",
         "title": "Österreichischer Klub am Parkring",
         "lat": "48.20614",
         "lon": "16.37895",
         "timestamp": ["1929-05-28"],
         "importance": "1"
      }
      }, 
    {
      "type": "Feature",
      "geometry": {
        "type": "Point",
        "coordinates": [16.35149, 48.20749]
      },
      "properties": {
         "id": "pmb236205",
         "title": "Neudeggergasse 17",
         "lat": "48.20749",
         "lon": "16.35149",
         "timestamp": ["1929-05-28"],
         "importance": "1"
      }
      }, 
    {
      "type": "Feature",
      "geometry": {
        "type": "Point",
        "coordinates": [16.378035, 48.214408]
      },
      "properties": {
         "id": "pmb185507",
         "title": "Restaurant Neugröschl",
         "lat": "48.214408",
         "lon": "16.378035",
         "timestamp": ["1929-05-30"],
         "importance": "1"
      }
      }, 
    {
      "type": "Feature",
      "geometry": {
        "type": "Point",
        "coordinates": [16.21667, 48.18333]
      },
      "properties": {
         "id": "pmb91099",
         "title": "Lainzer Tiergarten",
         "lat": "48.18333",
         "lon": "16.21667",
         "timestamp": ["1929-06-02"],
         "importance": "1"
      }
      }, 
    {
      "type": "Feature",
      "geometry": {
        "type": "Point",
        "coordinates": [16.28456, 48.17318]
      },
      "properties": {
         "id": "pmb236355",
         "title": "Gasthaus Weide",
         "lat": "48.17318",
         "lon": "16.28456",
         "timestamp": ["1929-06-02"],
         "importance": "1"
      }
      }, 
    {
      "type": "Feature",
      "geometry": {
        "type": "Point",
        "coordinates": [16.19845, 48.11549]
      },
      "properties": {
         "id": "pmb236358",
         "title": "Pfarrkirche Kaltenleutgeben",
         "lat": "48.11549",
         "lon": "16.19845",
         "timestamp": ["1929-06-02"],
         "importance": "1"
      }
      }, 
    {
      "type": "Feature",
      "geometry": {
        "type": "Point",
        "coordinates": [15.81418, 47.6332]
      },
      "properties": {
         "id": "pmb236387",
         "title": "Pinkenkogel-Schutzhaus",
         "lat": "47.6332",
         "lon": "15.81418",
         "timestamp": ["1929-06-22"],
         "importance": "1"
      }
      }, 
    {
      "type": "Feature",
      "geometry": {
        "type": "Point",
        "coordinates": [15.84854, 47.63882]
      },
      "properties": {
         "id": "pmb236397",
         "title": "Liechtensteinstraße [Semmering]",
         "lat": "47.63882",
         "lon": "15.84854",
         "timestamp": ["1929-06-26"],
         "importance": "1"
      }
      }, 
    {
      "type": "Feature",
      "geometry": {
        "type": "Point",
        "coordinates": [15.7, 47.66667]
      },
      "properties": {
         "id": "pmb91538",
         "title": "Preiner Gscheid",
         "lat": "47.66667",
         "lon": "15.7",
         "timestamp": ["1929-06-29"],
         "importance": "1"
      }
      }, 
    {
      "type": "Feature",
      "geometry": {
        "type": "Point",
        "coordinates": [15.49192, 47.67694]
      },
      "properties": {
         "id": "pmb236407",
         "title": "Jagdschloss Mürzsteg",
         "lat": "47.67694",
         "lon": "15.49192",
         "timestamp": ["1929-06-29"],
         "importance": "1"
      }
      }, 
    {
      "type": "Feature",
      "geometry": {
        "type": "Point",
        "coordinates": [16.12098, 48.1587]
      },
      "properties": {
         "id": "pmb92095",
         "title": "Wolfsgraben",
         "lat": "48.1587",
         "lon": "16.12098",
         "timestamp": ["1929-07-17"],
         "importance": "1"
      }
      }, 
    {
      "type": "Feature",
      "geometry": {
        "type": "Point",
        "coordinates": [16.341417, 48.236893]
      },
      "properties": {
         "id": "pmb92168",
         "title": "Blaasstraße",
         "lat": "48.236893",
         "lon": "16.341417",
         "timestamp": ["1929-07-21"],
         "importance": "1"
      }
      }, 
    {
      "type": "Feature",
      "geometry": {
        "type": "Point",
        "coordinates": [16.33828, 48.23661]
      },
      "properties": {
         "id": "pmb236869",
         "title": "Linnépark",
         "lat": "48.23661",
         "lon": "16.33828",
         "timestamp": ["1929-08-01"],
         "importance": "1"
      }
      }, 
    {
      "type": "Feature",
      "geometry": {
        "type": "Point",
        "coordinates": [16.33873, 48.20413]
      },
      "properties": {
         "id": "pmb190439",
         "title": "Admiralkino",
         "lat": "48.20413",
         "lon": "16.33873",
         "timestamp": ["1929-08-02"],
         "importance": "1"
      }
      }, 
    {
      "type": "Feature",
      "geometry": {
        "type": "Point",
        "coordinates": [16.37561, 48.187691]
      },
      "properties": {
         "id": "pmb236878",
         "title": "Südbahngarage",
         "lat": "48.187691",
         "lon": "16.37561",
         "timestamp": ["1929-08-06"],
         "importance": "1"
      }
      }, 
    {
      "type": "Feature",
      "geometry": {
        "type": "Point",
        "coordinates": [16.31883, 48.1841]
      },
      "properties": {
         "id": "pmb236882",
         "title": "Schönbrunner Stöckl",
         "lat": "48.1841",
         "lon": "16.31883",
         "timestamp": ["1929-08-07"],
         "importance": "1"
      }
      }, 
    {
      "type": "Feature",
      "geometry": {
        "type": "Point",
        "coordinates": [6.63025, 46.50796]
      },
      "properties": {
         "id": "pmb43984",
         "title": "Beau-Rivage Palace",
         "lat": "46.50796",
         "lon": "6.63025",
         "timestamp": ["1929-08-21", "1929-08-22"],
         "importance": "2"
      }
      }, 
    {
      "type": "Feature",
      "geometry": {
        "type": "Point",
        "coordinates": [6.83058, 46.48244]
      },
      "properties": {
         "id": "pmb91808",
         "title": "Mont-Pelerin",
         "lat": "46.48244",
         "lon": "6.83058",
         "timestamp": ["1929-08-22"],
         "importance": "1"
      }
      }, 
    {
      "type": "Feature",
      "geometry": {
        "type": "Point",
        "coordinates": [6.89615, 46.46778]
      },
      "properties": {
         "id": "pmb90364",
         "title": "Blonay",
         "lat": "46.46778",
         "lon": "6.89615",
         "timestamp": ["1929-08-22"],
         "importance": "1"
      }
      }, 
    {
      "type": "Feature",
      "geometry": {
        "type": "Point",
        "coordinates": [6.93855, 46.43241]
      },
      "properties": {
         "id": "pmb90460",
         "title": "Caux",
         "lat": "46.43241",
         "lon": "6.93855",
         "timestamp": ["1929-08-22", "1929-08-23", "1929-08-24", "1929-08-25", "1929-08-26", "1929-08-27", "1929-08-28", "1929-08-29", "1929-08-30", "1929-08-31", "1929-09-01", "1929-09-02"],
         "importance": "12"
      }
      }, 
    {
      "type": "Feature",
      "geometry": {
        "type": "Point",
        "coordinates": [6.940279, 46.43239]
      },
      "properties": {
         "id": "pmb147147",
         "title": "Grand Hotel Excelsior Regina",
         "lat": "46.43239",
         "lon": "6.940279",
         "timestamp": ["1929-08-22", "1929-08-23", "1929-08-24", "1929-08-25", "1929-08-26", "1929-08-27", "1929-08-28", "1929-08-29", "1929-08-30", "1929-08-31", "1929-09-01", "1929-09-02"],
         "importance": "12"
      }
      }, 
    {
      "type": "Feature",
      "geometry": {
        "type": "Point",
        "coordinates": [6.94416667, 46.45361111]
      },
      "properties": {
         "id": "pmb236919",
         "title": "Les Avants",
         "lat": "46.45361111",
         "lon": "6.94416667",
         "timestamp": ["1929-08-22"],
         "importance": "1"
      }
      }, 
    {
      "type": "Feature",
      "geometry": {
        "type": "Point",
        "coordinates": [6.9237, 46.4256]
      },
      "properties": {
         "id": "pmb53208",
         "title": "Hôtel des Alpes-Grand Hôtel",
         "lat": "46.4256",
         "lon": "6.9237",
         "timestamp": ["1929-08-22", "1929-08-27", "1929-09-02", "1929-09-03", "1929-09-04", "1929-09-05", "1929-09-06", "1929-09-07", "1929-09-08", "1929-09-09", "1929-09-10"],
         "importance": "11"
      }
      }, 
    {
      "type": "Feature",
      "geometry": {
        "type": "Point",
        "coordinates": [6.96182, 46.43144]
      },
      "properties": {
         "id": "pmb91141",
         "title": "Liboson d'en Haut",
         "lat": "46.43144",
         "lon": "6.96182",
         "timestamp": ["1929-08-24"],
         "importance": "1"
      }
      }, 
    {
      "type": "Feature",
      "geometry": {
        "type": "Point",
        "coordinates": [6.94858, 46.41535]
      },
      "properties": {
         "id": "pmb91774",
         "title": "Sonchaux",
         "lat": "46.41535",
         "lon": "6.94858",
         "timestamp": ["1929-08-30"],
         "importance": "1"
      }
      }, 
    {
      "type": "Feature",
      "geometry": {
        "type": "Point",
        "coordinates": [6.11063, 46.25858]
      },
      "properties": {
         "id": "pmb90623",
         "title": "Ferney-Voltaire",
         "lat": "46.25858",
         "lon": "6.11063",
         "timestamp": ["1929-09-04"],
         "importance": "1"
      }
      }, 
    {
      "type": "Feature",
      "geometry": {
        "type": "Point",
        "coordinates": [6.58793, 46.40111]
      },
      "properties": {
         "id": "pmb90607",
         "title": "Évian-les-Bains",
         "lat": "46.40111",
         "lon": "6.58793",
         "timestamp": ["1929-09-04"],
         "importance": "1"
      }
      }, 
    {
      "type": "Feature",
      "geometry": {
        "type": "Point",
        "coordinates": [6.5893333333333, 46.401333333333]
      },
      "properties": {
         "id": "pmb236935",
         "title": "Casino d’Évian",
         "lat": "46.401333333333",
         "lon": "6.5893333333333",
         "timestamp": ["1929-09-04"],
         "importance": "1"
      }
      }, 
    {
      "type": "Feature",
      "geometry": {
        "type": "Point",
        "coordinates": [6.92381, 46.42364]
      },
      "properties": {
         "id": "pmb236942",
         "title": "Quai Ami Chessex",
         "lat": "46.42364",
         "lon": "6.92381",
         "timestamp": ["1929-09-06", "1929-09-07", "1929-09-08", "1929-09-09"],
         "importance": "4"
      }
      }, 
    {
      "type": "Feature",
      "geometry": {
        "type": "Point",
        "coordinates": [6.931342, 46.426557]
      },
      "properties": {
         "id": "pmb92579",
         "title": "Valmont",
         "lat": "46.426557",
         "lon": "6.931342",
         "timestamp": ["1929-09-07"],
         "importance": "1"
      }
      }, 
    {
      "type": "Feature",
      "geometry": {
        "type": "Point",
        "coordinates": [6.930913, 46.426343]
      },
      "properties": {
         "id": "pmb236947",
         "title": "Clinique Valmont",
         "lat": "46.426343",
         "lon": "6.930913",
         "timestamp": ["1929-09-07"],
         "importance": "1"
      }
      }, 
    {
      "type": "Feature",
      "geometry": {
        "type": "Point",
        "coordinates": [6.91355, 46.43412]
      },
      "properties": {
         "id": "pmb236951",
         "title": "Musée historique de Montreux et de sa région",
         "lat": "46.43412",
         "lon": "6.91355",
         "timestamp": ["1929-09-08"],
         "importance": "1"
      }
      }, 
    {
      "type": "Feature",
      "geometry": {
        "type": "Point",
        "coordinates": [8.539279, 47.376453]
      },
      "properties": {
         "id": "pmb236955",
         "title": "Hotel St. Gotthard Zürich",
         "lat": "47.376453",
         "lon": "8.539279",
         "timestamp": ["1929-09-10"],
         "importance": "1"
      }
      }, 
    {
      "type": "Feature",
      "geometry": {
        "type": "Point",
        "coordinates": [8.539419507180423, 47.37693897280628]
      },
      "properties": {
         "id": "pmb236958",
         "title": "Schweizerhof Zürich",
         "lat": "47.37693897280628",
         "lon": "8.539419507180423",
         "timestamp": ["1929-09-10", "1929-09-11"],
         "importance": "2"
      }
      }, 
    {
      "type": "Feature",
      "geometry": {
        "type": "Point",
        "coordinates": [12.70919, 49.97665]
      },
      "properties": {
         "id": "pmb236965",
         "title": "Grand Hotel Marienbad",
         "lat": "49.97665",
         "lon": "12.70919",
         "timestamp": ["1929-09-12", "1929-09-13", "1929-09-14", "1929-09-15", "1929-09-16", "1929-09-17", "1929-09-18", "1929-09-19", "1929-09-20", "1929-09-21"],
         "importance": "10"
      }
      }, 
    {
      "type": "Feature",
      "geometry": {
        "type": "Point",
        "coordinates": [12.37392, 50.07963]
      },
      "properties": {
         "id": "pmb90565",
         "title": "Cheb",
         "lat": "50.07963",
         "lon": "12.37392",
         "timestamp": ["1929-09-13"],
         "importance": "1"
      }
      }, 
    {
      "type": "Feature",
      "geometry": {
        "type": "Point",
        "coordinates": [12.35738, 50.1184]
      },
      "properties": {
         "id": "pmb236968",
         "title": "Königsvilla",
         "lat": "50.1184",
         "lon": "12.35738",
         "timestamp": ["1929-09-13", "1929-09-17", "1929-09-21", "1929-09-22", "1929-09-23"],
         "importance": "5"
      }
      }, 
    {
      "type": "Feature",
      "geometry": {
        "type": "Point",
        "coordinates": [12.7055, 49.98198]
      },
      "properties": {
         "id": "pmb236974",
         "title": "Kurpark Marienbad",
         "lat": "49.98198",
         "lon": "12.7055",
         "timestamp": ["1929-09-14", "1929-09-15", "1929-09-16"],
         "importance": "3"
      }
      }, 
    {
      "type": "Feature",
      "geometry": {
        "type": "Point",
        "coordinates": [12.70685, 49.97747]
      },
      "properties": {
         "id": "pmb236985",
         "title": "Hauptkolonnade (Maxim Gorki Kolonnade)",
         "lat": "49.97747",
         "lon": "12.70685",
         "timestamp": ["1929-09-14"],
         "importance": "1"
      }
      }, 
    {
      "type": "Feature",
      "geometry": {
        "type": "Point",
        "coordinates": [12.72063, 49.9723]
      },
      "properties": {
         "id": "pmb147708",
         "title": "Hotel Rübezahl",
         "lat": "49.9723",
         "lon": "12.72063",
         "timestamp": ["1929-09-15"],
         "importance": "1"
      }
      }, 
    {
      "type": "Feature",
      "geometry": {
        "type": "Point",
        "coordinates": [12.699441, 49.96848]
      },
      "properties": {
         "id": "pmb147710",
         "title": "Café Egerländer",
         "lat": "49.96848",
         "lon": "12.699441",
         "timestamp": ["1929-09-16"],
         "importance": "1"
      }
      }, 
    {
      "type": "Feature",
      "geometry": {
        "type": "Point",
        "coordinates": [16.37012, 48.2166]
      },
      "properties": {
         "id": "pmb237018",
         "title": "Kanzlei Dr. Hoffmann",
         "lat": "48.2166",
         "lon": "16.37012",
         "timestamp": ["1929-09-24"],
         "importance": "1"
      }
      }, 
    {
      "type": "Feature",
      "geometry": {
        "type": "Point",
        "coordinates": [16.374012, 48.183658]
      },
      "properties": {
         "id": "pmb237033",
         "title": "Favoritenstraße 6",
         "lat": "48.183658",
         "lon": "16.374012",
         "timestamp": ["1929-10-03", "1929-10-08", "1929-10-26"],
         "importance": "3"
      }
      }, 
    {
      "type": "Feature",
      "geometry": {
        "type": "Point",
        "coordinates": [16.37219956928243, 48.18986176078119]
      },
      "properties": {
         "id": "pmb52958",
         "title": "Favoritenstraße",
         "lat": "48.18986176078119",
         "lon": "16.37219956928243",
         "timestamp": ["1929-10-08"],
         "importance": "1"
      }
      }, 
    {
      "type": "Feature",
      "geometry": {
        "type": "Point",
        "coordinates": [16.354819, 48.208344]
      },
      "properties": {
         "id": "pmb237056",
         "title": "Sanatorium Luithlen",
         "lat": "48.208344",
         "lon": "16.354819",
         "timestamp": ["1929-10-15", "1929-10-20"],
         "importance": "2"
      }
      }, 
    {
      "type": "Feature",
      "geometry": {
        "type": "Point",
        "coordinates": [16.30179, 48.24586]
      },
      "properties": {
         "id": "pmb237102",
         "title": "Dr.-Heinrich-Maier-Straße 50",
         "lat": "48.24586",
         "lon": "16.30179",
         "timestamp": ["1929-10-28"],
         "importance": "1"
      }
      }, 
    {
      "type": "Feature",
      "geometry": {
        "type": "Point",
        "coordinates": [16.334841, 48.221593]
      },
      "properties": {
         "id": "pmb190490",
         "title": "Apollo-Kino",
         "lat": "48.221593",
         "lon": "16.334841",
         "timestamp": ["1929-11-05"],
         "importance": "1"
      }
      }, 
    {
      "type": "Feature",
      "geometry": {
        "type": "Point",
        "coordinates": [16.366067, 48.212025]
      },
      "properties": {
         "id": "pmb185517",
         "title": "Café-Restaurant Freyung",
         "lat": "48.212025",
         "lon": "16.366067",
         "timestamp": ["1929-11-13"],
         "importance": "1"
      }
      }, 
    {
      "type": "Feature",
      "geometry": {
        "type": "Point",
        "coordinates": [16.38906, 48.20421]
      },
      "properties": {
         "id": "pmb190613",
         "title": "Rochuskino",
         "lat": "48.20421",
         "lon": "16.38906",
         "timestamp": ["1929-11-18"],
         "importance": "1"
      }
      }, 
    {
      "type": "Feature",
      "geometry": {
        "type": "Point",
        "coordinates": [16.353836, 48.222832]
      },