{
  "type": "FeatureCollection",
  "features": [
    {
      "type": "Feature",
      "geometry": {
        "type": "Point",
        "coordinates": [16.373056, 48.208333]
      },
      "properties": {
         "id": "pmb50",
         "title": "Wien",
         "lat": "48.208333",
         "lon": "16.373056",
         "timestamp": ["1929-12-01", "1929-12-02", "1929-12-03", "1929-12-04", "1929-12-05", "1929-12-06", "1929-12-07", "1929-12-08", "1929-12-09", "1929-12-10", "1929-12-11", "1929-12-12", "1929-12-13", "1929-12-14", "1929-12-15", "1929-12-16", "1929-12-17", "1929-12-18", "1929-12-19", "1929-12-20", "1929-12-21", "1929-12-22", "1929-12-23", "1929-12-24", "1929-12-25", "1929-12-26", "1929-12-27"],
         "importance": "27"
      }
      }, 
    {
      "type": "Feature",
      "geometry": {
        "type": "Point",
        "coordinates": [16.351111, 48.209583]
      },
      "properties": {
         "id": "pmb40",
         "title": "Theater in der Josefstadt",
         "lat": "48.209583",
         "lon": "16.351111",
         "timestamp": ["1929-12-11"],
         "importance": "1"
      }
      }, 
    {
      "type": "Feature",
      "geometry": {
        "type": "Point",
        "coordinates": [16.361139, 48.210333]
      },
      "properties": {
         "id": "pmb14",
         "title": "Burgtheater",
         "lat": "48.210333",
         "lon": "16.361139",
         "timestamp": ["1929-12-02"],
         "importance": "1"
      }
      }, 
    {
      "type": "Feature",
      "geometry": {
        "type": "Point",
        "coordinates": [16.372194, 48.202111]
      },
      "properties": {
         "id": "pmb255",
         "title": "Grand Hotel Wien",
         "lat": "48.202111",
         "lon": "16.372194",
         "timestamp": ["1929-12-20"],
         "importance": "1"
      }
      }, 
    {
      "type": "Feature",
      "geometry": {
        "type": "Point",
        "coordinates": [13.41053, 52.52437]
      },
      "properties": {
         "id": "pmb168",
         "title": "Berlin",
         "lat": "52.52437",
         "lon": "13.41053",
         "timestamp": ["1929-12-28", "1929-12-29", "1929-12-30", "1929-12-31"],
         "importance": "4"
      }
      }, 
    {
      "type": "Feature",
      "geometry": {
        "type": "Point",
        "coordinates": [16.3747466, 48.2104057]
      },
      "properties": {
         "id": "pmb705",
         "title": "Zur Linde",
         "lat": "48.2104057",
         "lon": "16.3747466",
         "timestamp": ["1929-12-05"],
         "importance": "1"
      }
      }, 
    {
      "type": "Feature",
      "geometry": {
        "type": "Point",
        "coordinates": [16.36714, 48.19198]
      },
      "properties": {
         "id": "pmb54",
         "title": "IV., Wieden",
         "lat": "48.19198",
         "lon": "16.36714",
         "timestamp": ["1929-12-18"],
         "importance": "1"
      }
      }, 
    {
      "type": "Feature",
      "geometry": {
        "type": "Point",
        "coordinates": [16.3566, 48.205142]
      },
      "properties": {
         "id": "pmb20",
         "title": "Volkstheater",
         "lat": "48.205142",
         "lon": "16.3566",
         "timestamp": ["1929-12-03", "1929-12-04", "1929-12-07", "1929-12-09", "1929-12-10", "1929-12-11", "1929-12-12", "1929-12-14", "1929-12-16", "1929-12-17", "1929-12-18", "1929-12-19", "1929-12-20", "1929-12-21"],
         "importance": "14"
      }
      }, 
    {
      "type": "Feature",
      "geometry": {
        "type": "Point",
        "coordinates": [16.36471, 48.200556]
      },
      "properties": {
         "id": "pmb97",
         "title": "Zum Weingartl",
         "lat": "48.200556",
         "lon": "16.36471",
         "timestamp": ["1929-12-13"],
         "importance": "1"
      }
      }, 
    {
      "type": "Feature",
      "geometry": {
        "type": "Point",
        "coordinates": [16.34706, 48.21126]
      },
      "properties": {
         "id": "pmb58",
         "title": "VIII., Josefstadt",
         "lat": "48.21126",
         "lon": "16.34706",
         "timestamp": ["1929-12-11"],
         "importance": "1"
      }
      }, 
    {
      "type": "Feature",
      "geometry": {
        "type": "Point",
        "coordinates": [16.339722, 48.192222]
      },
      "properties": {
         "id": "pmb77",
         "title": "Raimund-Theater",
         "lat": "48.192222",
         "lon": "16.339722",
         "timestamp": ["1929-12-13"],
         "importance": "1"
      }
      }, 
    {
      "type": "Feature",
      "geometry": {
        "type": "Point",
        "coordinates": [13.38832, 52.51699]
      },
      "properties": {
         "id": "pmb216",
         "title": "Unter den Linden",
         "lat": "52.51699",
         "lon": "13.38832",
         "timestamp": ["1929-12-30"],
         "importance": "1"
      }
      }, 
    {
      "type": "Feature",
      "geometry": {
        "type": "Point",
        "coordinates": [16.338015, 48.234046]
      },
      "properties": {
         "id": "pmb185644",
         "title": "Peregringasse 4",
         "lat": "48.234046",
         "lon": "16.338015",
         "timestamp": ["1929-12-25"],
         "importance": "1"
      }
      }, 
    {
      "type": "Feature",
      "geometry": {
        "type": "Point",
        "coordinates": [16.328822485916, 48.231291362993]
      },
      "properties": {
         "id": "pmb291",
         "title": "Gersthof",
         "lat": "48.231291362993",
         "lon": "16.328822485916",
         "timestamp": ["1929-12-08"],
         "importance": "1"
      }
      }, 
    {
      "type": "Feature",
      "geometry": {
        "type": "Point",
        "coordinates": [16.33494, 48.23365]
      },
      "properties": {
         "id": "pmb235251",
         "title": "Hasenauerstraße 59",
         "lat": "48.23365",
         "lon": "16.33494",
         "timestamp": ["1929-12-01", "1929-12-26"],
         "importance": "2"
      }
      }, 
    {
      "type": "Feature",
      "geometry": {
        "type": "Point",
        "coordinates": [16.35689, 48.21787]
      },
      "properties": {
         "id": "pmb232768",
         "title": "Beethovengasse 6",
         "lat": "48.21787",
         "lon": "16.35689",
         "timestamp": ["1929-12-07", "1929-12-22"],
         "importance": "2"
      }
      }, 
    {
      "type": "Feature",
      "geometry": {
        "type": "Point",
        "coordinates": [16.33716, 48.23188]
      },
      "properties": {
         "id": "pmb168815",
         "title": "Sternwartestraße 71",
         "lat": "48.23188",
         "lon": "16.33716",
         "timestamp": ["1929-12-01", "1929-12-02", "1929-12-03", "1929-12-04", "1929-12-05", "1929-12-06", "1929-12-07", "1929-12-08", "1929-12-09", "1929-12-10", "1929-12-11", "1929-12-12", "1929-12-13", "1929-12-14", "1929-12-15", "1929-12-16", "1929-12-17", "1929-12-18", "1929-12-19", "1929-12-20", "1929-12-21", "1929-12-22", "1929-12-23", "1929-12-24", "1929-12-25", "1929-12-26", "1929-12-27"],
         "importance": "27"
      }
      }, 
    {
      "type": "Feature",
      "geometry": {
        "type": "Point",
        "coordinates": [16.35137, 48.21346]
      },
      "properties": {
         "id": "pmb232800",
         "title": "Laudongasse 12",
         "lat": "48.21346",
         "lon": "16.35137",
         "timestamp": ["1929-12-06", "1929-12-13", "1929-12-24"],
         "importance": "3"
      }
      }, 
    {
      "type": "Feature",
      "geometry": {
        "type": "Point",
        "coordinates": [16.351435, 48.209524]
      },
      "properties": {
         "id": "pmb185511",
         "title": "Restaurant zum weißen Hahn",
         "lat": "48.209524",
         "lon": "16.351435",
         "timestamp": ["1929-12-07", "1929-12-11"],
         "importance": "2"
      }
      }, 
    {
      "type": "Feature",
      "geometry": {
        "type": "Point",
        "coordinates": [13.374444, 52.51]
      },
      "properties": {
         "id": "pmb245",
         "title": "Hotel Esplanade [Berlin]",
         "lat": "52.51",
         "lon": "13.374444",
         "timestamp": ["1929-12-28", "1929-12-29", "1929-12-30", "1929-12-31"],
         "importance": "4"
      }
      }, 
    {
      "type": "Feature",
      "geometry": {
        "type": "Point",
        "coordinates": [13.36821, 52.50982]
      },
      "properties": {
         "id": "pmb233325",
         "title": "Herbert-von-Karajan-Straße 15",
         "lat": "52.50982",
         "lon": "13.36821",
         "timestamp": ["1929-12-28", "1929-12-29", "1929-12-30", "1929-12-31"],
         "importance": "4"
      }
      }, 
    {
      "type": "Feature",
      "geometry": {
        "type": "Point",
        "coordinates": [13.364497, 52.497646]
      },
      "properties": {
         "id": "pmb237733",
         "title": "Bülowstraße 78",
         "lat": "52.497646",
         "lon": "13.364497",
         "timestamp": ["1929-12-29", "1929-12-31"],
         "importance": "2"
      }
      }, 
    {
      "type": "Feature",
      "geometry": {
        "type": "Point",
        "coordinates": [16.338016, 48.234091]
      },
      "properties": {
         "id": "pmb236372",
         "title": "Gregor-Mendel-Straße 34",
         "lat": "48.234091",
         "lon": "16.338016",
         "timestamp": ["1929-12-10", "1929-12-14", "1929-12-16", "1929-12-17", "1929-12-21", "1929-12-25", "1929-12-26"],
         "importance": "7"
      }
      }, 
    {
      "type": "Feature",
      "geometry": {
        "type": "Point",
        "coordinates": [16.309305, 48.253492]
      },
      "properties": {
         "id": "pmb237889",
         "title": "Agnesgasse 30",
         "lat": "48.253492",
         "lon": "16.309305",
         "timestamp": ["1929-12-24"],
         "importance": "1"
      }
      }, 
    {
      "type": "Feature",
      "geometry": {
        "type": "Point",
        "coordinates": [13.39333, 52.51483]
      },
      "properties": {
         "id": "pmb493",
         "title": "Bank für Auswärtigen Handel",
         "lat": "52.51483",
         "lon": "13.39333",
         "timestamp": ["1929-12-30"],
         "importance": "1"
      }
      }, 
    {
      "type": "Feature",
      "geometry": {
        "type": "Point",
        "coordinates": [13.41212, 52.58777]
      },
      "properties": {
         "id": "pmb144055",
         "title": "Lanzsch & Co.",
         "lat": "52.58777",
         "lon": "13.41212",
         "timestamp": ["1929-12-30"],
         "importance": "1"
      }
      }, 
    {
      "type": "Feature",
      "geometry": {
        "type": "Point",
        "coordinates": [16.388115, 48.21638]
      },
      "properties": {
         "id": "pmb185527",
         "title": "Gastwirtschaft E. Hauswirth",
         "lat": "48.21638",
         "lon": "16.388115",
         "timestamp": ["1929-12-03"],
         "importance": "1"
      }
      }, 
    {
      "type": "Feature",
      "geometry": {
        "type": "Point",
        "coordinates": [16.299518, 48.182697]
      },
      "properties": {
         "id": "pmb237170",
         "title": "Maxingstraße 20",
         "lat": "48.182697",
         "lon": "16.299518",
         "timestamp": ["1929-12-03"],
         "importance": "1"
      }
      }, 
    {
      "type": "Feature",
      "geometry": {
        "type": "Point",
        "coordinates": [16.350607, 48.206352]
      },
      "properties": {
         "id": "pmb190698",
         "title": "Phönixkino",
         "lat": "48.206352",
         "lon": "16.350607",
         "timestamp": ["1929-12-07"],
         "importance": "1"
      }
      }, 
    {
      "type": "Feature",
      "geometry": {
        "type": "Point",
        "coordinates": [16.367846, 48.199497]
      },
      "properties": {
         "id": "pmb237696",
         "title": "KAB Kärntnerthor-Automatenbuffet",
         "lat": "48.199497",
         "lon": "16.367846",
         "timestamp": ["1929-12-18", "1929-12-19"],
         "importance": "2"
      }
      }, 
    {
      "type": "Feature",
      "geometry": {
        "type": "Point",
        "coordinates": [16.353657, 48.20208]
      },
      "properties": {
         "id": "pmb237711",
         "title": "Restaurant Schöner",
         "lat": "48.20208",
         "lon": "16.353657",
         "timestamp": ["1929-12-20"],
         "importance": "1"
      }
      }, 
    {
      "type": "Feature",
      "geometry": {
        "type": "Point",
        "coordinates": [16.371206, 48.209753]
      },
      "properties": {
         "id": "pmb237721",
         "title": "Buch- und Kunsthandlung Hugo Heller & Cie.",
         "lat": "48.209753",
         "lon": "16.371206",
         "timestamp": ["1929-12-24"],
         "importance": "1"
      }
      }
  ]
}