{
  "type": "FeatureCollection",
  "features": [
    {
      "type": "Feature", 
      "geometry": {
        "type": "LineString", 
        "coordinates": [
            [16.12209, 48.2794], 
            [16.23333, 48.26667], 
            [16.33716, 48.23188], 
            [16.320833, 48.252222], 
            [16.27616, 48.30997], 
            [16.209444, 48.327778], 
            [16.14492, 48.30198]
          ]
      },
      "properties": {
        "name": "4. August 1929"
      }
    },
    {
      "type": "Feature",
      "geometry": {
        "type": "Point",
        "coordinates": [
          16.33716, 48.23188
        ]
      },
      "properties": {
        "title": "Sternwartestraße 71",
        "timestamp": ["1929-08-04"],
        "pmb": "https://pmb.acdh.oeaw.ac.at/entity//"
      }
      },
    {
      "type": "Feature",
      "geometry": {
        "type": "Point",
        "coordinates": [
          16.320833, 48.252222
        ]
      },
      "properties": {
        "title": "Sievering",
        "timestamp": ["1929-08-04"],
        "pmb": "https://pmb.acdh.oeaw.ac.at/entity//", 
        "wikipedia": "https://de.wikipedia.org/wiki/Sievering"
      }
      },
    {
      "type": "Feature",
      "geometry": {
        "type": "Point",
        "coordinates": [
          16.209444, 48.327778
        ]
      },
      "properties": {
        "title": "St. Andrä-Wördern",
        "timestamp": ["1929-08-04"],
        "pmb": "https://pmb.acdh.oeaw.ac.at/entity//", 
        "wikipedia": "https://de.wikipedia.org/wiki/St._Andr%C3%A4-W%C3%B6rdern"
      }
      },
    {
      "type": "Feature",
      "geometry": {
        "type": "Point",
        "coordinates": [
          16.12209, 48.2794
        ]
      },
      "properties": {
        "title": "Tulbing",
        "timestamp": ["1929-08-04"],
        "pmb": "https://pmb.acdh.oeaw.ac.at/entity//"
      }
      },
    {
      "type": "Feature",
      "geometry": {
        "type": "Point",
        "coordinates": [
          16.14492, 48.30198
        ]
      },
      "properties": {
        "title": "Königstetten",
        "timestamp": ["1929-08-04"],
        "pmb": "https://pmb.acdh.oeaw.ac.at/entity//", 
        "wikipedia": "https://de.wikipedia.org/wiki/K%C3%B6nigstetten"
      }
      },
    {
      "type": "Feature",
      "geometry": {
        "type": "Point",
        "coordinates": [
          16.27616, 48.30997
        ]
      },
      "properties": {
        "title": "Kierling",
        "timestamp": ["1929-08-04"],
        "pmb": "https://pmb.acdh.oeaw.ac.at/entity//", 
        "wikipedia": "https://de.wikipedia.org/wiki/Kierling"
      }
      },
    {
      "type": "Feature",
      "geometry": {
        "type": "Point",
        "coordinates": [
          16.23333, 48.26667
        ]
      },
      "properties": {
        "title": "Steinriegl",
        "timestamp": ["1929-08-04"],
        "pmb": "https://pmb.acdh.oeaw.ac.at/entity//"
      }
      }
  ]
}