{
  "type": "FeatureCollection",
  "features": [
    {
      "type": "Feature", 
      "geometry": {
        "type": "LineString", 
        "coordinates": [
            [16.3576, 48.21071], 
            [16.367725, 48.212284], 
            [16.34167, 48.233004], 
            [16.337998, 48.235859], 
            [16.338016, 48.234091], 
            [16.33716, 48.23188]
          ]
      },
      "properties": {
        "name": "30. November 1929"
      }
    },
    {
      "type": "Feature",
      "geometry": {
        "type": "Point",
        "coordinates": [
          16.3576, 48.21071
        ]
      },
      "properties": {
        "title": "Rathaus",
        "timestamp": ["1929-11-30"],
        "pmb": "https://pmb.acdh.oeaw.ac.at/entity//", 
        "wikipedia": "https://de.wikipedia.org/wiki/Wiener_Rathaus"
      }
      },
    {
      "type": "Feature",
      "geometry": {
        "type": "Point",
        "coordinates": [
          16.34167, 48.233004
        ]
      },
      "properties": {
        "title": "Cottagegasse 37",
        "timestamp": ["1929-11-30"],
        "pmb": "https://pmb.acdh.oeaw.ac.at/entity//"
      }
      },
    {
      "type": "Feature",
      "geometry": {
        "type": "Point",
        "coordinates": [
          16.33716, 48.23188
        ]
      },
      "properties": {
        "title": "Sternwartestraße 71",
        "timestamp": ["1929-11-30"],
        "pmb": "https://pmb.acdh.oeaw.ac.at/entity//"
      }
      },
    {
      "type": "Feature",
      "geometry": {
        "type": "Point",
        "coordinates": [
          16.367725, 48.212284
        ]
      },
      "properties": {
        "title": "Tiefer Graben 17",
        "timestamp": ["1929-11-30"],
        "pmb": "https://pmb.acdh.oeaw.ac.at/entity//"
      }
      },
    {
      "type": "Feature",
      "geometry": {
        "type": "Point",
        "coordinates": [
          16.338016, 48.234091
        ]
      },
      "properties": {
        "title": "Gregor-Mendel-Straße 34",
        "timestamp": ["1929-11-30"],
        "pmb": "https://pmb.acdh.oeaw.ac.at/entity//"
      }
      },
    {
      "type": "Feature",
      "geometry": {
        "type": "Point",
        "coordinates": [
          16.337998, 48.235859
        ]
      },
      "properties": {
        "title": "Gregor-Mendel-Straße 50",
        "timestamp": ["1929-11-30"],
        "pmb": "https://pmb.acdh.oeaw.ac.at/entity//"
      }
      }
  ]
}