{
  "type": "FeatureCollection",
  "features": [
    {
      "type": "Feature",
      "geometry": {
        "type": "Point",
        "coordinates": [16.373056, 48.208333]
      },
      "properties": {
         "id": "pmb50",
         "title": "Wien",
         "lat": "48.208333",
         "lon": "16.373056",
         "timestamp": ["1929-04-01", "1929-04-02", "1929-04-03", "1929-04-04", "1929-04-05", "1929-04-06", "1929-04-07", "1929-04-08", "1929-04-09", "1929-04-10", "1929-04-11", "1929-04-12", "1929-04-13", "1929-04-14", "1929-04-15", "1929-04-16", "1929-04-17", "1929-04-18", "1929-04-19", "1929-04-20", "1929-04-21", "1929-04-22", "1929-04-23", "1929-04-24", "1929-04-25", "1929-04-26", "1929-04-27", "1929-04-28", "1929-04-29", "1929-04-30"],
         "importance": "30"
      }
      }, 
    {
      "type": "Feature",
      "geometry": {
        "type": "Point",
        "coordinates": [16.372564182283, 48.201265597319]
      },
      "properties": {
         "id": "pmb516",
         "title": "Musikverein",
         "lat": "48.201265597319",
         "lon": "16.372564182283",
         "timestamp": ["1929-04-09"],
         "importance": "1"
      }
      }, 
    {
      "type": "Feature",
      "geometry": {
        "type": "Point",
        "coordinates": [16.351111, 48.209583]
      },
      "properties": {
         "id": "pmb40",
         "title": "Theater in der Josefstadt",
         "lat": "48.209583",
         "lon": "16.351111",
         "timestamp": ["1929-04-29"],
         "importance": "1"
      }
      }, 
    {
      "type": "Feature",
      "geometry": {
        "type": "Point",
        "coordinates": [16.384444, 48.215]
      },
      "properties": {
         "id": "pmb118",
         "title": "Carl-Theater",
         "lat": "48.215",
         "lon": "16.384444",
         "timestamp": ["1929-04-02"],
         "importance": "1"
      }
      }, 
    {
      "type": "Feature",
      "geometry": {
        "type": "Point",
        "coordinates": [16.379608025302, 48.204824018066]
      },
      "properties": {
         "id": "pmb575",
         "title": "Stadtpark",
         "lat": "48.204824018066",
         "lon": "16.379608025302",
         "timestamp": ["1929-04-19"],
         "importance": "1"
      }
      }, 
    {
      "type": "Feature",
      "geometry": {
        "type": "Point",
        "coordinates": [16.361139, 48.210333]
      },
      "properties": {
         "id": "pmb14",
         "title": "Burgtheater",
         "lat": "48.210333",
         "lon": "16.361139",
         "timestamp": ["1929-04-26"],
         "importance": "1"
      }
      }, 
    {
      "type": "Feature",
      "geometry": {
        "type": "Point",
        "coordinates": [16.33306, 48.25]
      },
      "properties": {
         "id": "pmb69",
         "title": "XIX., Döbling",
         "lat": "48.25",
         "lon": "16.33306",
         "timestamp": ["1929-04-28"],
         "importance": "1"
      }
      }, 
    {
      "type": "Feature",
      "geometry": {
        "type": "Point",
        "coordinates": [16.25, 48.26667]
      },
      "properties": {
         "id": "pmb473",
         "title": "Weidlingbach",
         "lat": "48.26667",
         "lon": "16.25",
         "timestamp": ["1929-04-28"],
         "importance": "1"
      }
      }, 
    {
      "type": "Feature",
      "geometry": {
        "type": "Point",
        "coordinates": [16.32522, 48.30521]
      },
      "properties": {
         "id": "pmb865",
         "title": "Klosterneuburg",
         "lat": "48.30521",
         "lon": "16.32522",
         "timestamp": ["1929-04-28"],
         "importance": "1"
      }
      }, 
    {
      "type": "Feature",
      "geometry": {
        "type": "Point",
        "coordinates": [16.355191, 48.248422]
      },
      "properties": {
         "id": "pmb92292",
         "title": "Hohe Warte",
         "lat": "48.248422",
         "lon": "16.355191",
         "timestamp": ["1929-04-18"],
         "importance": "1"
      }
      }, 
    {
      "type": "Feature",
      "geometry": {
        "type": "Point",
        "coordinates": [16.371667, 48.200556]
      },
      "properties": {
         "id": "pmb21",
         "title": "Künstlerhaus",
         "lat": "48.200556",
         "lon": "16.371667",
         "timestamp": ["1929-04-05"],
         "importance": "1"
      }
      }, 
    {
      "type": "Feature",
      "geometry": {
        "type": "Point",
        "coordinates": [16.3747466, 48.2104057]
      },
      "properties": {
         "id": "pmb705",
         "title": "Zur Linde",
         "lat": "48.2104057",
         "lon": "16.3747466",
         "timestamp": ["1929-04-02", "1929-04-05", "1929-04-08", "1929-04-10", "1929-04-12", "1929-04-13", "1929-04-20", "1929-04-22", "1929-04-24", "1929-04-25", "1929-04-26", "1929-04-29"],
         "importance": "12"
      }
      }, 
    {
      "type": "Feature",
      "geometry": {
        "type": "Point",
        "coordinates": [16.16265, 48.19512]
      },
      "properties": {
         "id": "pmb91552",
         "title": "Purkersdorf",
         "lat": "48.19512",
         "lon": "16.16265",
         "timestamp": ["1929-04-07"],
         "importance": "1"
      }
      }, 
    {
      "type": "Feature",
      "geometry": {
        "type": "Point",
        "coordinates": [16.341944, 48.233056]
      },
      "properties": {
         "id": "pmb533",
         "title": "Währinger Cottage",
         "lat": "48.233056",
         "lon": "16.341944",
         "timestamp": ["1929-04-21"],
         "importance": "1"
      }
      }, 
    {
      "type": "Feature",
      "geometry": {
        "type": "Point",
        "coordinates": [16.3566, 48.205142]
      },
      "properties": {
         "id": "pmb20",
         "title": "Volkstheater",
         "lat": "48.205142",
         "lon": "16.3566",
         "timestamp": ["1929-04-22"],
         "importance": "1"
      }
      }, 
    {
      "type": "Feature",
      "geometry": {
        "type": "Point",
        "coordinates": [16.34706, 48.21126]
      },
      "properties": {
         "id": "pmb58",
         "title": "VIII., Josefstadt",
         "lat": "48.21126",
         "lon": "16.34706",
         "timestamp": ["1929-04-02", "1929-04-29"],
         "importance": "2"
      }
      }, 
    {
      "type": "Feature",
      "geometry": {
        "type": "Point",
        "coordinates": [16.333568462613, 48.235119783861]
      },
      "properties": {
         "id": "pmb113",
         "title": "Türkenschanzpark",
         "lat": "48.235119783861",
         "lon": "16.333568462613",
         "timestamp": ["1929-04-01"],
         "importance": "1"
      }
      }, 
    {
      "type": "Feature",
      "geometry": {
        "type": "Point",
        "coordinates": [16.339722, 48.192222]
      },
      "properties": {
         "id": "pmb77",
         "title": "Raimund-Theater",
         "lat": "48.192222",
         "lon": "16.339722",
         "timestamp": ["1929-04-05"],
         "importance": "1"
      }
      }, 
    {
      "type": "Feature",
      "geometry": {
        "type": "Point",
        "coordinates": [16.23333, 48.26667]
      },
      "properties": {
         "id": "pmb289",
         "title": "Steinriegl",
         "lat": "48.26667",
         "lon": "16.23333",
         "timestamp": ["1929-04-28"],
         "importance": "1"
      }
      }, 
    {
      "type": "Feature",
      "geometry": {
        "type": "Point",
        "coordinates": [16.347492624475, 48.216264483348]
      },
      "properties": {
         "id": "pmb89",
         "title": "Sanatorium Loew",
         "lat": "48.216264483348",
         "lon": "16.347492624475",
         "timestamp": ["1929-04-26"],
         "importance": "1"
      }
      }, 
    {
      "type": "Feature",
      "geometry": {
        "type": "Point",
        "coordinates": [16.36973, 48.20164]
      },
      "properties": {
         "id": "pmb281",
         "title": "Franz Hartmann, Leidingers Nachfolger",
         "lat": "48.20164",
         "lon": "16.36973",
         "timestamp": ["1929-04-09"],
         "importance": "1"
      }
      }, 
    {
      "type": "Feature",
      "geometry": {
        "type": "Point",
        "coordinates": [16.38214, 48.21348]
      },
      "properties": {
         "id": "pmb50933",
         "title": "Praterstraße",
         "lat": "48.21348",
         "lon": "16.38214",
         "timestamp": ["1929-04-03"],
         "importance": "1"
      }
      }, 
    {
      "type": "Feature",
      "geometry": {
        "type": "Point",
        "coordinates": [16.33641, 48.23362]
      },
      "properties": {
         "id": "pmb235132",
         "title": "Türkenschanzstraße 48",
         "lat": "48.23362",
         "lon": "16.33641",
         "timestamp": ["1929-04-04"],
         "importance": "1"
      }
      }, 
    {
      "type": "Feature",
      "geometry": {
        "type": "Point",
        "coordinates": [16.35689, 48.21787]
      },
      "properties": {
         "id": "pmb232768",
         "title": "Beethovengasse 6",
         "lat": "48.21787",
         "lon": "16.35689",
         "timestamp": ["1929-04-09", "1929-04-23"],
         "importance": "2"
      }
      }, 
    {
      "type": "Feature",
      "geometry": {
        "type": "Point",
        "coordinates": [16.33716, 48.23188]
      },
      "properties": {
         "id": "pmb168815",
         "title": "Sternwartestraße 71",
         "lat": "48.23188",
         "lon": "16.33716",
         "timestamp": ["1929-04-01", "1929-04-02", "1929-04-03", "1929-04-04", "1929-04-05", "1929-04-06", "1929-04-07", "1929-04-08", "1929-04-09", "1929-04-10", "1929-04-11", "1929-04-12", "1929-04-13", "1929-04-14", "1929-04-15", "1929-04-16", "1929-04-17", "1929-04-18", "1929-04-19", "1929-04-20", "1929-04-21", "1929-04-22", "1929-04-23", "1929-04-24", "1929-04-25", "1929-04-26", "1929-04-27", "1929-04-28", "1929-04-29", "1929-04-30"],
         "importance": "30"
      }
      }, 
    {
      "type": "Feature",
      "geometry": {
        "type": "Point",
        "coordinates": [16.35137, 48.21346]
      },
      "properties": {
         "id": "pmb232800",
         "title": "Laudongasse 12",
         "lat": "48.21346",
         "lon": "16.35137",
         "timestamp": ["1929-04-12", "1929-04-19", "1929-04-30"],
         "importance": "3"
      }
      }, 
    {
      "type": "Feature",
      "geometry": {
        "type": "Point",
        "coordinates": [16.367725, 48.212284]
      },
      "properties": {
         "id": "pmb207301",
         "title": "Tiefer Graben 17",
         "lat": "48.212284",
         "lon": "16.367725",
         "timestamp": ["1929-04-23"],
         "importance": "1"
      }
      }, 
    {
      "type": "Feature",
      "geometry": {
        "type": "Point",
        "coordinates": [16.368443, 48.209585]
      },
      "properties": {
         "id": "pmb185484",
         "title": "Metrophon Konzertsalon und Musikhaus",
         "lat": "48.209585",
         "lon": "16.368443",
         "timestamp": ["1929-04-10"],
         "importance": "1"
      }
      }, 
    {
      "type": "Feature",
      "geometry": {
        "type": "Point",
        "coordinates": [16.337998, 48.235859]
      },
      "properties": {
         "id": "pmb232834",
         "title": "Gregor-Mendel-Straße 50",
         "lat": "48.235859",
         "lon": "16.337998",
         "timestamp": ["1929-04-19"],
         "importance": "1"
      }
      }, 
    {
      "type": "Feature",
      "geometry": {
        "type": "Point",
        "coordinates": [16.19733, 48.20444]
      },
      "properties": {
         "id": "pmb52452",
         "title": "Sanatorium Purkersdorf",
         "lat": "48.20444",
         "lon": "16.19733",
         "timestamp": ["1929-04-07"],
         "importance": "1"
      }
      }, 
    {
      "type": "Feature",
      "geometry": {
        "type": "Point",
        "coordinates": [16.338016, 48.234091]
      },
      "properties": {
         "id": "pmb236372",
         "title": "Gregor-Mendel-Straße 34",
         "lat": "48.234091",
         "lon": "16.338016",
         "timestamp": ["1929-04-01", "1929-04-03", "1929-04-04"],
         "importance": "3"
      }
      }, 
    {
      "type": "Feature",
      "geometry": {
        "type": "Point",
        "coordinates": [16.33286, 48.25644]
      },
      "properties": {
         "id": "pmb235184",
         "title": "Himmelstraße 55",
         "lat": "48.25644",
         "lon": "16.33286",
         "timestamp": ["1929-04-11"],
         "importance": "1"
      }
      }, 
    {
      "type": "Feature",
      "geometry": {
        "type": "Point",
        "coordinates": [16.309305, 48.253492]
      },
      "properties": {
         "id": "pmb237889",
         "title": "Agnesgasse 30",
         "lat": "48.253492",
         "lon": "16.309305",
         "timestamp": ["1929-04-26", "1929-04-30"],
         "importance": "2"
      }
      }, 
    {
      "type": "Feature",
      "geometry": {
        "type": "Point",
        "coordinates": [16.38599, 48.21519]
      },
      "properties": {
         "id": "pmb236013",
         "title": "Praterstraße 42",
         "lat": "48.21519",
         "lon": "16.38599",
         "timestamp": ["1929-04-03"],
         "importance": "1"
      }
      }, 
    {
      "type": "Feature",
      "geometry": {
        "type": "Point",
        "coordinates": [16.356412, 48.213361]
      },
      "properties": {
         "id": "pmb236861",
         "title": "Krankenhaus der Wiener Kaufmannschaft",
         "lat": "48.213361",
         "lon": "16.356412",
         "timestamp": ["1929-04-12"],
         "importance": "1"
      }
      }, 
    {
      "type": "Feature",
      "geometry": {
        "type": "Point",
        "coordinates": [16.37819, 48.20771]
      },
      "properties": {
         "id": "pmb190590",
         "title": "Elitekino",
         "lat": "48.20771",
         "lon": "16.37819",
         "timestamp": ["1929-04-25"],
         "importance": "1"
      }
      }, 
    {
      "type": "Feature",
      "geometry": {
        "type": "Point",
        "coordinates": [16.37449, 48.19871]
      },
      "properties": {
         "id": "pmb236131",
         "title": "Technikerstraße 2",
         "lat": "48.19871",
         "lon": "16.37449",
         "timestamp": ["1929-04-27"],
         "importance": "1"
      }
      }, 
    {
      "type": "Feature",
      "geometry": {
        "type": "Point",
        "coordinates": [16.3533, 48.20823]
      },
      "properties": {
         "id": "pmb236135",
         "title": "Josefsgasse 7",
         "lat": "48.20823",
         "lon": "16.3533",
         "timestamp": ["1929-04-27"],
         "importance": "1"
      }
      }, 
    {
      "type": "Feature",
      "geometry": {
        "type": "Point",
        "coordinates": [16.21667, 48.3]
      },
      "properties": {
         "id": "pmb90881",
         "title": "Hintersdorf",
         "lat": "48.3",
         "lon": "16.21667",
         "timestamp": ["1929-04-28"],
         "importance": "1"
      }
      }
  ]
}