{
  "type": "FeatureCollection",
  "features": [
    {
      "type": "Feature", 
      "geometry": {
        "type": "LineString", 
        "coordinates": [
            [16.34706, 48.21126], 
            [16.35137, 48.21346], 
            [16.351435, 48.209524], 
            [16.373056, 48.208333], 
            [16.33716, 48.23188]
          ]
      },
      "properties": {
        "name": "22. Januar 1929"
      }
    },
    {
      "type": "Feature",
      "geometry": {
        "type": "Point",
        "coordinates": [
          16.373056, 48.208333
        ]
      },
      "properties": {
        "title": "Wien",
        "timestamp": ["1929-01-22"],
        "pmb": "https://pmb.acdh.oeaw.ac.at/entity//", 
        "wikipedia": "https://de.wikipedia.org/wiki/Wien"
      }
      },
    {
      "type": "Feature",
      "geometry": {
        "type": "Point",
        "coordinates": [
          16.34706, 48.21126
        ]
      },
      "properties": {
        "title": "VIII., Josefstadt",
        "timestamp": ["1929-01-22"],
        "pmb": "https://pmb.acdh.oeaw.ac.at/entity//", 
        "wikipedia": "https://de.wikipedia.org/wiki/Josefstadt_(Wien)"
      }
      },
    {
      "type": "Feature",
      "geometry": {
        "type": "Point",
        "coordinates": [
          16.35137, 48.21346
        ]
      },
      "properties": {
        "title": "Laudongasse 12",
        "timestamp": ["1929-01-22"],
        "pmb": "https://pmb.acdh.oeaw.ac.at/entity//"
      }
      },
    {
      "type": "Feature",
      "geometry": {
        "type": "Point",
        "coordinates": [
          16.351435, 48.209524
        ]
      },
      "properties": {
        "title": "Restaurant zum weißen Hahn",
        "timestamp": ["1929-01-22"],
        "pmb": "https://pmb.acdh.oeaw.ac.at/entity//"
      }
      },
    {
      "type": "Feature",
      "geometry": {
        "type": "Point",
        "coordinates": [
          16.33716, 48.23188
        ]
      },
      "properties": {
        "title": "Sternwartestraße 71",
        "timestamp": ["1929-01-22"],
        "pmb": "https://pmb.acdh.oeaw.ac.at/entity//"
      }
      }
  ]
}