{
  "type": "FeatureCollection",
  "features": [
    {
      "type": "Feature",
      "geometry": {
        "type": "Point",
        "coordinates": [16.373056, 48.208333]
      },
      "properties": {
         "id": "pmb50",
         "title": "Wien",
         "lat": "48.208333",
         "lon": "16.373056",
         "timestamp": ["1930-06-01", "1930-06-02", "1930-06-03", "1930-06-04", "1930-06-05", "1930-06-06", "1930-06-07", "1930-06-08", "1930-06-09", "1930-06-10", "1930-06-11", "1930-06-12", "1930-06-13", "1930-06-14", "1930-06-15", "1930-06-16", "1930-06-17", "1930-06-18", "1930-06-19", "1930-06-20", "1930-06-21", "1930-06-22", "1930-06-23", "1930-06-24", "1930-06-25", "1930-06-26", "1930-06-27", "1930-06-28", "1930-06-29", "1930-06-30"],
         "importance": "30"
      }
      }, 
    {
      "type": "Feature",
      "geometry": {
        "type": "Point",
        "coordinates": [16.37547, 48.2644]
      },
      "properties": {
         "id": "pmb90538",
         "title": "Neue Donau",
         "lat": "48.2644",
         "lon": "16.37547",
         "timestamp": ["1930-06-09"],
         "importance": "1"
      }
      }, 
    {
      "type": "Feature",
      "geometry": {
        "type": "Point",
        "coordinates": [16.430054, 48.194558]
      },
      "properties": {
         "id": "pmb8",
         "title": "Prater",
         "lat": "48.194558",
         "lon": "16.430054",
         "timestamp": ["1930-06-08", "1930-06-11", "1930-06-15"],
         "importance": "3"
      }
      }, 
    {
      "type": "Feature",
      "geometry": {
        "type": "Point",
        "coordinates": [16.24801, 48.08509]
      },
      "properties": {
         "id": "pmb44413",
         "title": "Brühl",
         "lat": "48.08509",
         "lon": "16.24801",
         "timestamp": ["1930-06-14"],
         "importance": "1"
      }
      }, 
    {
      "type": "Feature",
      "geometry": {
        "type": "Point",
        "coordinates": [16.23264, 48.00543]
      },
      "properties": {
         "id": "pmb662",
         "title": "Baden bei Wien",
         "lat": "48.00543",
         "lon": "16.23264",
         "timestamp": ["1930-06-24", "1930-06-29"],
         "importance": "2"
      }
      }, 
    {
      "type": "Feature",
      "geometry": {
        "type": "Point",
        "coordinates": [16.29101, 48.17547]
      },
      "properties": {
         "id": "pmb63",
         "title": "XIII., Hietzing",
         "lat": "48.17547",
         "lon": "16.29101",
         "timestamp": ["1930-06-26"],
         "importance": "1"
      }
      }, 
    {
      "type": "Feature",
      "geometry": {
        "type": "Point",
        "coordinates": [16.28921, 48.08605]
      },
      "properties": {
         "id": "pmb968",
         "title": "Mödling",
         "lat": "48.08605",
         "lon": "16.28921",
         "timestamp": ["1930-06-13", "1930-06-17"],
         "importance": "2"
      }
      }, 
    {
      "type": "Feature",
      "geometry": {
        "type": "Point",
        "coordinates": [16.337778, 48.196667]
      },
      "properties": {
         "id": "pmb184918",
         "title": "Westbahnhof",
         "lat": "48.196667",
         "lon": "16.337778",
         "timestamp": ["1930-06-05"],
         "importance": "1"
      }
      }, 
    {
      "type": "Feature",
      "geometry": {
        "type": "Point",
        "coordinates": [16.02433, 48.17936]
      },
      "properties": {
         "id": "pmb11543",
         "title": "Rekawinkel",
         "lat": "48.17936",
         "lon": "16.02433",
         "timestamp": ["1930-06-09"],
         "importance": "1"
      }
      }, 
    {
      "type": "Feature",
      "geometry": {
        "type": "Point",
        "coordinates": [16.3566, 48.205142]
      },
      "properties": {
         "id": "pmb20",
         "title": "Volkstheater",
         "lat": "48.205142",
         "lon": "16.3566",
         "timestamp": ["1930-06-06", "1930-06-07"],
         "importance": "2"
      }
      }, 
    {
      "type": "Feature",
      "geometry": {
        "type": "Point",
        "coordinates": [16.3067984, 48.1806202]
      },
      "properties": {
         "id": "pmb92518",
         "title": "Schlosspark Schönbrunn",
         "lat": "48.1806202",
         "lon": "16.3067984",
         "timestamp": ["1930-06-05"],
         "importance": "1"
      }
      }, 
    {
      "type": "Feature",
      "geometry": {
        "type": "Point",
        "coordinates": [16.402222, 48.214722]
      },
      "properties": {
         "id": "pmb685",
         "title": "Wurstelprater",
         "lat": "48.214722",
         "lon": "16.402222",
         "timestamp": ["1930-06-08"],
         "importance": "1"
      }
      }, 
    {
      "type": "Feature",
      "geometry": {
        "type": "Point",
        "coordinates": [16.35754, 48.05729]
      },
      "properties": {
         "id": "pmb2520",
         "title": "Laxenburg",
         "lat": "48.05729",
         "lon": "16.35754",
         "timestamp": ["1930-06-19", "1930-06-24"],
         "importance": "2"
      }
      }, 
    {
      "type": "Feature",
      "geometry": {
        "type": "Point",
        "coordinates": [16.06409, 48.33327]
      },
      "properties": {
         "id": "pmb41239",
         "title": "Tulln an der Donau",
         "lat": "48.33327",
         "lon": "16.06409",
         "timestamp": ["1930-06-09"],
         "importance": "1"
      }
      }, 
    {
      "type": "Feature",
      "geometry": {
        "type": "Point",
        "coordinates": [16.36471, 48.200556]
      },
      "properties": {
         "id": "pmb97",
         "title": "Zum Weingartl",
         "lat": "48.200556",
         "lon": "16.36471",
         "timestamp": ["1930-06-03"],
         "importance": "1"
      }
      }, 
    {
      "type": "Feature",
      "geometry": {
        "type": "Point",
        "coordinates": [16.37312, 48.20122]
      },
      "properties": {
         "id": "pmb43",
         "title": "Café Imperial",
         "lat": "48.20122",
         "lon": "16.37312",
         "timestamp": ["1930-06-07", "1930-06-17"],
         "importance": "2"
      }
      }, 
    {
      "type": "Feature",
      "geometry": {
        "type": "Point",
        "coordinates": [16.333568462613, 48.235119783861]
      },
      "properties": {
         "id": "pmb113",
         "title": "Türkenschanzpark",
         "lat": "48.235119783861",
         "lon": "16.333568462613",
         "timestamp": ["1930-06-15", "1930-06-27"],
         "importance": "2"
      }
      }, 
    {
      "type": "Feature",
      "geometry": {
        "type": "Point",
        "coordinates": [16.300034240016, 48.246838181084]
      },
      "properties": {
         "id": "pmb169",
         "title": "Pötzleinsdorf",
         "lat": "48.246838181084",
         "lon": "16.300034240016",
         "timestamp": ["1930-06-20", "1930-06-22"],
         "importance": "2"
      }
      }, 
    {
      "type": "Feature",
      "geometry": {
        "type": "Point",
        "coordinates": [16.28610371233, 48.233119188484]
      },
      "properties": {
         "id": "pmb170",
         "title": "Neuwaldegg",
         "lat": "48.233119188484",
         "lon": "16.28610371233",
         "timestamp": ["1930-06-20"],
         "importance": "1"
      }
      }, 
    {
      "type": "Feature",
      "geometry": {
        "type": "Point",
        "coordinates": [16.2652, 48.080769]
      },
      "properties": {
         "id": "pmb192771",
         "title": "Hotel Hajek",
         "lat": "48.080769",
         "lon": "16.2652",
         "timestamp": ["1930-06-13"],
         "importance": "1"
      }
      }, 
    {
      "type": "Feature",
      "geometry": {
        "type": "Point",
        "coordinates": [16.209444, 48.327778]
      },
      "properties": {
         "id": "pmb1246",
         "title": "St. Andrä-Wördern",
         "lat": "48.327778",
         "lon": "16.209444",
         "timestamp": ["1930-06-09"],
         "importance": "1"
      }
      }, 
    {
      "type": "Feature",
      "geometry": {
        "type": "Point",
        "coordinates": [16.331527, 48.23428]
      },
      "properties": {
         "id": "pmb74",
         "title": "Restauration Türkenschanz-Park",
         "lat": "48.23428",
         "lon": "16.331527",
         "timestamp": ["1930-06-27"],
         "importance": "1"
      }
      }, 
    {
      "type": "Feature",
      "geometry": {
        "type": "Point",
        "coordinates": [16.308333, 48.178056]
      },
      "properties": {
         "id": "pmb368",
         "title": "Gloriette",
         "lat": "48.178056",
         "lon": "16.308333",
         "timestamp": ["1930-06-05"],
         "importance": "1"
      }
      }, 
    {
      "type": "Feature",
      "geometry": {
        "type": "Point",
        "coordinates": [16.37312, 48.20122]
      },
      "properties": {
         "id": "pmb126",
         "title": "Hotel Imperial",
         "lat": "48.20122",
         "lon": "16.37312",
         "timestamp": ["1930-06-17"],
         "importance": "1"
      }
      }, 
    {
      "type": "Feature",
      "geometry": {
        "type": "Point",
        "coordinates": [16.33787, 48.19653]
      },
      "properties": {
         "id": "pmb438",
         "title": "Westbahnhof-Restaurant",
         "lat": "48.19653",
         "lon": "16.33787",
         "timestamp": ["1930-06-05"],
         "importance": "1"
      }
      }, 
    {
      "type": "Feature",
      "geometry": {
        "type": "Point",
        "coordinates": [16.322222222222, 48.263611111111]
      },
      "properties": {
         "id": "pmb194903",
         "title": "Am Kobenzl",
         "lat": "48.263611111111",
         "lon": "16.322222222222",
         "timestamp": ["1930-06-18"],
         "importance": "1"
      }
      }, 
    {
      "type": "Feature",
      "geometry": {
        "type": "Point",
        "coordinates": [16.41575606941028, 48.20508551408161]
      },
      "properties": {
         "id": "pmb53159",
         "title": "Hauptallee",
         "lat": "48.20508551408161",
         "lon": "16.41575606941028",
         "timestamp": ["1930-06-08"],
         "importance": "1"
      }
      }, 
    {
      "type": "Feature",
      "geometry": {
        "type": "Point",
        "coordinates": [16.2911, 48.2553]
      },
      "properties": {
         "id": "pmb242",
         "title": "Salmannsdorf",
         "lat": "48.2553",
         "lon": "16.2911",
         "timestamp": ["1930-06-20", "1930-06-22"],
         "importance": "2"
      }
      }, 
    {
      "type": "Feature",
      "geometry": {
        "type": "Point",
        "coordinates": [16.28466, 48.17032]
      },
      "properties": {
         "id": "pmb91784",
         "title": "Speising",
         "lat": "48.17032",
         "lon": "16.28466",
         "timestamp": ["1930-06-26"],
         "importance": "1"
      }
      }, 
    {
      "type": "Feature",
      "geometry": {
        "type": "Point",
        "coordinates": [16.30627, 48.2435]
      },
      "properties": {
         "id": "pmb147205",
         "title": "Zum weißen Lamm",
         "lat": "48.2435",
         "lon": "16.30627",
         "timestamp": ["1930-06-20"],
         "importance": "1"
      }
      }, 
    {
      "type": "Feature",
      "geometry": {
        "type": "Point",
        "coordinates": [16.00249, 48.204892]
      },
      "properties": {
         "id": "pmb92351",
         "title": "Kronstein",
         "lat": "48.204892",
         "lon": "16.00249",
         "timestamp": ["1930-06-09"],
         "importance": "1"
      }
      }, 
    {
      "type": "Feature",
      "geometry": {
        "type": "Point",
        "coordinates": [16.353889, 48.1975]
      },
      "properties": {
         "id": "pmb52023",
         "title": "Apollo-Theater [Wien]",
         "lat": "48.1975",
         "lon": "16.353889",
         "timestamp": ["1930-06-03"],
         "importance": "1"
      }
      }, 
    {
      "type": "Feature",
      "geometry": {
        "type": "Point",
        "coordinates": [16.241739, 48.090788]
      },
      "properties": {
         "id": "pmb44510",
         "title": "Hotel Radetzky",
         "lat": "48.090788",
         "lon": "16.241739",
         "timestamp": ["1930-06-05"],
         "importance": "1"
      }
      }, 
    {
      "type": "Feature",
      "geometry": {
        "type": "Point",
        "coordinates": [16.263145, 48.077197]
      },
      "properties": {
         "id": "pmb237565",
         "title": "Meiereiwiese [Mödling]",
         "lat": "48.077197",
         "lon": "16.263145",
         "timestamp": ["1930-06-13"],
         "importance": "1"
      }
      }, 
    {
      "type": "Feature",
      "geometry": {
        "type": "Point",
        "coordinates": [16.33641, 48.23362]
      },
      "properties": {
         "id": "pmb235132",
         "title": "Türkenschanzstraße 48",
         "lat": "48.23362",
         "lon": "16.33641",
         "timestamp": ["1930-06-16"],
         "importance": "1"
      }
      }, 
    {
      "type": "Feature",
      "geometry": {
        "type": "Point",
        "coordinates": [16.35689, 48.21787]
      },
      "properties": {
         "id": "pmb232768",
         "title": "Beethovengasse 6",
         "lat": "48.21787",
         "lon": "16.35689",
         "timestamp": ["1930-06-03"],
         "importance": "1"
      }
      }, 
    {
      "type": "Feature",
      "geometry": {
        "type": "Point",
        "coordinates": [16.370766, 48.208037]
      },
      "properties": {
         "id": "pmb236271",
         "title": "E. Braun & Co., Hof-Wäschelieferant",
         "lat": "48.208037",
         "lon": "16.370766",
         "timestamp": ["1930-06-27"],
         "importance": "1"
      }
      }, 
    {
      "type": "Feature",
      "geometry": {
        "type": "Point",
        "coordinates": [16.33716, 48.23188]
      },
      "properties": {
         "id": "pmb168815",
         "title": "Sternwartestraße 71",
         "lat": "48.23188",
         "lon": "16.33716",
         "timestamp": ["1930-06-01", "1930-06-02", "1930-06-03", "1930-06-04", "1930-06-05", "1930-06-06", "1930-06-07", "1930-06-08", "1930-06-09", "1930-06-10", "1930-06-11", "1930-06-12", "1930-06-13", "1930-06-14", "1930-06-15", "1930-06-16", "1930-06-17", "1930-06-18", "1930-06-19", "1930-06-20", "1930-06-21", "1930-06-22", "1930-06-23", "1930-06-24", "1930-06-25", "1930-06-26", "1930-06-27", "1930-06-28", "1930-06-29", "1930-06-30"],
         "importance": "30"
      }
      }, 
    {
      "type": "Feature",
      "geometry": {
        "type": "Point",
        "coordinates": [16.35137, 48.21346]
      },
      "properties": {
         "id": "pmb232800",
         "title": "Laudongasse 12",
         "lat": "48.21346",
         "lon": "16.35137",
         "timestamp": ["1930-06-06", "1930-06-11", "1930-06-20"],
         "importance": "3"
      }
      }, 
    {
      "type": "Feature",
      "geometry": {
        "type": "Point",
        "coordinates": [16.367725, 48.212284]
      },
      "properties": {
         "id": "pmb207301",
         "title": "Tiefer Graben 17",
         "lat": "48.212284",
         "lon": "16.367725",
         "timestamp": ["1930-06-03", "1930-06-10", "1930-06-11", "1930-06-17", "1930-06-20", "1930-06-24", "1930-06-29"],
         "importance": "7"
      }
      }, 
    {
      "type": "Feature",
      "geometry": {
        "type": "Point",
        "coordinates": [16.395442, 48.217178]
      },
      "properties": {
         "id": "pmb185318",
         "title": "Restauration Prochaska",
         "lat": "48.217178",
         "lon": "16.395442",
         "timestamp": ["1930-06-02", "1930-06-08", "1930-06-11", "1930-06-15"],
         "importance": "4"
      }
      }, 
    {
      "type": "Feature",
      "geometry": {
        "type": "Point",
        "coordinates": [16.337998, 48.235859]
      },
      "properties": {
         "id": "pmb232834",
         "title": "Gregor-Mendel-Straße 50",
         "lat": "48.235859",
         "lon": "16.337998",
         "timestamp": ["1930-06-06"],
         "importance": "1"
      }
      }, 
    {
      "type": "Feature",
      "geometry": {
        "type": "Point",
        "coordinates": [16.338016, 48.234091]
      },
      "properties": {
         "id": "pmb236372",
         "title": "Gregor-Mendel-Straße 34",
         "lat": "48.234091",
         "lon": "16.338016",
         "timestamp": ["1930-06-02", "1930-06-03", "1930-06-04", "1930-06-06", "1930-06-10", "1930-06-11", "1930-06-12", "1930-06-15", "1930-06-16", "1930-06-18", "1930-06-20", "1930-06-22", "1930-06-23", "1930-06-27", "1930-06-29"],
         "importance": "15"
      }
      }, 
    {
      "type": "Feature",
      "geometry": {
        "type": "Point",
        "coordinates": [16.309305, 48.253492]
      },
      "properties": {
         "id": "pmb237889",
         "title": "Agnesgasse 30",
         "lat": "48.253492",
         "lon": "16.309305",
         "timestamp": ["1930-06-27"],
         "importance": "1"
      }
      }, 
    {
      "type": "Feature",
      "geometry": {
        "type": "Point",
        "coordinates": [16.356412, 48.213361]
      },
      "properties": {
         "id": "pmb236861",
         "title": "Krankenhaus der Wiener Kaufmannschaft",
         "lat": "48.213361",
         "lon": "16.356412",
         "timestamp": ["1930-06-27"],
         "importance": "1"
      }
      }, 
    {
      "type": "Feature",
      "geometry": {
        "type": "Point",
        "coordinates": [16.334494, 48.239251]
      },
      "properties": {
         "id": "pmb92273",
         "title": "Hartäckerpark",
         "lat": "48.239251",
         "lon": "16.334494",
         "timestamp": ["1930-06-22"],
         "importance": "1"
      }
      }, 
    {
      "type": "Feature",
      "geometry": {
        "type": "Point",
        "coordinates": [16.28456, 48.17318]
      },
      "properties": {
         "id": "pmb236355",
         "title": "Gasthaus Weide",
         "lat": "48.17318",
         "lon": "16.28456",
         "timestamp": ["1930-06-26"],
         "importance": "1"
      }
      }, 
    {
      "type": "Feature",
      "geometry": {
        "type": "Point",
        "coordinates": [16.299518, 48.182697]
      },
      "properties": {
         "id": "pmb237170",
         "title": "Maxingstraße 20",
         "lat": "48.182697",
         "lon": "16.299518",
         "timestamp": ["1930-06-26"],
         "importance": "1"
      }
      }, 
    {
      "type": "Feature",
      "geometry": {
        "type": "Point",
        "coordinates": [16.09456, 48.25022]
      },
      "properties": {
         "id": "pmb91592",
         "title": "Riederberg",
         "lat": "48.25022",
         "lon": "16.09456",
         "timestamp": ["1930-06-01"],
         "importance": "1"
      }
      }, 
    {
      "type": "Feature",
      "geometry": {
        "type": "Point",
        "coordinates": [15.79326, 48.24349]
      },
      "properties": {
         "id": "pmb238046",
         "title": "Schloss Thalheim",
         "lat": "48.24349",
         "lon": "15.79326",
         "timestamp": ["1930-06-01"],
         "importance": "1"
      }
      }, 
    {
      "type": "Feature",
      "geometry": {
        "type": "Point",
        "coordinates": [15.79483, 48.24151]
      },
      "properties": {
         "id": "pmb238048",
         "title": "Thalheim",
         "lat": "48.24151",
         "lon": "15.79483",
         "timestamp": ["1930-06-01"],
         "importance": "1"
      }
      }, 
    {
      "type": "Feature",
      "geometry": {
        "type": "Point",
        "coordinates": [16.24852, 48.31385]
      },
      "properties": {
         "id": "pmb90801",
         "title": "Gugging",
         "lat": "48.31385",
         "lon": "16.24852",
         "timestamp": ["1930-06-09"],
         "importance": "1"
      }
      }, 
    {
      "type": "Feature",
      "geometry": {
        "type": "Point",
        "coordinates": [16.37782, 48.19077]
      },
      "properties": {
         "id": "pmb239698",
         "title": "Mommsengasse 13",
         "lat": "48.19077",
         "lon": "16.37782",
         "timestamp": ["1930-06-10"],
         "importance": "1"
      }
      }, 
    {
      "type": "Feature",
      "geometry": {
        "type": "Point",
        "coordinates": [16.361381, 48.146093]
      },
      "properties": {
         "id": "pmb92364",
         "title": "Laxenburger Allee",
         "lat": "48.146093",
         "lon": "16.361381",
         "timestamp": ["1930-06-17"],
         "importance": "1"
      }
      }, 
    {
      "type": "Feature",
      "geometry": {
        "type": "Point",
        "coordinates": [16.365, 48.063]
      },
      "properties": {
         "id": "pmb239721",
         "title": "Schlosspark Laxenburg",
         "lat": "48.063",
         "lon": "16.365",
         "timestamp": ["1930-06-19"],
         "importance": "1"
      }
      }, 
    {
      "type": "Feature",
      "geometry": {
        "type": "Point",
        "coordinates": [16.3581, 48.0647]
      },
      "properties": {
         "id": "pmb239724",
         "title": "Schloss Laxenburg",
         "lat": "48.0647",
         "lon": "16.3581",
         "timestamp": ["1930-06-19"],
         "importance": "1"
      }
      }, 
    {
      "type": "Feature",
      "geometry": {
        "type": "Point",
        "coordinates": [16.2314, 48.00567]
      },
      "properties": {
         "id": "pmb239739",
         "title": "Café Schopf",
         "lat": "48.00567",
         "lon": "16.2314",
         "timestamp": ["1930-06-24"],
         "importance": "1"
      }
      }, 
    {
      "type": "Feature",
      "geometry": {
        "type": "Point",
        "coordinates": [16.225261, 48.008204]
      },
      "properties": {
         "id": "pmb92206",
         "title": "Doblhoffpark",
         "lat": "48.008204",
         "lon": "16.225261",
         "timestamp": ["1930-06-29"],
         "importance": "1"
      }
      }, 
    {
      "type": "Feature",
      "geometry": {
        "type": "Point",
        "coordinates": [16.22864, 48.00633]
      },
      "properties": {
         "id": "pmb239749",
         "title": "Pension Exquisite",
         "lat": "48.00633",
         "lon": "16.22864",
         "timestamp": ["1930-06-29"],
         "importance": "1"
      }
      }
  ]
}