{
  "type": "FeatureCollection",
  "features": [
    {
      "type": "Feature", 
      "geometry": {
        "type": "LineString", 
        "coordinates": [
            [16.373056, 48.208333], 
            [16.33716, 48.23188], 
            [16.31667, 48.23333], 
            [16.276509500872, 48.241960480337], 
            [16.299116267833, 48.230916826952]
          ]
      },
      "properties": {
        "name": "30. November 1930"
      }
    },
    {
      "type": "Feature",
      "geometry": {
        "type": "Point",
        "coordinates": [
          16.373056, 48.208333
        ]
      },
      "properties": {
        "title": "Wien",
        "timestamp": ["1930-11-30"],
        "pmb": "https://pmb.acdh.oeaw.ac.at/entity//", 
        "wikipedia": "https://de.wikipedia.org/wiki/Wien"
      }
      },
    {
      "type": "Feature",
      "geometry": {
        "type": "Point",
        "coordinates": [
          16.276509500872, 48.241960480337
        ]
      },
      "properties": {
        "title": "Schwarzenbergpark",
        "timestamp": ["1930-11-30"],
        "pmb": "https://pmb.acdh.oeaw.ac.at/entity//", 
        "wikipedia": "https://de.wikipedia.org/wiki/Schwarzenbergpark"
      }
      },
    {
      "type": "Feature",
      "geometry": {
        "type": "Point",
        "coordinates": [
          16.31667, 48.23333
        ]
      },
      "properties": {
        "title": "XVIII., Währing",
        "timestamp": ["1930-11-30"],
        "pmb": "https://pmb.acdh.oeaw.ac.at/entity//", 
        "wikipedia": "https://de.wikipedia.org/wiki/W%C3%A4hring"
      }
      },
    {
      "type": "Feature",
      "geometry": {
        "type": "Point",
        "coordinates": [
          16.299116267833, 48.230916826952
        ]
      },
      "properties": {
        "title": "Dornbach",
        "timestamp": ["1930-11-30"],
        "pmb": "https://pmb.acdh.oeaw.ac.at/entity//"
      }
      },
    {
      "type": "Feature",
      "geometry": {
        "type": "Point",
        "coordinates": [
          16.33716, 48.23188
        ]
      },
      "properties": {
        "title": "Sternwartestraße 71",
        "timestamp": ["1930-11-30"],
        "pmb": "https://pmb.acdh.oeaw.ac.at/entity//"
      }
      }
  ]
}