{
  "type": "FeatureCollection",
  "features": [
    {
      "type": "Feature", 
      "geometry": {
        "type": "LineString", 
        "coordinates": [
            [16.351111, 48.209583], 
            [16.351435, 48.209524], 
            [16.36714, 48.19198], 
            [16.35137, 48.21346], 
            [16.33716, 48.23188]
          ]
      },
      "properties": {
        "name": "18. März 1930"
      }
    },
    {
      "type": "Feature",
      "geometry": {
        "type": "Point",
        "coordinates": [
          16.33716, 48.23188
        ]
      },
      "properties": {
        "title": "Sternwartestraße 71",
        "timestamp": ["1930-03-18"],
        "pmb": "https://pmb.acdh.oeaw.ac.at/entity//"
      }
      },
    {
      "type": "Feature",
      "geometry": {
        "type": "Point",
        "coordinates": [
          16.351435, 48.209524
        ]
      },
      "properties": {
        "title": "Restaurant zum weißen Hahn",
        "timestamp": ["1930-03-18"],
        "pmb": "https://pmb.acdh.oeaw.ac.at/entity//"
      }
      },
    {
      "type": "Feature",
      "geometry": {
        "type": "Point",
        "coordinates": [
          16.351111, 48.209583
        ]
      },
      "properties": {
        "title": "Theater in der Josefstadt",
        "timestamp": ["1930-03-18"],
        "pmb": "https://pmb.acdh.oeaw.ac.at/entity//", 
        "wikipedia": "https://de.wikipedia.org/wiki/Theater_in_der_Josefstadt"
      }
      },
    {
      "type": "Feature",
      "geometry": {
        "type": "Point",
        "coordinates": [
          16.36714, 48.19198
        ]
      },
      "properties": {
        "title": "IV., Wieden",
        "timestamp": ["1930-03-18"],
        "pmb": "https://pmb.acdh.oeaw.ac.at/entity//", 
        "wikipedia": "https://de.wikipedia.org/wiki/Wieden_(Wien)"
      }
      },
    {
      "type": "Feature",
      "geometry": {
        "type": "Point",
        "coordinates": [
          16.35137, 48.21346
        ]
      },
      "properties": {
        "title": "Laudongasse 12",
        "timestamp": ["1930-03-18"],
        "pmb": "https://pmb.acdh.oeaw.ac.at/entity//"
      }
      }
  ]
}