{
  "type": "FeatureCollection",
  "features": [
    {
      "type": "Feature", 
      "geometry": {
        "type": "LineString", 
        "coordinates": [
            [16.351435, 48.209524], 
            [16.367725, 48.212284], 
            [16.35689, 48.21787], 
            [16.338016, 48.234091], 
            [16.33716, 48.23188]
          ]
      },
      "properties": {
        "name": "14. März 1930"
      }
    },
    {
      "type": "Feature",
      "geometry": {
        "type": "Point",
        "coordinates": [
          16.351435, 48.209524
        ]
      },
      "properties": {
        "title": "Restaurant zum weißen Hahn",
        "timestamp": ["1930-03-14"],
        "pmb": "https://pmb.acdh.oeaw.ac.at/entity//"
      }
      },
    {
      "type": "Feature",
      "geometry": {
        "type": "Point",
        "coordinates": [
          16.33716, 48.23188
        ]
      },
      "properties": {
        "title": "Sternwartestraße 71",
        "timestamp": ["1930-03-14"],
        "pmb": "https://pmb.acdh.oeaw.ac.at/entity//"
      }
      },
    {
      "type": "Feature",
      "geometry": {
        "type": "Point",
        "coordinates": [
          16.367725, 48.212284
        ]
      },
      "properties": {
        "title": "Tiefer Graben 17",
        "timestamp": ["1930-03-14"],
        "pmb": "https://pmb.acdh.oeaw.ac.at/entity//"
      }
      },
    {
      "type": "Feature",
      "geometry": {
        "type": "Point",
        "coordinates": [
          16.35689, 48.21787
        ]
      },
      "properties": {
        "title": "Beethovengasse 6",
        "timestamp": ["1930-03-14"],
        "pmb": "https://pmb.acdh.oeaw.ac.at/entity//"
      }
      },
    {
      "type": "Feature",
      "geometry": {
        "type": "Point",
        "coordinates": [
          16.338016, 48.234091
        ]
      },
      "properties": {
        "title": "Gregor-Mendel-Straße 34",
        "timestamp": ["1930-03-14"],
        "pmb": "https://pmb.acdh.oeaw.ac.at/entity//"
      }
      }
  ]
}