{
  "type": "FeatureCollection",
  "features": [
    {
      "type": "Feature", 
      "geometry": {
        "type": "LineString", 
        "coordinates": [
            [13.28702, 52.4581], 
            [13.28135, 52.45014], 
            [13.383899, 52.459222], 
            [13.374444, 52.51], 
            [13.374444, 52.51], 
            [13.285915, 52.509081], 
            [13.3032, 52.499]
          ]
      },
      "properties": {
        "name": "6. Januar 1930"
      }
    },
    {
      "type": "Feature",
      "geometry": {
        "type": "Point",
        "coordinates": [
          13.374444, 52.51
        ]
      },
      "properties": {
        "title": "Hotel Esplanade [Berlin]",
        "timestamp": ["1930-01-06"],
        "pmb": "https://pmb.acdh.oeaw.ac.at/entity//", 
        "wikipedia": "https://de.wikipedia.org/wiki/Hotel_Esplanade_(Berlin)"
      }
      },
    {
      "type": "Feature",
      "geometry": {
        "type": "Point",
        "coordinates": [
          13.285915, 52.509081
        ]
      },
      "properties": {
        "title": "Riehlstraße",
        "timestamp": ["1930-01-06"],
        "pmb": "https://pmb.acdh.oeaw.ac.at/entity//", 
        "wikipedia": "https://de.wikipedia.org/wiki/Riehlstra%C3%9Fe"
      }
      },
    {
      "type": "Feature",
      "geometry": {
        "type": "Point",
        "coordinates": [
          13.383899, 52.459222
        ]
      },
      "properties": {
        "title": "Kaiserin-Augusta-Straße 78",
        "timestamp": ["1930-01-06"],
        "pmb": "https://pmb.acdh.oeaw.ac.at/entity//"
      }
      },
    {
      "type": "Feature",
      "geometry": {
        "type": "Point",
        "coordinates": [
          13.28135, 52.45014
        ]
      },
      "properties": {
        "title": "Faradayweg 16",
        "timestamp": ["1930-01-06"],
        "pmb": "https://pmb.acdh.oeaw.ac.at/entity//"
      }
      },
    {
      "type": "Feature",
      "geometry": {
        "type": "Point",
        "coordinates": [
          13.374444, 52.51
        ]
      },
      "properties": {
        "title": "Hotel Esplanade [Berlin]",
        "timestamp": ["1930-01-06"],
        "pmb": "https://pmb.acdh.oeaw.ac.at/entity//", 
        "wikipedia": "https://de.wikipedia.org/wiki/Hotel_Esplanade_(Berlin)"
      }
      },
    {
      "type": "Feature",
      "geometry": {
        "type": "Point",
        "coordinates": [
          13.3032, 52.499
        ]
      },
      "properties": {
        "title": "Kabarett der Komiker",
        "timestamp": ["1930-01-06"],
        "pmb": "https://pmb.acdh.oeaw.ac.at/entity//", 
        "wikipedia": "https://de.wikipedia.org/wiki/Kabarett_der_Komiker"
      }
      },
    {
      "type": "Feature",
      "geometry": {
        "type": "Point",
        "coordinates": [
          13.28702, 52.4581
        ]
      },
      "properties": {
        "title": "Dahlem",
        "timestamp": ["1930-01-06"],
        "pmb": "https://pmb.acdh.oeaw.ac.at/entity//"
      }
      }
  ]
}