{
  "type": "FeatureCollection",
  "features": [
    {
      "type": "Feature", 
      "geometry": {
        "type": "LineString", 
        "coordinates": [
            [16.337778, 48.196667], 
            [16.373056, 48.208333], 
            [16.353836, 48.222832], 
            [16.33716, 48.23188], 
            [16.33472, 48.2304]
          ]
      },
      "properties": {
        "name": "23. Oktober 1930"
      }
    },
    {
      "type": "Feature",
      "geometry": {
        "type": "Point",
        "coordinates": [
          16.373056, 48.208333
        ]
      },
      "properties": {
        "title": "Wien",
        "timestamp": ["1930-10-23"],
        "pmb": "https://pmb.acdh.oeaw.ac.at/entity//", 
        "wikipedia": "https://de.wikipedia.org/wiki/Wien"
      }
      },
    {
      "type": "Feature",
      "geometry": {
        "type": "Point",
        "coordinates": [
          16.33472, 48.2304
        ]
      },
      "properties": {
        "title": "Edmund-Weiß-Gasse 7",
        "timestamp": ["1930-10-23"],
        "pmb": "https://pmb.acdh.oeaw.ac.at/entity//"
      }
      },
    {
      "type": "Feature",
      "geometry": {
        "type": "Point",
        "coordinates": [
          16.337778, 48.196667
        ]
      },
      "properties": {
        "title": "Westbahnhof",
        "timestamp": ["1930-10-23"],
        "pmb": "https://pmb.acdh.oeaw.ac.at/entity//", 
        "wikipedia": "https://de.wikipedia.org/wiki/Wien_Westbahnhof"
      }
      },
    {
      "type": "Feature",
      "geometry": {
        "type": "Point",
        "coordinates": [
          16.353836, 48.222832
        ]
      },
      "properties": {
        "title": "Buffet Colosseum",
        "timestamp": ["1930-10-23"],
        "pmb": "https://pmb.acdh.oeaw.ac.at/entity//"
      }
      },
    {
      "type": "Feature",
      "geometry": {
        "type": "Point",
        "coordinates": [
          16.33716, 48.23188
        ]
      },
      "properties": {
        "title": "Sternwartestraße 71",
        "timestamp": ["1930-10-23"],
        "pmb": "https://pmb.acdh.oeaw.ac.at/entity//"
      }
      }
  ]
}