{
  "type": "FeatureCollection",
  "features": [
    {
      "type": "Feature",
      "geometry": {
        "type": "Point",
        "coordinates": [16.375, 48.205139]
      },
      "properties": {
         "id": "pmb19",
         "title": "Ronacher",
         "lat": "48.205139",
         "lon": "16.375",
         "timestamp": ["1930-09-23"],
         "importance": "1"
      }
      }, 
    {
      "type": "Feature",
      "geometry": {
        "type": "Point",
        "coordinates": [16.373056, 48.208333]
      },
      "properties": {
         "id": "pmb50",
         "title": "Wien",
         "lat": "48.208333",
         "lon": "16.373056",
         "timestamp": ["1930-01-15", "1930-01-16", "1930-01-17", "1930-01-18", "1930-01-19", "1930-01-20", "1930-01-21", "1930-01-22", "1930-01-23", "1930-01-24", "1930-01-25", "1930-01-26", "1930-01-27", "1930-01-28", "1930-01-29", "1930-01-30", "1930-01-31", "1930-02-01", "1930-02-02", "1930-02-03", "1930-02-04", "1930-02-05", "1930-02-06", "1930-02-07", "1930-02-08", "1930-02-09", "1930-02-10", "1930-02-11", "1930-02-12", "1930-02-13", "1930-02-14", "1930-02-15", "1930-02-16", "1930-02-17", "1930-02-18", "1930-02-19", "1930-02-20", "1930-02-21", "1930-02-22", "1930-02-23", "1930-02-24", "1930-02-25", "1930-02-26", "1930-02-27", "1930-02-28", "1930-03-01", "1930-03-02", "1930-03-03", "1930-03-04", "1930-03-05", "1930-03-06", "1930-03-07", "1930-03-08", "1930-03-09", "1930-03-10", "1930-03-11", "1930-03-12", "1930-03-13", "1930-03-14", "1930-03-15", "1930-03-16", "1930-03-17", "1930-03-18", "1930-03-19", "1930-03-20", "1930-03-21", "1930-03-22", "1930-03-23", "1930-03-24", "1930-03-25", "1930-03-26", "1930-03-27", "1930-03-28", "1930-03-29", "1930-03-30", "1930-03-31", "1930-04-01", "1930-04-02", "1930-04-03", "1930-04-04", "1930-04-05", "1930-04-06", "1930-04-07", "1930-04-08", "1930-04-09", "1930-04-10", "1930-04-11", "1930-04-12", "1930-04-13", "1930-04-14", "1930-04-15", "1930-04-16", "1930-04-17", "1930-04-18", "1930-04-19", "1930-04-20", "1930-04-21", "1930-04-22", "1930-04-23", "1930-04-24", "1930-04-25", "1930-04-26", "1930-04-27", "1930-04-28", "1930-04-29", "1930-04-30", "1930-05-01", "1930-05-02", "1930-05-03", "1930-05-04", "1930-05-05", "1930-05-06", "1930-05-07", "1930-05-08", "1930-05-13", "1930-05-14", "1930-05-15", "1930-05-16", "1930-05-17", "1930-05-18", "1930-05-19", "1930-05-20", "1930-05-21", "1930-05-22", "1930-05-23", "1930-05-24", "1930-05-25", "1930-05-26", "1930-05-27", "1930-05-28", "1930-05-29", "1930-05-30", "1930-05-31", "1930-06-01", "1930-06-02", "1930-06-03", "1930-06-04", "1930-06-05", "1930-06-06", "1930-06-07", "1930-06-08", "1930-06-09", "1930-06-10", "1930-06-11", "1930-06-12", "1930-06-13", "1930-06-14", "1930-06-15", "1930-06-16", "1930-06-17", "1930-06-18", "1930-06-19", "1930-06-20", "1930-06-21", "1930-06-22", "1930-06-23", "1930-06-24", "1930-06-25", "1930-06-26", "1930-06-27", "1930-06-28", "1930-06-29", "1930-06-30", "1930-07-01", "1930-07-02", "1930-07-03", "1930-07-04", "1930-07-05", "1930-07-06", "1930-07-07", "1930-07-08", "1930-07-09", "1930-07-10", "1930-07-11", "1930-07-12", "1930-07-13", "1930-07-14", "1930-07-15", "1930-07-16", "1930-07-31", "1930-08-11", "1930-08-12", "1930-08-13", "1930-08-14", "1930-08-15", "1930-08-16", "1930-08-17", "1930-08-18", "1930-08-19", "1930-08-20", "1930-08-21", "1930-08-22", "1930-08-23", "1930-08-24", "1930-08-25", "1930-09-09", "1930-09-10", "1930-09-11", "1930-09-12", "1930-09-13", "1930-09-14", "1930-09-15", "1930-09-16", "1930-09-17", "1930-09-18", "1930-09-19", "1930-09-20", "1930-09-21", "1930-09-22", "1930-09-23", "1930-09-24", "1930-09-25", "1930-09-26", "1930-09-27", "1930-09-28", "1930-09-29", "1930-09-30", "1930-10-01", "1930-10-02", "1930-10-03", "1930-10-04", "1930-10-05", "1930-10-06", "1930-10-07", "1930-10-09", "1930-10-10", "1930-10-11", "1930-10-12", "1930-10-13", "1930-10-14", "1930-10-15", "1930-10-16", "1930-10-17", "1930-10-18", "1930-10-19", "1930-10-20", "1930-10-21", "1930-10-22", "1930-10-23", "1930-10-24", "1930-10-25", "1930-10-26", "1930-10-27", "1930-10-28", "1930-10-29", "1930-10-30", "1930-10-31", "1930-11-01", "1930-11-02", "1930-11-03", "1930-11-04", "1930-11-05", "1930-11-06", "1930-11-07", "1930-11-08", "1930-11-09", "1930-11-10", "1930-11-21", "1930-11-22", "1930-11-23", "1930-11-24", "1930-11-25", "1930-11-26", "1930-11-27", "1930-11-28", "1930-11-29", "1930-11-30", "1930-12-01", "1930-12-02", "1930-12-03", "1930-12-04", "1930-12-05", "1930-12-06", "1930-12-07", "1930-12-08", "1930-12-09", "1930-12-10", "1930-12-11", "1930-12-12", "1930-12-13", "1930-12-14", "1930-12-15", "1930-12-16", "1930-12-17", "1930-12-18", "1930-12-19", "1930-12-20", "1930-12-21", "1930-12-22", "1930-12-23", "1930-12-24", "1930-12-25", "1930-12-26", "1930-12-27", "1930-12-28", "1930-12-29", "1930-12-30", "1930-12-31"],
         "importance": "298"
      }
      }, 
    {
      "type": "Feature",
      "geometry": {
        "type": "Point",
        "coordinates": [16.3691, 48.203]
      },
      "properties": {
         "id": "pmb15",
         "title": "Oper",
         "lat": "48.203",
         "lon": "16.3691",
         "timestamp": ["1930-04-04"],
         "importance": "1"
      }
      }, 
    {
      "type": "Feature",
      "geometry": {
        "type": "Point",
        "coordinates": [16.351111, 48.209583]
      },
      "properties": {
         "id": "pmb40",
         "title": "Theater in der Josefstadt",
         "lat": "48.209583",
         "lon": "16.351111",
         "timestamp": ["1930-01-29", "1930-03-18", "1930-07-09"],
         "importance": "3"
      }
      }, 
    {
      "type": "Feature",
      "geometry": {
        "type": "Point",
        "coordinates": [16.379608025302, 48.204824018066]
      },
      "properties": {
         "id": "pmb575",
         "title": "Stadtpark",
         "lat": "48.204824018066",
         "lon": "16.379608025302",
         "timestamp": ["1930-05-02"],
         "importance": "1"
      }
      }, 
    {
      "type": "Feature",
      "geometry": {
        "type": "Point",
        "coordinates": [16.361139, 48.210333]
      },
      "properties": {
         "id": "pmb14",
         "title": "Burgtheater",
         "lat": "48.210333",
         "lon": "16.361139",
         "timestamp": ["1930-02-01", "1930-03-10", "1930-03-26", "1930-04-06", "1930-04-23", "1930-10-06", "1930-10-18", "1930-10-30", "1930-10-31", "1930-12-01", "1930-12-09", "1930-12-12"],
         "importance": "12"
      }
      }, 
    {
      "type": "Feature",
      "geometry": {
        "type": "Point",
        "coordinates": [16.37547, 48.2644]
      },
      "properties": {
         "id": "pmb90538",
         "title": "Neue Donau",
         "lat": "48.2644",
         "lon": "16.37547",
         "timestamp": ["1930-05-29", "1930-06-09"],
         "importance": "2"
      }
      }, 
    {
      "type": "Feature",
      "geometry": {
        "type": "Point",
        "coordinates": [16.36157, 48.20809]
      },
      "properties": {
         "id": "pmb103",
         "title": "Volksgarten",
         "lat": "48.20809",
         "lon": "16.36157",
         "timestamp": ["1930-09-10"],
         "importance": "1"
      }
      }, 
    {
      "type": "Feature",
      "geometry": {
        "type": "Point",
        "coordinates": [16.430054, 48.194558]
      },
      "properties": {
         "id": "pmb8",
         "title": "Prater",
         "lat": "48.194558",
         "lon": "16.430054",
         "timestamp": ["1930-06-08", "1930-06-11", "1930-06-15", "1930-07-01", "1930-07-02", "1930-09-16", "1930-09-18", "1930-10-06", "1930-10-19"],
         "importance": "9"
      }
      }, 
    {
      "type": "Feature",
      "geometry": {
        "type": "Point",
        "coordinates": [16.364351, 48.199478]
      },
      "properties": {
         "id": "pmb92603",
         "title": "Wiednertheater",
         "lat": "48.199478",
         "lon": "16.364351",
         "timestamp": ["1930-02-11", "1930-02-19", "1930-03-02", "1930-11-01"],
         "importance": "4"
      }
      }, 
    {
      "type": "Feature",
      "geometry": {
        "type": "Point",
        "coordinates": [16.31667, 48.23333]
      },
      "properties": {
         "id": "pmb68",
         "title": "XVIII., Währing",
         "lat": "48.23333",
         "lon": "16.31667",
         "timestamp": ["1930-11-30"],
         "importance": "1"
      }
      }, 
    {
      "type": "Feature",
      "geometry": {
        "type": "Point",
        "coordinates": [16.299116267833, 48.230916826952]
      },
      "properties": {
         "id": "pmb499",
         "title": "Dornbach",
         "lat": "48.230916826952",
         "lon": "16.299116267833",
         "timestamp": ["1930-11-30"],
         "importance": "1"
      }
      }, 
    {
      "type": "Feature",
      "geometry": {
        "type": "Point",
        "coordinates": [16.24801, 48.08509]
      },
      "properties": {
         "id": "pmb44413",
         "title": "Brühl",
         "lat": "48.08509",
         "lon": "16.24801",
         "timestamp": ["1930-06-14"],
         "importance": "1"
      }
      }, 
    {
      "type": "Feature",
      "geometry": {
        "type": "Point",
        "coordinates": [11.389534, 47.272569]
      },
      "properties": {
         "id": "pmb867",
         "title": "Innsbruck",
         "lat": "47.272569",
         "lon": "11.389534",
         "timestamp": ["1930-08-10"],
         "importance": "1"
      }
      }, 
    {
      "type": "Feature",
      "geometry": {
        "type": "Point",
        "coordinates": [15.93893, 47.67487]
      },
      "properties": {
         "id": "pmb50715",
         "title": "Gloggnitz",
         "lat": "47.67487",
         "lon": "15.93893",
         "timestamp": ["1930-05-12", "1930-11-28"],
         "importance": "2"
      }
      }, 
    {
      "type": "Feature",
      "geometry": {
        "type": "Point",
        "coordinates": [13.41053, 52.52437]
      },
      "properties": {
         "id": "pmb168",
         "title": "Berlin",
         "lat": "52.52437",
         "lon": "13.41053",
         "timestamp": ["1930-01-01", "1930-01-02", "1930-01-03", "1930-01-04", "1930-01-05", "1930-01-06", "1930-01-07", "1930-01-08", "1930-01-09", "1930-01-10", "1930-01-11", "1930-01-12", "1930-01-13", "1930-01-14", "1930-11-11", "1930-11-12", "1930-11-13", "1930-11-14", "1930-11-15", "1930-11-16", "1930-11-17", "1930-11-18", "1930-11-19", "1930-11-20"],
         "importance": "24"
      }
      }, 
    {
      "type": "Feature",
      "geometry": {
        "type": "Point",
        "coordinates": [16.23264, 48.00543]
      },
      "properties": {
         "id": "pmb662",
         "title": "Baden bei Wien",
         "lat": "48.00543",
         "lon": "16.23264",
         "timestamp": ["1930-06-24", "1930-06-29", "1930-11-28"],
         "importance": "3"
      }
      }, 
    {
      "type": "Feature",
      "geometry": {
        "type": "Point",
        "coordinates": [16.29101, 48.17547]
      },
      "properties": {
         "id": "pmb63",
         "title": "XIII., Hietzing",
         "lat": "48.17547",
         "lon": "16.29101",
         "timestamp": ["1930-02-02", "1930-06-26", "1930-07-03", "1930-08-12", "1930-08-22"],
         "importance": "5"
      }
      }, 
    {
      "type": "Feature",
      "geometry": {
        "type": "Point",
        "coordinates": [16.33255, 48.27617]
      },
      "properties": {
         "id": "pmb574",
         "title": "Kahlenberg",
         "lat": "48.27617",
         "lon": "16.33255",
         "timestamp": ["1930-05-04", "1930-05-18"],
         "importance": "2"
      }
      }, 
    {
      "type": "Feature",
      "geometry": {
        "type": "Point",
        "coordinates": [9.90126, 46.4955]
      },
      "properties": {
         "id": "pmb34946",
         "title": "Pontresina",
         "lat": "46.4955",
         "lon": "9.90126",
         "timestamp": ["1930-07-20", "1930-07-25", "1930-08-01", "1930-08-06"],
         "importance": "4"
      }
      }, 
    {
      "type": "Feature",
      "geometry": {
        "type": "Point",
        "coordinates": [9.84327, 46.49937]
      },
      "properties": {
         "id": "pmb1059",
         "title": "Sankt Moritz",
         "lat": "46.49937",
         "lon": "9.84327",
         "timestamp": ["1930-07-17", "1930-07-18", "1930-07-19", "1930-07-20", "1930-07-21", "1930-07-22", "1930-07-23", "1930-07-24", "1930-07-25", "1930-07-26", "1930-07-27", "1930-07-28", "1930-07-29", "1930-07-30", "1930-07-31", "1930-08-01", "1930-08-02", "1930-08-03", "1930-08-04", "1930-08-05", "1930-08-06", "1930-08-07", "1930-08-08", "1930-08-09", "1930-08-10"],
         "importance": "25"
      }
      }, 
    {
      "type": "Feature",
      "geometry": {
        "type": "Point",
        "coordinates": [10.08814, 46.30994]
      },
      "properties": {
         "id": "pmb90342",
         "title": "Bernina [Bezirk]",
         "lat": "46.30994",
         "lon": "10.08814",
         "timestamp": ["1930-08-06"],
         "importance": "1"
      }
      }, 
    {
      "type": "Feature",
      "geometry": {
        "type": "Point",
        "coordinates": [10.05823, 46.32441]
      },
      "properties": {
         "id": "pmb91514",
         "title": "Poschiavo",
         "lat": "46.32441",
         "lon": "10.05823",
         "timestamp": ["1930-08-06"],
         "importance": "1"
      }
      }, 
    {
      "type": "Feature",
      "geometry": {
        "type": "Point",
        "coordinates": [16.355191, 48.248422]
      },
      "properties": {
         "id": "pmb92292",
         "title": "Hohe Warte",
         "lat": "48.248422",
         "lon": "16.355191",
         "timestamp": ["1930-02-16", "1930-05-04"],
         "importance": "2"
      }
      }, 
    {
      "type": "Feature",
      "geometry": {
        "type": "Point",
        "coordinates": [16.369444, 48.203889]
      },
      "properties": {
         "id": "pmb29",
         "title": "Hotel Sacher",
         "lat": "48.203889",
         "lon": "16.369444",
         "timestamp": ["1930-12-02"],
         "importance": "1"
      }
      }, 
    {
      "type": "Feature",
      "geometry": {
        "type": "Point",
        "coordinates": [16.28921, 48.08605]
      },
      "properties": {
         "id": "pmb968",
         "title": "Mödling",
         "lat": "48.08605",
         "lon": "16.28921",
         "timestamp": ["1930-06-13", "1930-06-17"],
         "importance": "2"
      }
      }, 
    {
      "type": "Feature",
      "geometry": {
        "type": "Point",
        "coordinates": [16.3747466, 48.2104057]
      },
      "properties": {
         "id": "pmb705",
         "title": "Zur Linde",
         "lat": "48.2104057",
         "lon": "16.3747466",
         "timestamp": ["1930-09-12", "1930-10-09", "1930-10-31", "1930-11-08", "1930-11-25"],
         "importance": "5"
      }
      }, 
    {
      "type": "Feature",
      "geometry": {
        "type": "Point",
        "coordinates": [16.3528, 48.2158]
      },
      "properties": {
         "id": "pmb546",
         "title": "Altes Allgemeines Krankenhaus",
         "lat": "48.2158",
         "lon": "16.3528",
         "timestamp": ["1930-03-07"],
         "importance": "1"
      }
      }, 
    {
      "type": "Feature",
      "geometry": {
        "type": "Point",
        "coordinates": [16.36714, 48.19198]
      },
      "properties": {
         "id": "pmb54",
         "title": "IV., Wieden",
         "lat": "48.19198",
         "lon": "16.36714",
         "timestamp": ["1930-03-18", "1930-03-20", "1930-08-22", "1930-09-18"],
         "importance": "4"
      }
      }, 
    {
      "type": "Feature",
      "geometry": {
        "type": "Point",
        "coordinates": [13.382222, 52.524444]
      },
      "properties": {
         "id": "pmb3",
         "title": "Deutsches Theater Berlin",
         "lat": "52.524444",
         "lon": "13.382222",
         "timestamp": ["1930-01-05"],
         "importance": "1"
      }
      }, 
    {
      "type": "Feature",
      "geometry": {
        "type": "Point",
        "coordinates": [13.392222, 52.513611]
      },
      "properties": {
         "id": "pmb143",
         "title": "Schauspielhaus Berlin",
         "lat": "52.513611",
         "lon": "13.392222",
         "timestamp": ["1930-01-04", "1930-01-11"],
         "importance": "2"
      }
      }, 
    {
      "type": "Feature",
      "geometry": {
        "type": "Point",
        "coordinates": [16.32586, 48.17192]
      },
      "properties": {
         "id": "pmb62",
         "title": "XII., Meidling",
         "lat": "48.17192",
         "lon": "16.32586",
         "timestamp": ["1930-09-12"],
         "importance": "1"
      }
      }, 
    {
      "type": "Feature",
      "geometry": {
        "type": "Point",
        "coordinates": [16.16265, 48.19512]
      },
      "properties": {
         "id": "pmb91552",
         "title": "Purkersdorf",
         "lat": "48.19512",
         "lon": "16.16265",
         "timestamp": ["1930-04-21"],
         "importance": "1"
      }
      }, 
    {
      "type": "Feature",
      "geometry": {
        "type": "Point",
        "coordinates": [16.337778, 48.196667]
      },
      "properties": {
         "id": "pmb184918",
         "title": "Westbahnhof",
         "lat": "48.196667",
         "lon": "16.337778",
         "timestamp": ["1930-01-17", "1930-06-05", "1930-07-05", "1930-07-16", "1930-09-12", "1930-10-23"],
         "importance": "6"
      }
      }, 
    {
      "type": "Feature",
      "geometry": {
        "type": "Point",
        "coordinates": [16.02433, 48.17936]
      },
      "properties": {
         "id": "pmb11543",
         "title": "Rekawinkel",
         "lat": "48.17936",
         "lon": "16.02433",
         "timestamp": ["1930-06-09"],
         "importance": "1"
      }
      }, 
    {
      "type": "Feature",
      "geometry": {
        "type": "Point",
        "coordinates": [16.3566, 48.205142]
      },
      "properties": {
         "id": "pmb20",
         "title": "Volkstheater",
         "lat": "48.205142",
         "lon": "16.3566",
         "timestamp": ["1930-01-30", "1930-04-15", "1930-05-15", "1930-06-06", "1930-06-07", "1930-07-03", "1930-10-01", "1930-10-08", "1930-12-27"],
         "importance": "9"
      }
      }, 
    {
      "type": "Feature",
      "geometry": {
        "type": "Point",
        "coordinates": [16.3, 48.21667]
      },
      "properties": {
         "id": "pmb66",
         "title": "XVI., Ottakring",
         "lat": "48.21667",
         "lon": "16.3",
         "timestamp": ["1930-02-09"],
         "importance": "1"
      }
      }, 
    {
      "type": "Feature",
      "geometry": {
        "type": "Point",
        "coordinates": [16.3611, 48.2261]
      },
      "properties": {
         "id": "pmb186715",
         "title": "Franz-Josefs-Bahnhof",
         "lat": "48.2261",
         "lon": "16.3611",
         "timestamp": ["1930-07-01"],
         "importance": "1"
      }
      }, 
    {
      "type": "Feature",
      "geometry": {
        "type": "Point",
        "coordinates": [16.3576, 48.21071]
      },
      "properties": {
         "id": "pmb373",
         "title": "Rathaus",
         "lat": "48.21071",
         "lon": "16.3576",
         "timestamp": ["1930-10-31"],
         "importance": "1"
      }
      }, 
    {
      "type": "Feature",
      "geometry": {
        "type": "Point",
        "coordinates": [16.367998, 48.203159]
      },
      "properties": {
         "id": "pmb185989",
         "title": "Opernrestaurant",
         "lat": "48.203159",
         "lon": "16.367998",
         "timestamp": ["1930-07-12"],
         "importance": "1"
      }
      }, 
    {
      "type": "Feature",
      "geometry": {
        "type": "Point",
        "coordinates": [16.3067984, 48.1806202]
      },
      "properties": {
         "id": "pmb92518",
         "title": "Schlosspark Schönbrunn",
         "lat": "48.1806202",
         "lon": "16.3067984",
         "timestamp": ["1930-04-25", "1930-05-17", "1930-06-05", "1930-07-15", "1930-09-26", "1930-10-04", "1930-12-07"],
         "importance": "7"
      }
      }, 
    {
      "type": "Feature",
      "geometry": {
        "type": "Point",
        "coordinates": [16.401694, 48.213944]
      },
      "properties": {
         "id": "pmb47",
         "title": "Schweizerhaus",
         "lat": "48.213944",
         "lon": "16.401694",
         "timestamp": ["1930-07-01", "1930-07-02"],
         "importance": "2"
      }
      }, 
    {
      "type": "Feature",
      "geometry": {
        "type": "Point",
        "coordinates": [16.402222, 48.214722]
      },
      "properties": {
         "id": "pmb685",
         "title": "Wurstelprater",
         "lat": "48.214722",
         "lon": "16.402222",
         "timestamp": ["1930-06-08", "1930-07-01"],
         "importance": "2"
      }
      }, 
    {
      "type": "Feature",
      "geometry": {
        "type": "Point",
        "coordinates": [16.25, 47.8]
      },
      "properties": {
         "id": "pmb587",
         "title": "Wiener Neustadt",
         "lat": "47.8",
         "lon": "16.25",
         "timestamp": ["1930-11-28"],
         "importance": "1"
      }
      }, 
    {
      "type": "Feature",
      "geometry": {
        "type": "Point",
        "coordinates": [16.35754, 48.05729]
      },
      "properties": {
         "id": "pmb2520",
         "title": "Laxenburg",
         "lat": "48.05729",
         "lon": "16.35754",
         "timestamp": ["1930-06-19", "1930-06-24"],
         "importance": "2"
      }
      }, 
    {
      "type": "Feature",
      "geometry": {
        "type": "Point",
        "coordinates": [16.06409, 48.33327]
      },
      "properties": {
         "id": "pmb41239",
         "title": "Tulln an der Donau",
         "lat": "48.33327",
         "lon": "16.06409",
         "timestamp": ["1930-06-09"],
         "importance": "1"
      }
      }, 
    {
      "type": "Feature",
      "geometry": {
        "type": "Point",
        "coordinates": [16.36471, 48.200556]
      },
      "properties": {
         "id": "pmb97",
         "title": "Zum Weingartl",
         "lat": "48.200556",
         "lon": "16.36471",
         "timestamp": ["1930-01-16", "1930-01-18", "1930-01-24", "1930-01-27", "1930-02-04", "1930-02-11", "1930-02-17", "1930-02-19", "1930-03-02", "1930-03-19", "1930-04-25", "1930-06-03", "1930-08-15", "1930-10-21", "1930-11-07"],
         "importance": "15"
      }
      }, 
    {
      "type": "Feature",
      "geometry": {
        "type": "Point",
        "coordinates": [16.37312, 48.20122]
      },
      "properties": {
         "id": "pmb43",
         "title": "Café Imperial",
         "lat": "48.20122",
         "lon": "16.37312",
         "timestamp": ["1930-01-30", "1930-02-02", "1930-02-12", "1930-02-14", "1930-02-21", "1930-02-26", "1930-03-07", "1930-03-10", "1930-04-02", "1930-04-06", "1930-04-15", "1930-05-25", "1930-06-07", "1930-06-17", "1930-08-17", "1930-09-17", "1930-09-19", "1930-09-26", "1930-10-03", "1930-11-04", "1930-11-05", "1930-12-23", "1930-12-27"],
         "importance": "23"
      }
      }, 
    {
      "type": "Feature",
      "geometry": {
        "type": "Point",
        "coordinates": [16.371211, 48.206416]
      },
      "properties": {
         "id": "pmb96",
         "title": "Meissl & Schadn",
         "lat": "48.206416",
         "lon": "16.371211",
         "timestamp": ["1930-03-25", "1930-04-04", "1930-04-20", "1930-04-23", "1930-04-30", "1930-05-01", "1930-05-16", "1930-05-21", "1930-05-22", "1930-05-24", "1930-05-25", "1930-05-29", "1930-07-11", "1930-10-22", "1930-12-28"],
         "importance": "15"
      }
      }, 
    {
      "type": "Feature",
      "geometry": {
        "type": "Point",
        "coordinates": [16.34706, 48.21126]
      },
      "properties": {
         "id": "pmb58",
         "title": "VIII., Josefstadt",
         "lat": "48.21126",
         "lon": "16.34706",
         "timestamp": ["1930-01-29", "1930-03-18", "1930-07-09", "1930-10-01", "1930-12-29"],
         "importance": "5"
      }
      }, 
    {
      "type": "Feature",
      "geometry": {
        "type": "Point",
        "coordinates": [16.333568462613, 48.235119783861]
      },
      "properties": {
         "id": "pmb113",
         "title": "Türkenschanzpark",
         "lat": "48.235119783861",
         "lon": "16.333568462613",
         "timestamp": ["1930-05-02", "1930-05-04", "1930-06-15", "1930-06-27", "1930-08-15", "1930-08-19", "1930-10-13"],
         "importance": "7"
      }
      }, 
    {
      "type": "Feature",
      "geometry": {
        "type": "Point",
        "coordinates": [16.276509500872, 48.241960480337]
      },
      "properties": {
         "id": "pmb176",
         "title": "Schwarzenbergpark",
         "lat": "48.241960480337",
         "lon": "16.276509500872",
         "timestamp": ["1930-04-20", "1930-11-30"],
         "importance": "2"
      }
      }, 
    {
      "type": "Feature",
      "geometry": {
        "type": "Point",
        "coordinates": [16.300034240016, 48.246838181084]
      },
      "properties": {
         "id": "pmb169",
         "title": "Pötzleinsdorf",
         "lat": "48.246838181084",
         "lon": "16.300034240016",
         "timestamp": ["1930-04-20", "1930-05-30", "1930-06-20", "1930-06-22", "1930-07-02", "1930-08-22", "1930-09-11"],
         "importance": "7"
      }
      }, 
    {
      "type": "Feature",
      "geometry": {
        "type": "Point",
        "coordinates": [15.8241, 47.64224]
      },
      "properties": {
         "id": "pmb189",
         "title": "Semmering",
         "lat": "47.64224",
         "lon": "15.8241",
         "timestamp": ["1930-05-08", "1930-05-09", "1930-05-10", "1930-05-11", "1930-05-12", "1930-05-13"],
         "importance": "6"
      }
      }, 
    {
      "type": "Feature",
      "geometry": {
        "type": "Point",
        "coordinates": [16.349167, 48.216139]
      },
      "properties": {
         "id": "pmb182710",
         "title": "Allgemeine Poliklinik (neues Gebäude)",
         "lat": "48.216139",
         "lon": "16.349167",
         "timestamp": ["1930-11-01"],
         "importance": "1"
      }
      }, 
    {
      "type": "Feature",
      "geometry": {
        "type": "Point",
        "coordinates": [16.342154562605, 48.250804274577]
      },
      "properties": {
         "id": "pmb225",
         "title": "Grinzing",
         "lat": "48.250804274577",
         "lon": "16.342154562605",
         "timestamp": ["1930-05-18"],
         "importance": "1"
      }
      }, 
    {
      "type": "Feature",
      "geometry": {
        "type": "Point",
        "coordinates": [16.28610371233, 48.233119188484]
      },
      "properties": {
         "id": "pmb170",
         "title": "Neuwaldegg",
         "lat": "48.233119188484",
         "lon": "16.28610371233",
         "timestamp": ["1930-05-30", "1930-06-20"],
         "importance": "2"
      }
      }, 
    {
      "type": "Feature",
      "geometry": {
        "type": "Point",
        "coordinates": [16.2652, 48.080769]
      },
      "properties": {
         "id": "pmb192771",
         "title": "Hotel Hajek",
         "lat": "48.080769",
         "lon": "16.2652",
         "timestamp": ["1930-06-13"],
         "importance": "1"
      }
      }, 
    {
      "type": "Feature",
      "geometry": {
        "type": "Point",
        "coordinates": [16.209444, 48.327778]
      },
      "properties": {
         "id": "pmb1246",
         "title": "St. Andrä-Wördern",
         "lat": "48.327778",
         "lon": "16.209444",
         "timestamp": ["1930-06-09"],
         "importance": "1"
      }
      }, 
    {
      "type": "Feature",
      "geometry": {
        "type": "Point",
        "coordinates": [16.43898217221, 48.19252071812]
      },
      "properties": {
         "id": "pmb185",
         "title": "Lusthaus",
         "lat": "48.19252071812",
         "lon": "16.43898217221",
         "timestamp": ["1930-05-29", "1930-09-16", "1930-09-18", "1930-10-06", "1930-10-19", "1930-12-05"],
         "importance": "6"
      }
      }, 
    {
      "type": "Feature",
      "geometry": {
        "type": "Point",
        "coordinates": [15.8634, 47.69209]
      },
      "properties": {
         "id": "pmb948",
         "title": "Payerbach",
         "lat": "47.69209",
         "lon": "15.8634",
         "timestamp": ["1930-05-12"],
         "importance": "1"
      }
      }, 
    {
      "type": "Feature",
      "geometry": {
        "type": "Point",
        "coordinates": [16.331527, 48.23428]
      },
      "properties": {
         "id": "pmb74",
         "title": "Restauration Türkenschanz-Park",
         "lat": "48.23428",
         "lon": "16.331527",
         "timestamp": ["1930-06-27"],
         "importance": "1"
      }
      }, 
    {
      "type": "Feature",
      "geometry": {
        "type": "Point",
        "coordinates": [16.19956, 48.11646]
      },
      "properties": {
         "id": "pmb4845",
         "title": "Kaltenleutgeben",
         "lat": "48.11646",
         "lon": "16.19956",
         "timestamp": ["1930-04-13"],
         "importance": "1"
      }
      }, 
    {
      "type": "Feature",
      "geometry": {
        "type": "Point",
        "coordinates": [16.308333, 48.178056]
      },
      "properties": {
         "id": "pmb368",
         "title": "Gloriette",
         "lat": "48.178056",
         "lon": "16.308333",
         "timestamp": ["1930-06-05"],
         "importance": "1"
      }
      }, 
    {
      "type": "Feature",
      "geometry": {
        "type": "Point",
        "coordinates": [12.72872, 49.96115]
      },
      "properties": {
         "id": "pmb772",
         "title": "Marienbad",
         "lat": "49.96115",
         "lon": "12.72872",
         "timestamp": ["1930-08-27", "1930-08-28", "1930-09-03"],
         "importance": "3"
      }
      }, 
    {
      "type": "Feature",
      "geometry": {
        "type": "Point",
        "coordinates": [13.38832, 52.51699]
      },
      "properties": {
         "id": "pmb216",
         "title": "Unter den Linden",
         "lat": "52.51699",
         "lon": "13.38832",
         "timestamp": ["1930-01-11"],
         "importance": "1"
      }
      }, 
    {
      "type": "Feature",
      "geometry": {
        "type": "Point",
        "coordinates": [13.26586, 52.48338]
      },
      "properties": {
         "id": "pmb129",
         "title": "Grunewald",
         "lat": "52.48338",
         "lon": "13.26586",
         "timestamp": ["1930-01-05", "1930-01-08", "1930-01-11"],
         "importance": "3"
      }
      }, 
    {
      "type": "Feature",
      "geometry": {
        "type": "Point",
        "coordinates": [16.338015, 48.234046]
      },
      "properties": {
         "id": "pmb185644",
         "title": "Peregringasse 4",
         "lat": "48.234046",
         "lon": "16.338015",
         "timestamp": ["1930-10-29"],
         "importance": "1"
      }
      }, 
    {
      "type": "Feature",
      "geometry": {
        "type": "Point",
        "coordinates": [16.369913, 48.208613]
      },
      "properties": {
         "id": "pmb39599",
         "title": "Graben",
         "lat": "48.208613",
         "lon": "16.369913",
         "timestamp": ["1930-12-21"],
         "importance": "1"
      }
      }, 
    {
      "type": "Feature",
      "geometry": {
        "type": "Point",
        "coordinates": [16.37312, 48.20122]
      },
      "properties": {
         "id": "pmb126",
         "title": "Hotel Imperial",
         "lat": "48.20122",
         "lon": "16.37312",
         "timestamp": ["1930-02-14", "1930-03-07", "1930-06-17", "1930-08-17", "1930-09-19", "1930-09-26"],
         "importance": "6"
      }
      }, 
    {
      "type": "Feature",
      "geometry": {
        "type": "Point",
        "coordinates": [16.347492624475, 48.216264483348]
      },
      "properties": {
         "id": "pmb89",
         "title": "Sanatorium Loew",
         "lat": "48.216264483348",
         "lon": "16.347492624475",
         "timestamp": ["1930-10-26"],
         "importance": "1"
      }
      }, 
    {
      "type": "Feature",
      "geometry": {
        "type": "Point",
        "coordinates": [16.287997, 48.217079]
      },
      "properties": {
         "id": "pmb92374",
         "title": "Liebhartstal",
         "lat": "48.217079",
         "lon": "16.287997",
         "timestamp": ["1930-09-14"],
         "importance": "1"
      }
      }, 
    {
      "type": "Feature",
      "geometry": {
        "type": "Point",
        "coordinates": [16.33787, 48.19653]
      },
      "properties": {
         "id": "pmb438",
         "title": "Westbahnhof-Restaurant",
         "lat": "48.19653",
         "lon": "16.33787",
         "timestamp": ["1930-05-17", "1930-05-18", "1930-06-05"],
         "importance": "3"
      }
      }, 
    {
      "type": "Feature",
      "geometry": {
        "type": "Point",
        "coordinates": [16.1374028, 48.1008317]
      },
      "properties": {
         "id": "pmb12181",
         "title": "Sulz im Wienerwald",
         "lat": "48.1008317",
         "lon": "16.1374028",
         "timestamp": ["1930-04-13"],
         "importance": "1"
      }
      }, 
    {
      "type": "Feature",
      "geometry": {
        "type": "Point",
        "coordinates": [16.365508, 48.200364]
      },
      "properties": {
         "id": "pmb7",
         "title": "Secession",
         "lat": "48.200364",
         "lon": "16.365508",
         "timestamp": ["1930-02-14"],
         "importance": "1"
      }
      }, 
    {
      "type": "Feature",
      "geometry": {
        "type": "Point",
        "coordinates": [13.3924, 52.5048]
      },
      "properties": {
         "id": "pmb738",
         "title": "Berliner Theater",
         "lat": "52.5048",
         "lon": "13.3924",
         "timestamp": ["1930-01-03"],
         "importance": "1"
      }
      }, 
    {
      "type": "Feature",
      "geometry": {
        "type": "Point",
        "coordinates": [13.398353, 52.52081]
      },
      "properties": {
         "id": "pmb201052",
         "title": "Alte Nationalgalerie",
         "lat": "52.52081",
         "lon": "13.398353",
         "timestamp": ["1930-01-03"],
         "importance": "1"
      }
      }, 
    {
      "type": "Feature",
      "geometry": {
        "type": "Point",
        "coordinates": [13.366666, 52.516666]
      },
      "properties": {
         "id": "pmb36914",
         "title": "Tiergarten",
         "lat": "52.516666",
         "lon": "13.366666",
         "timestamp": ["1930-01-01"],
         "importance": "1"
      }
      }, 
    {
      "type": "Feature",
      "geometry": {
        "type": "Point",
        "coordinates": [16.328822485916, 48.231291362993]
      },
      "properties": {
         "id": "pmb291",
         "title": "Gersthof",
         "lat": "48.231291362993",
         "lon": "16.328822485916",
         "timestamp": ["1930-04-27", "1930-09-28"],
         "importance": "2"
      }
      }, 
    {
      "type": "Feature",
      "geometry": {
        "type": "Point",
        "coordinates": [9.5215, 46.8578]
      },
      "properties": {
         "id": "pmb2448",
         "title": "Chur",
         "lat": "46.8578",
         "lon": "9.5215",
         "timestamp": ["1930-07-17"],
         "importance": "1"
      }
      }, 
    {
      "type": "Feature",
      "geometry": {
        "type": "Point",
        "coordinates": [16.322222222222, 48.263611111111]
      },
      "properties": {
         "id": "pmb194903",
         "title": "Am Kobenzl",
         "lat": "48.263611111111",
         "lon": "16.322222222222",
         "timestamp": ["1930-05-04", "1930-05-18", "1930-06-18", "1930-08-24", "1930-11-02"],
         "importance": "5"
      }
      }, 
    {
      "type": "Feature",
      "geometry": {
        "type": "Point",
        "coordinates": [16.41575606941028, 48.20508551408161]
      },
      "properties": {
         "id": "pmb53159",
         "title": "Hauptallee",
         "lat": "48.20508551408161",
         "lon": "16.41575606941028",
         "timestamp": ["1930-06-08", "1930-09-23", "1930-10-19"],
         "importance": "3"
      }
      }, 
    {
      "type": "Feature",
      "geometry": {
        "type": "Point",
        "coordinates": [16.2911, 48.2553]
      },
      "properties": {
         "id": "pmb242",
         "title": "Salmannsdorf",
         "lat": "48.2553",
         "lon": "16.2911",
         "timestamp": ["1930-06-20", "1930-06-22"],
         "importance": "2"
      }
      }, 
    {
      "type": "Feature",
      "geometry": {
        "type": "Point",
        "coordinates": [11.39525, 47.26839]
      },
      "properties": {
         "id": "pmb41093",
         "title": "Hofkirche",
         "lat": "47.26839",
         "lon": "11.39525",
         "timestamp": ["1930-08-10"],
         "importance": "1"
      }
      }, 
    {
      "type": "Feature",
      "geometry": {
        "type": "Point",
        "coordinates": [10.56679, 47.12575]
      },
      "properties": {
         "id": "pmb91111",
         "title": "Landeck",
         "lat": "47.12575",
         "lon": "10.56679",
         "timestamp": ["1930-08-10"],
         "importance": "1"
      }
      }, 
    {
      "type": "Feature",
      "geometry": {
        "type": "Point",
        "coordinates": [11.39719, 47.27153]
      },
      "properties": {
         "id": "pmb231579",
         "title": "Hofgarten [Innsbruck]",
         "lat": "47.27153",
         "lon": "11.39719",
         "timestamp": ["1930-08-10"],
         "importance": "1"
      }
      }, 
    {
      "type": "Feature",
      "geometry": {
        "type": "Point",
        "coordinates": [16.28466, 48.17032]
      },
      "properties": {
         "id": "pmb91784",
         "title": "Speising",
         "lat": "48.17032",
         "lon": "16.28466",
         "timestamp": ["1930-06-26"],
         "importance": "1"
      }
      }, 
    {
      "type": "Feature",
      "geometry": {
        "type": "Point",
        "coordinates": [16.268889, 48.150556]
      },
      "properties": {
         "id": "pmb7728",
         "title": "Mauer",
         "lat": "48.150556",
         "lon": "16.268889",
         "timestamp": ["1930-04-13"],
         "importance": "1"
      }
      }, 
    {
      "type": "Feature",
      "geometry": {
        "type": "Point",
        "coordinates": [13.318058, 52.511709]
      },
      "properties": {
         "id": "pmb334",
         "title": "Schiller-Theater",
         "lat": "52.511709",
         "lon": "13.318058",
         "timestamp": ["1930-11-11", "1930-11-16"],
         "importance": "2"
      }
      }, 
    {
      "type": "Feature",
      "geometry": {
        "type": "Point",
        "coordinates": [16.30627, 48.2435]
      },
      "properties": {
         "id": "pmb147205",
         "title": "Zum weißen Lamm",
         "lat": "48.2435",
         "lon": "16.30627",
         "timestamp": ["1930-05-30", "1930-06-20"],
         "importance": "2"
      }
      }, 
    {
      "type": "Feature",
      "geometry": {
        "type": "Point",
        "coordinates": [16.33472, 48.2304]
      },
      "properties": {
         "id": "pmb168940",
         "title": "Edmund-Weiß-Gasse 7",
         "lat": "48.2304",
         "lon": "16.33472",
         "timestamp": ["1930-10-23"],
         "importance": "1"
      }
      }, 
    {
      "type": "Feature",
      "geometry": {
        "type": "Point",
        "coordinates": [15.86924, 47.64168]
      },
      "properties": {
         "id": "pmb7390",
         "title": "Maria Schutz",
         "lat": "47.64168",
         "lon": "15.86924",
         "timestamp": ["1930-05-12"],
         "importance": "1"
      }
      }, 
    {
      "type": "Feature",
      "geometry": {
        "type": "Point",
        "coordinates": [13.360365, 52.498452]
      },
      "properties": {
         "id": "pmb233777",
         "title": "Bülowstraße 90",
         "lat": "52.498452",
         "lon": "13.360365",
         "timestamp": ["1930-01-07", "1930-01-10"],
         "importance": "2"
      }
      }, 
    {
      "type": "Feature",
      "geometry": {
        "type": "Point",
        "coordinates": [16.377197811369, 48.200771836002]
      },
      "properties": {
         "id": "pmb240",
         "title": "Konzerthaus",
         "lat": "48.200771836002",
         "lon": "16.377197811369",
         "timestamp": ["1930-04-02"],
         "importance": "1"
      }
      }, 
    {
      "type": "Feature",
      "geometry": {
        "type": "Point",
        "coordinates": [16.00249, 48.204892]
      },
      "properties": {
         "id": "pmb92351",
         "title": "Kronstein",
         "lat": "48.204892",
         "lon": "16.00249",
         "timestamp": ["1930-06-09"],
         "importance": "1"
      }
      }, 
    {
      "type": "Feature",
      "geometry": {
        "type": "Point",
        "coordinates": [16.353889, 48.1975]
      },
      "properties": {
         "id": "pmb52023",
         "title": "Apollo-Theater [Wien]",
         "lat": "48.1975",
         "lon": "16.353889",
         "timestamp": ["1930-01-24", "1930-03-24", "1930-04-25", "1930-06-03", "1930-10-21", "1930-11-07"],
         "importance": "6"
      }
      }, 
    {
      "type": "Feature",
      "geometry": {
        "type": "Point",
        "coordinates": [15.81667, 47.65]
      },
      "properties": {
         "id": "pmb91482",
         "title": "Pinkenkogel",
         "lat": "47.65",
         "lon": "15.81667",
         "timestamp": ["1930-05-11"],
         "importance": "1"
      }
      }, 
    {
      "type": "Feature",
      "geometry": {
        "type": "Point",
        "coordinates": [15.827286, 47.640258]
      },
      "properties": {
         "id": "pmb236041",
         "title": "Hochstraße [Semmering]",
         "lat": "47.640258",
         "lon": "15.827286",
         "timestamp": ["1930-05-09"],
         "importance": "1"
      }
      }, 
    {
      "type": "Feature",
      "geometry": {
        "type": "Point",
        "coordinates": [15.83, 47.647222]
      },
      "properties": {
         "id": "pmb413",
         "title": "Südbahnhotel [Semmering]",
         "lat": "47.647222",
         "lon": "15.83",
         "timestamp": ["1930-05-08", "1930-05-09", "1930-05-10", "1930-05-11", "1930-05-12", "1930-05-13"],
         "importance": "6"
      }
      }, 
    {
      "type": "Feature",
      "geometry": {
        "type": "Point",
        "coordinates": [16.3957, 48.21766]
      },
      "properties": {
         "id": "pmb1209",
         "title": "Lustspieltheater [Wien]",
         "lat": "48.21766",
         "lon": "16.3957",
         "timestamp": ["1930-08-19", "1930-10-19", "1930-11-08"],
         "importance": "3"
      }
      }, 
    {
      "type": "Feature",
      "geometry": {
        "type": "Point",
        "coordinates": [16.241739, 48.090788]
      },
      "properties": {
         "id": "pmb44510",
         "title": "Hotel Radetzky",
         "lat": "48.090788",
         "lon": "16.241739",
         "timestamp": ["1930-06-05"],
         "importance": "1"
      }
      }, 
    {
      "type": "Feature",
      "geometry": {
        "type": "Point",
        "coordinates": [16.263145, 48.077197]
      },
      "properties": {
         "id": "pmb237565",
         "title": "Meiereiwiese [Mödling]",
         "lat": "48.077197",
         "lon": "16.263145",
         "timestamp": ["1930-06-13"],
         "importance": "1"
      }
      }, 
    {
      "type": "Feature",
      "geometry": {
        "type": "Point",
        "coordinates": [16.33641, 48.23362]
      },
      "properties": {
         "id": "pmb235132",
         "title": "Türkenschanzstraße 48",
         "lat": "48.23362",
         "lon": "16.33641",
         "timestamp": ["1930-02-10", "1930-04-27", "1930-05-31", "1930-06-16"],
         "importance": "4"
      }
      }, 
    {
      "type": "Feature",
      "geometry": {
        "type": "Point",
        "coordinates": [15.792916, 47.663198]
      },
      "properties": {
         "id": "pmb250",
         "title": "Orthof",
         "lat": "47.663198",
         "lon": "15.792916",
         "timestamp": ["1930-05-12"],
         "importance": "1"
      }
      }, 
    {
      "type": "Feature",
      "geometry": {
        "type": "Point",
        "coordinates": [16.33494, 48.23365]
      },
      "properties": {
         "id": "pmb235251",
         "title": "Hasenauerstraße 59",
         "lat": "48.23365",
         "lon": "16.33494",
         "timestamp": ["1930-04-27"],
         "importance": "1"
      }
      }, 
    {
      "type": "Feature",
      "geometry": {
        "type": "Point",
        "coordinates": [16.296768550115, 48.248935842869]
      },
      "properties": {
         "id": "pmb243",
         "title": "Sommerhaidenweg",
         "lat": "48.248935842869",
         "lon": "16.296768550115",
         "timestamp": ["1930-01-19", "1930-03-09"],
         "importance": "2"
      }
      }, 
    {
      "type": "Feature",
      "geometry": {
        "type": "Point",
        "coordinates": [16.35689, 48.21787]
      },
      "properties": {
         "id": "pmb232768",
         "title": "Beethovengasse 6",
         "lat": "48.21787",
         "lon": "16.35689",
         "timestamp": ["1930-01-17", "1930-01-24", "1930-02-07", "1930-02-14", "1930-02-25", "1930-03-07", "1930-03-14", "1930-03-26", "1930-04-25", "1930-05-23", "1930-06-03"],
         "importance": "11"
      }
      }, 
    {
      "type": "Feature",
      "geometry": {
        "type": "Point",
        "coordinates": [15.824188, 47.645877]
      },
      "properties": {
         "id": "pmb200897",
         "title": "Meiereiweg",
         "lat": "47.645877",
         "lon": "15.824188",
         "timestamp": ["1930-05-09"],
         "importance": "1"
      }
      }, 
    {
      "type": "Feature",
      "geometry": {
        "type": "Point",
        "coordinates": [16.370766, 48.208037]
      },
      "properties": {
         "id": "pmb236271",
         "title": "E. Braun & Co., Hof-Wäschelieferant",
         "lat": "48.208037",
         "lon": "16.370766",
         "timestamp": ["1930-06-27"],
         "importance": "1"
      }
      }, 
    {
      "type": "Feature",
      "geometry": {
        "type": "Point",
        "coordinates": [16.33716, 48.23188]
      },
      "properties": {
         "id": "pmb168815",
         "title": "Sternwartestraße 71",
         "lat": "48.23188",
         "lon": "16.33716",
         "timestamp": ["1930-01-15", "1930-01-16", "1930-01-17", "1930-01-18", "1930-01-19", "1930-01-20", "1930-01-21", "1930-01-22", "1930-01-23", "1930-01-24", "1930-01-25", "1930-01-26", "1930-01-27", "1930-01-28", "1930-01-29", "1930-01-30", "1930-01-31", "1930-02-01", "1930-02-02", "1930-02-03", "1930-02-04", "1930-02-05", "1930-02-06", "1930-02-07", "1930-02-08", "1930-02-09", "1930-02-10", "1930-02-11", "1930-02-12", "1930-02-13", "1930-02-14", "1930-02-15", "1930-02-16", "1930-02-17", "1930-02-18", "1930-02-19", "1930-02-20", "1930-02-21", "1930-02-22", "1930-02-23", "1930-02-24", "1930-02-25", "1930-02-26", "1930-02-27", "1930-02-28", "1930-03-01", "1930-03-02", "1930-03-03", "1930-03-04", "1930-03-05", "1930-03-06", "1930-03-07", "1930-03-08", "1930-03-09", "1930-03-10", "1930-03-11", "1930-03-12", "1930-03-13", "1930-03-14", "1930-03-15", "1930-03-16", "1930-03-17", "1930-03-18", "1930-03-19", "1930-03-20", "1930-03-21", "1930-03-22", "1930-03-23", "1930-03-24", "1930-03-25", "1930-03-26", "1930-03-27", "1930-03-28", "1930-03-29", "1930-03-30", "1930-03-31", "1930-04-01", "1930-04-02", "1930-04-03", "1930-04-04", "1930-04-05", "1930-04-06", "1930-04-07", "1930-04-08", "1930-04-09", "1930-04-10", "1930-04-11", "1930-04-12", "1930-04-13", "1930-04-14", "1930-04-15", "1930-04-16", "1930-04-17", "1930-04-18", "1930-04-19", "1930-04-20", "1930-04-21", "1930-04-22", "1930-04-23", "1930-04-24", "1930-04-25", "1930-04-26", "1930-04-27", "1930-04-28", "1930-04-29", "1930-04-30", "1930-05-01", "1930-05-02", "1930-05-03", "1930-05-04", "1930-05-05", "1930-05-06", "1930-05-07", "1930-05-08", "1930-05-13", "1930-05-14", "1930-05-15", "1930-05-16", "1930-05-17", "1930-05-18", "1930-05-19", "1930-05-20", "1930-05-21", "1930-05-22", "1930-05-23", "1930-05-24", "1930-05-25", "1930-05-26", "1930-05-27", "1930-05-28", "1930-05-29", "1930-05-30", "1930-05-31", "1930-06-01", "1930-06-02", "1930-06-03", "1930-06-04", "1930-06-05", "1930-06-06", "1930-06-07", "1930-06-08", "1930-06-09", "1930-06-10", "1930-06-11", "1930-06-12", "1930-06-13", "1930-06-14", "1930-06-15", "1930-06-16", "1930-06-17", "1930-06-18", "1930-06-19", "1930-06-20", "1930-06-21", "1930-06-22", "1930-06-23", "1930-06-24", "1930-06-25", "1930-06-26", "1930-06-27", "1930-06-28", "1930-06-29", "1930-06-30", "1930-07-01", "1930-07-02", "1930-07-03", "1930-07-04", "1930-07-05", "1930-07-06", "1930-07-07", "1930-07-08", "1930-07-09", "1930-07-10", "1930-07-11", "1930-07-12", "1930-07-13", "1930-07-14", "1930-07-15", "1930-07-16", "1930-07-31", "1930-08-11", "1930-08-12", "1930-08-13", "1930-08-14", "1930-08-15", "1930-08-16", "1930-08-17", "1930-08-18", "1930-08-19", "1930-08-20", "1930-08-21", "1930-08-22", "1930-08-23", "1930-08-24", "1930-08-25", "1930-09-09", "1930-09-10", "1930-09-11", "1930-09-12", "1930-09-13", "1930-09-14", "1930-09-15", "1930-09-16", "1930-09-17", "1930-09-18", "1930-09-19", "1930-09-20", "1930-09-21", "1930-09-22", "1930-09-23", "1930-09-24", "1930-09-25", "1930-09-26", "1930-09-27", "1930-09-28", "1930-09-29", "1930-09-30", "1930-10-01", "1930-10-02", "1930-10-03", "1930-10-04", "1930-10-05", "1930-10-06", "1930-10-07", "1930-10-09", "1930-10-10", "1930-10-11", "1930-10-12", "1930-10-13", "1930-10-14", "1930-10-15", "1930-10-16", "1930-10-17", "1930-10-18", "1930-10-19", "1930-10-20", "1930-10-21", "1930-10-22", "1930-10-23", "1930-10-24", "1930-10-25", "1930-10-26", "1930-10-27", "1930-10-28", "1930-10-29", "1930-10-30", "1930-10-31", "1930-11-01", "1930-11-02", "1930-11-03", "1930-11-04", "1930-11-05", "1930-11-06", "1930-11-07", "1930-11-08", "1930-11-09", "1930-11-10", "1930-11-21", "1930-11-22", "1930-11-23", "1930-11-24", "1930-11-25", "1930-11-26", "1930-11-27", "1930-11-28", "1930-11-29", "1930-11-30", "1930-12-01", "1930-12-02", "1930-12-03", "1930-12-04", "1930-12-05", "1930-12-06", "1930-12-07", "1930-12-08", "1930-12-09", "1930-12-10", "1930-12-11", "1930-12-12", "1930-12-13", "1930-12-14", "1930-12-15", "1930-12-16", "1930-12-17", "1930-12-18", "1930-12-19", "1930-12-20", "1930-12-21", "1930-12-22", "1930-12-23", "1930-12-24", "1930-12-25", "1930-12-26", "1930-12-27", "1930-12-28", "1930-12-29", "1930-12-30", "1930-12-31"],
         "importance": "298"
      }
      }, 
    {
      "type": "Feature",
      "geometry": {
        "type": "Point",
        "coordinates": [16.35137, 48.21346]
      },
      "properties": {
         "id": "pmb232800",
         "title": "Laudongasse 12",
         "lat": "48.21346",
         "lon": "16.35137",
         "timestamp": ["1930-01-17", "1930-01-26", "1930-01-31", "1930-02-07", "1930-02-18", "1930-02-28", "1930-03-18", "1930-04-08", "1930-04-18", "1930-04-29", "1930-05-20", "1930-06-06", "1930-06-11", "1930-06-20"],
         "importance": "14"
      }
      }, 
    {
      "type": "Feature",
      "geometry": {
        "type": "Point",
        "coordinates": [16.37438, 48.21099]
      },
      "properties": {
         "id": "pmb253",
         "title": "Imperialkino",
         "lat": "48.21099",
         "lon": "16.37438",
         "timestamp": ["1930-05-25"],
         "importance": "1"
      }
      }, 
    {
      "type": "Feature",
      "geometry": {
        "type": "Point",
        "coordinates": [9.81002, 46.47635]
      },
      "properties": {
         "id": "pmb90434",
         "title": "Champfèr",
         "lat": "46.47635",
         "lon": "9.81002",
         "timestamp": ["1930-08-01"],
         "importance": "1"
      }
      }, 
    {
      "type": "Feature",
      "geometry": {
        "type": "Point",
        "coordinates": [16.367725, 48.212284]
      },
      "properties": {
         "id": "pmb207301",
         "title": "Tiefer Graben 17",
         "lat": "48.212284",
         "lon": "16.367725",
         "timestamp": ["1930-01-17", "1930-01-31", "1930-02-21", "1930-03-14", "1930-04-08", "1930-04-11", "1930-04-18", "1930-04-22", "1930-04-29", "1930-05-02", "1930-05-20", "1930-05-27", "1930-06-03", "1930-06-10", "1930-06-11", "1930-06-17", "1930-06-20", "1930-06-24", "1930-06-29", "1930-07-01", "1930-07-04", "1930-07-08", "1930-07-09", "1930-09-23", "1930-10-07", "1930-10-21", "1930-12-30"],
         "importance": "27"
      }
      }, 
    {
      "type": "Feature",
      "geometry": {
        "type": "Point",
        "coordinates": [16.3133253, 48.1807992]
      },
      "properties": {
         "id": "pmb200859",
         "title": "Römische Ruine [Schlosspark Schönbrunn]",
         "lat": "48.1807992",
         "lon": "16.3133253",
         "timestamp": ["1930-05-17"],
         "importance": "1"
      }
      }, 
    {
      "type": "Feature",
      "geometry": {
        "type": "Point",
        "coordinates": [16.302778, 48.184722]
      },
      "properties": {
         "id": "pmb50941",
         "title": "Palmenhaus Schönbrunn",
         "lat": "48.184722",
         "lon": "16.302778",
         "timestamp": ["1930-04-25"],
         "importance": "1"
      }
      }, 
    {
      "type": "Feature",
      "geometry": {
        "type": "Point",
        "coordinates": [16.36171, 48.2116]
      },
      "properties": {
         "id": "pmb235784",
         "title": "Oppolzergasse 6",
         "lat": "48.2116",
         "lon": "16.36171",
         "timestamp": ["1930-02-04"],
         "importance": "1"
      }
      }, 
    {
      "type": "Feature",
      "geometry": {
        "type": "Point",
        "coordinates": [16.32092, 48.24077]
      },
      "properties": {
         "id": "pmb235218",
         "title": "Windmühlhöhe",
         "lat": "48.24077",
         "lon": "16.32092",
         "timestamp": ["1930-01-19"],
         "importance": "1"
      }
      }, 
    {
      "type": "Feature",
      "geometry": {
        "type": "Point",
        "coordinates": [16.353278, 48.237737]
      },
      "properties": {
         "id": "pmb234742",
         "title": "Reithlegasse 12",
         "lat": "48.237737",
         "lon": "16.353278",
         "timestamp": ["1930-04-11"],
         "importance": "1"
      }
      }, 
    {
      "type": "Feature",
      "geometry": {
        "type": "Point",
        "coordinates": [16.377117625773, 48.200254933632]
      },
      "properties": {
         "id": "pmb520",
         "title": "Akademietheater",
         "lat": "48.200254933632",
         "lon": "16.377117625773",
         "timestamp": ["1930-02-26"],
         "importance": "1"
      }
      }, 
    {
      "type": "Feature",
      "geometry": {
        "type": "Point",
        "coordinates": [16.3125, 48.186667]
      },
      "properties": {
         "id": "pmb44649",
         "title": "Schlosstheater Schönbrunn",
         "lat": "48.186667",
         "lon": "16.3125",
         "timestamp": ["1930-10-04"],
         "importance": "1"
      }
      }, 
    {
      "type": "Feature",
      "geometry": {
        "type": "Point",
        "coordinates": [16.387056, 48.196938]
      },
      "properties": {
         "id": "pmb169515",
         "title": "Eos-Kino",
         "lat": "48.196938",
         "lon": "16.387056",
         "timestamp": ["1930-12-21"],
         "importance": "1"
      }
      }, 
    {
      "type": "Feature",
      "geometry": {
        "type": "Point",
        "coordinates": [16.323609150468, 48.232758510924]
      },
      "properties": {
         "id": "pmb817",
         "title": "Gersthofer Straße",
         "lat": "48.232758510924",
         "lon": "16.323609150468",
         "timestamp": ["1930-10-12"],
         "importance": "1"
      }
      }, 
    {
      "type": "Feature",
      "geometry": {
        "type": "Point",
        "coordinates": [16.351435, 48.209524]
      },
      "properties": {
         "id": "pmb185511",
         "title": "Restaurant zum weißen Hahn",
         "lat": "48.209524",
         "lon": "16.351435",
         "timestamp": ["1930-01-29", "1930-03-06", "1930-03-12", "1930-03-14", "1930-03-18", "1930-03-21", "1930-03-24", "1930-03-27", "1930-04-07", "1930-04-13", "1930-04-17", "1930-05-27"],
         "importance": "12"
      }
      }, 
    {
      "type": "Feature",
      "geometry": {
        "type": "Point",
        "coordinates": [16.349979, 48.224251]
      },
      "properties": {
         "id": "pmb185452",
         "title": "Josef Pohl",
         "lat": "48.224251",
         "lon": "16.349979",
         "timestamp": ["1930-07-08"],
         "importance": "1"
      }
      }, 
    {
      "type": "Feature",
      "geometry": {
        "type": "Point",
        "coordinates": [16.354347, 48.227409]
      },
      "properties": {
         "id": "pmb190460",
         "title": "Mozart Lichtspiele",
         "lat": "48.227409",
         "lon": "16.354347",
         "timestamp": ["1930-11-24"],
         "importance": "1"
      }
      }, 
    {
      "type": "Feature",
      "geometry": {
        "type": "Point",
        "coordinates": [13.374444, 52.51]
      },
      "properties": {
         "id": "pmb245",
         "title": "Hotel Esplanade [Berlin]",
         "lat": "52.51",
         "lon": "13.374444",
         "timestamp": ["1930-01-01", "1930-01-01", "1930-01-02", "1930-01-03", "1930-01-03", "1930-01-04", "1930-01-04", "1930-01-05", "1930-01-05", "1930-01-06", "1930-01-06", "1930-01-07", "1930-01-07", "1930-01-08", "1930-01-09", "1930-01-10", "1930-01-10", "1930-01-11", "1930-01-12", "1930-01-13", "1930-01-13", "1930-01-14"],
         "importance": "22"
      }
      }, 
    {
      "type": "Feature",
      "geometry": {
        "type": "Point",
        "coordinates": [16.341487, 48.23557]
      },
      "properties": {
         "id": "pmb235677",
         "title": "Blaasstraße 12",
         "lat": "48.23557",
         "lon": "16.341487",
         "timestamp": ["1930-10-30"],
         "importance": "1"
      }
      }, 
    {
      "type": "Feature",
      "geometry": {
        "type": "Point",
        "coordinates": [16.37997, 48.21366]
      },
      "properties": {
         "id": "pmb584",
         "title": "Zentralkino",
         "lat": "48.21366",
         "lon": "16.37997",
         "timestamp": ["1930-08-17", "1930-10-31"],
         "importance": "2"
      }
      }, 
    {
      "type": "Feature",
      "geometry": {
        "type": "Point",
        "coordinates": [16.395442, 48.217178]
      },
      "properties": {
         "id": "pmb185318",
         "title": "Restauration Prochaska",
         "lat": "48.217178",
         "lon": "16.395442",
         "timestamp": ["1930-06-02", "1930-06-08", "1930-06-11", "1930-06-15", "1930-08-19"],
         "importance": "5"
      }
      }, 
    {
      "type": "Feature",
      "geometry": {
        "type": "Point",
        "coordinates": [13.3451, 52.4981]
      },
      "properties": {
         "id": "pmb185955",
         "title": "Scala",
         "lat": "52.4981",
         "lon": "13.3451",
         "timestamp": ["1930-01-10"],
         "importance": "1"
      }
      }, 
    {
      "type": "Feature",
      "geometry": {
        "type": "Point",
        "coordinates": [16.298524, 48.186887]
      },
      "properties": {
         "id": "pmb200825",
         "title": "Pension Schönbrunn",
         "lat": "48.186887",
         "lon": "16.298524",
         "timestamp": ["1930-03-02", "1930-12-07"],
         "importance": "2"
      }
      }, 
    {
      "type": "Feature",
      "geometry": {
        "type": "Point",
        "coordinates": [16.379436, 48.213062]
      },
      "properties": {
         "id": "pmb190479",
         "title": "Ferdinandskino",
         "lat": "48.213062",
         "lon": "16.379436",
         "timestamp": ["1930-02-17", "1930-05-07"],
         "importance": "2"
      }
      }, 
    {
      "type": "Feature",
      "geometry": {
        "type": "Point",
        "coordinates": [16.11437, 48.13047]
      },
      "properties": {
         "id": "pmb90889",
         "title": "Hochroterd",
         "lat": "48.13047",
         "lon": "16.11437",
         "timestamp": ["1930-04-13", "1930-05-25"],
         "importance": "2"
      }
      }, 
    {
      "type": "Feature",
      "geometry": {
        "type": "Point",
        "coordinates": [16.337998, 48.235859]
      },
      "properties": {
         "id": "pmb232834",
         "title": "Gregor-Mendel-Straße 50",
         "lat": "48.235859",
         "lon": "16.337998",
         "timestamp": ["1930-03-28", "1930-06-06", "1930-07-13"],
         "importance": "3"
      }
      }, 
    {
      "type": "Feature",
      "geometry": {
        "type": "Point",
        "coordinates": [16.367295, 48.207185]
      },
      "properties": {
         "id": "pmb235837",
         "title": "Reitschulgasse 2",
         "lat": "48.207185",
         "lon": "16.367295",
         "timestamp": ["1930-01-24", "1930-05-20"],
         "importance": "2"
      }
      }, 
    {
      "type": "Feature",
      "geometry": {
        "type": "Point",
        "coordinates": [13.36821, 52.50982]
      },
      "properties": {
         "id": "pmb233325",
         "title": "Herbert-von-Karajan-Straße 15",
         "lat": "52.50982",
         "lon": "13.36821",
         "timestamp": ["1930-01-01", "1930-01-02", "1930-01-04", "1930-01-07", "1930-01-08", "1930-01-10", "1930-01-12", "1930-01-13", "1930-01-14"],
         "importance": "9"
      }
      }, 
    {
      "type": "Feature",
      "geometry": {
        "type": "Point",
        "coordinates": [13.34291, 52.51456]
      },
      "properties": {
         "id": "pmb233576",
         "title": "Händelallee 8",
         "lat": "52.51456",
         "lon": "13.34291",
         "timestamp": ["1930-01-01", "1930-01-04"],
         "importance": "2"
      }
      }, 
    {
      "type": "Feature",
      "geometry": {
        "type": "Point",
        "coordinates": [13.364497, 52.497646]
      },
      "properties": {
         "id": "pmb237733",
         "title": "Bülowstraße 78",
         "lat": "52.497646",
         "lon": "13.364497",
         "timestamp": ["1930-01-05", "1930-01-08", "1930-01-09", "1930-01-12"],
         "importance": "4"
      }
      }, 
    {
      "type": "Feature",
      "geometry": {
        "type": "Point",
        "coordinates": [16.338016, 48.234091]
      },
      "properties": {
         "id": "pmb236372",
         "title": "Gregor-Mendel-Straße 34",
         "lat": "48.234091",
         "lon": "16.338016",
         "timestamp": ["1930-01-15", "1930-01-28", "1930-02-13", "1930-02-14", "1930-02-21", "1930-02-27", "1930-03-03", "1930-03-09", "1930-03-14", "1930-03-15", "1930-03-20", "1930-03-21", "1930-03-22", "1930-03-29", "1930-04-01", "1930-04-06", "1930-04-07", "1930-04-12", "1930-04-21", "1930-04-27", "1930-04-28", "1930-04-30", "1930-05-01", "1930-05-02", "1930-05-03", "1930-05-06", "1930-05-08", "1930-05-14", "1930-05-15", "1930-05-19", "1930-05-23", "1930-05-27", "1930-05-31", "1930-06-02", "1930-06-03", "1930-06-04", "1930-06-06", "1930-06-10", "1930-06-11", "1930-06-12", "1930-06-15", "1930-06-16", "1930-06-18", "1930-06-20", "1930-06-22", "1930-06-23", "1930-06-27", "1930-06-29", "1930-07-01"],
         "importance": "49"
      }
      }, 
    {
      "type": "Feature",
      "geometry": {
        "type": "Point",
        "coordinates": [16.37675, 48.20762]
      },
      "properties": {
         "id": "pmb235120",
         "title": "Schulerstraße 22",
         "lat": "48.20762",
         "lon": "16.37675",
         "timestamp": ["1930-04-08"],
         "importance": "1"
      }
      }, 
    {
      "type": "Feature",
      "geometry": {
        "type": "Point",
        "coordinates": [16.36826, 48.2091]
      },
      "properties": {
         "id": "pmb235117",
         "title": "Kohlmarkt 3",
         "lat": "48.2091",
         "lon": "16.36826",
         "timestamp": ["1930-04-16"],
         "importance": "1"
      }
      }, 
    {
      "type": "Feature",
      "geometry": {
        "type": "Point",
        "coordinates": [15.826389, 47.652222]
      },
      "properties": {
         "id": "pmb442",
         "title": "Kurhaus Semmering",
         "lat": "47.652222",
         "lon": "15.826389",
         "timestamp": ["1930-05-10"],
         "importance": "1"
      }
      }, 
    {
      "type": "Feature",
      "geometry": {
        "type": "Point",
        "coordinates": [16.33286, 48.25644]
      },
      "properties": {
         "id": "pmb235184",
         "title": "Himmelstraße 55",
         "lat": "48.25644",
         "lon": "16.33286",
         "timestamp": ["1930-02-05"],
         "importance": "1"
      }
      }, 
    {
      "type": "Feature",
      "geometry": {
        "type": "Point",
        "coordinates": [16.333056, 48.233056]
      },
      "properties": {
         "id": "pmb61755",
         "title": "Cottage-Sanatorium für Nerven- und Stoffwechselkranke",
         "lat": "48.233056",
         "lon": "16.333056",
         "timestamp": ["1930-03-30", "1930-05-06", "1930-05-13"],
         "importance": "3"
      }
      }, 
    {
      "type": "Feature",
      "geometry": {
        "type": "Point",
        "coordinates": [16.309305, 48.253492]
      },
      "properties": {
         "id": "pmb237889",
         "title": "Agnesgasse 30",
         "lat": "48.253492",
         "lon": "16.309305",
         "timestamp": ["1930-01-21", "1930-02-20", "1930-03-10", "1930-04-04", "1930-04-15", "1930-04-22", "1930-05-02", "1930-05-30", "1930-06-27"],
         "importance": "9"
      }
      }, 
    {
      "type": "Feature",
      "geometry": {
        "type": "Point",
        "coordinates": [16.37354, 48.1948]
      },
      "properties": {
         "id": "pmb235885",
         "title": "Phaidon Verlag",
         "lat": "48.1948",
         "lon": "16.37354",
         "timestamp": ["1930-03-21"],
         "importance": "1"
      }
      }, 
    {
      "type": "Feature",
      "geometry": {
        "type": "Point",
        "coordinates": [13.41212, 52.58777]
      },
      "properties": {
         "id": "pmb144055",
         "title": "Lanzsch & Co.",
         "lat": "52.58777",
         "lon": "13.41212",
         "timestamp": ["1930-01-11"],
         "importance": "1"
      }
      }, 
    {
      "type": "Feature",
      "geometry": {
        "type": "Point",
        "coordinates": [13.28702, 52.4581]
      },
      "properties": {
         "id": "pmb90508",
         "title": "Dahlem",
         "lat": "52.4581",
         "lon": "13.28702",
         "timestamp": ["1930-01-06", "1930-11-15"],
         "importance": "2"
      }
      }, 
    {
      "type": "Feature",
      "geometry": {
        "type": "Point",
        "coordinates": [13.28135, 52.45014]
      },
      "properties": {
         "id": "pmb235968",
         "title": "Faradayweg 16",
         "lat": "52.45014",
         "lon": "13.28135",
         "timestamp": ["1930-01-06"],
         "importance": "1"
      }
      }, 
    {
      "type": "Feature",
      "geometry": {
        "type": "Point",
        "coordinates": [16.356412, 48.213361]
      },
      "properties": {
         "id": "pmb236861",
         "title": "Krankenhaus der Wiener Kaufmannschaft",
         "lat": "48.213361",
         "lon": "16.356412",
         "timestamp": ["1930-01-22", "1930-01-31", "1930-03-10", "1930-04-04", "1930-04-15", "1930-04-22", "1930-05-30", "1930-06-27", "1930-07-11"],
         "importance": "9"
      }
      }, 
    {
      "type": "Feature",
      "geometry": {
        "type": "Point",
        "coordinates": [16.37819, 48.20771]
      },
      "properties": {
         "id": "pmb190590",
         "title": "Elitekino",
         "lat": "48.20771",
         "lon": "16.37819",
         "timestamp": ["1930-12-28"],
         "importance": "1"
      }
      }, 
    {
      "type": "Feature",
      "geometry": {
        "type": "Point",
        "coordinates": [16.334494, 48.239251]
      },
      "properties": {
         "id": "pmb92273",
         "title": "Hartäckerpark",
         "lat": "48.239251",
         "lon": "16.334494",
         "timestamp": ["1930-06-22"],
         "importance": "1"
      }
      }, 
    {
      "type": "Feature",
      "geometry": {
        "type": "Point",
        "coordinates": [16.28456, 48.17318]
      },
      "properties": {
         "id": "pmb236355",
         "title": "Gasthaus Weide",
         "lat": "48.17318",
         "lon": "16.28456",
         "timestamp": ["1930-06-26"],
         "importance": "1"
      }
      }, 
    {
      "type": "Feature",
      "geometry": {
        "type": "Point",
        "coordinates": [15.84854, 47.63882]
      },
      "properties": {
         "id": "pmb236397",
         "title": "Liechtensteinstraße [Semmering]",
         "lat": "47.63882",
         "lon": "15.84854",
         "timestamp": ["1930-05-10", "1930-05-13"],
         "importance": "2"
      }
      }, 
    {
      "type": "Feature",
      "geometry": {
        "type": "Point",
        "coordinates": [16.374012, 48.183658]
      },
      "properties": {
         "id": "pmb237033",
         "title": "Favoritenstraße 6",
         "lat": "48.183658",
         "lon": "16.374012",
         "timestamp": ["1930-03-28"],
         "importance": "1"
      }
      }, 
    {
      "type": "Feature",
      "geometry": {
        "type": "Point",
        "coordinates": [16.353836, 48.222832]
      },
      "properties": {
         "id": "pmb185520",
         "title": "Buffet Colosseum",
         "lat": "48.222832",
         "lon": "16.353836",
         "timestamp": ["1930-10-23"],
         "importance": "1"
      }
      }, 
    {
      "type": "Feature",
      "geometry": {
        "type": "Point",
        "coordinates": [16.34167, 48.233004]
      },
      "properties": {
         "id": "pmb235812",
         "title": "Cottagegasse 37",
         "lat": "48.233004",
         "lon": "16.34167",
         "timestamp": ["1930-05-01"],
         "importance": "1"
      }
      }, 
    {
      "type": "Feature",
      "geometry": {
        "type": "Point",
        "coordinates": [16.299518, 48.182697]
      },
      "properties": {
         "id": "pmb237170",
         "title": "Maxingstraße 20",
         "lat": "48.182697",
         "lon": "16.299518",
         "timestamp": ["1930-02-02", "1930-06-26"],
         "importance": "2"
      }
      }, 
    {
      "type": "Feature",
      "geometry": {
        "type": "Point",
        "coordinates": [13.285915, 52.509081]
      },
      "properties": {
         "id": "pmb92484",
         "title": "Riehlstraße",
         "lat": "52.509081",
         "lon": "13.285915",
         "timestamp": ["1930-01-06"],
         "importance": "1"
      }
      }, 
    {
      "type": "Feature",
      "geometry": {
        "type": "Point",
        "coordinates": [13.383899, 52.459222]
      },
      "properties": {
         "id": "pmb237795",
         "title": "Kaiserin-Augusta-Straße 78",
         "lat": "52.459222",
         "lon": "13.383899",
         "timestamp": ["1930-01-06"],
         "importance": "1"
      }
      }, 
    {
      "type": "Feature",
      "geometry": {
        "type": "Point",
        "coordinates": [13.285973, 52.509488]
      },
      "properties": {
         "id": "pmb237801",
         "title": "Riehlstraße 2",
         "lat": "52.509488",
         "lon": "13.285973",
         "timestamp": ["1930-01-06"],
         "importance": "1"
      }
      }, 
    {
      "type": "Feature",
      "geometry": {
        "type": "Point",
        "coordinates": [13.3032, 52.499]
      },
      "properties": {
         "id": "pmb237807",
         "title": "Kabarett der Komiker",
         "lat": "52.499",
         "lon": "13.3032",
         "timestamp": ["1930-01-06"],
         "importance": "1"
      }
      }, 
    {
      "type": "Feature",
      "geometry": {
        "type": "Point",
        "coordinates": [13.333282, 52.504572]
      },
      "properties": {
         "id": "pmb231363",
         "title": "Gloria-Palast",
         "lat": "52.504572",
         "lon": "13.333282",
         "timestamp": ["1930-01-11"],
         "importance": "1"
      }
      }, 
    {
      "type": "Feature",
      "geometry": {
        "type": "Point",
        "coordinates": [13.27196, 52.49048]
      },
      "properties": {
         "id": "pmb237833",
         "title": "Gneiststraße 7",
         "lat": "52.49048",
         "lon": "13.27196",
         "timestamp": ["1930-01-11"],
         "importance": "1"
      }
      }, 
    {
      "type": "Feature",
      "geometry": {
        "type": "Point",
        "coordinates": [13.327095, 52.508513]
      },
      "properties": {
         "id": "pmb237839",
         "title": "Hardenbergstraße 13",
         "lat": "52.508513",
         "lon": "13.327095",
         "timestamp": ["1930-01-12"],
         "importance": "1"
      }
      }, 
    {
      "type": "Feature",
      "geometry": {
        "type": "Point",
        "coordinates": [13.298555, 52.498673]
      },
      "properties": {
         "id": "pmb237847",
         "title": "Kurfürstendamm 96",
         "lat": "52.498673",
         "lon": "13.298555",
         "timestamp": ["1930-01-13"],
         "importance": "1"
      }
      }, 
    {
      "type": "Feature",
      "geometry": {
        "type": "Point",
        "coordinates": [16.371501, 48.207882]
      },
      "properties": {
         "id": "pmb237859",
         "title": "Amerikanisches Konsulat in Wien",
         "lat": "48.207882",
         "lon": "16.371501",
         "timestamp": ["1930-01-17", "1930-02-07"],
         "importance": "2"
      }
      }, 
    {
      "type": "Feature",
      "geometry": {
        "type": "Point",
        "coordinates": [16.35251, 48.19909]
      },
      "properties": {
         "id": "pmb190501",
         "title": "Haydnkino",
         "lat": "48.19909",
         "lon": "16.35251",
         "timestamp": ["1930-01-18"],
         "importance": "1"
      }
      }, 
    {
      "type": "Feature",
      "geometry": {
        "type": "Point",
        "coordinates": [16.370265, 48.208597]
      },
      "properties": {
         "id": "pmb185530",
         "title": "Franz Kasznar Grabenrestaurant",
         "lat": "48.208597",
         "lon": "16.370265",
         "timestamp": ["1930-02-05"],
         "importance": "1"
      }
      }, 
    {
      "type": "Feature",
      "geometry": {
        "type": "Point",
        "coordinates": [16.354785, 48.208317]
      },
      "properties": {
         "id": "pmb237917",
         "title": "Auersperg-Sanatorium",
         "lat": "48.208317",
         "lon": "16.354785",
         "timestamp": ["1930-02-07"],
         "importance": "1"
      }
      }, 
    {
      "type": "Feature",
      "geometry": {
        "type": "Point",
        "coordinates": [16.304464, 48.218092]
      },
      "properties": {
         "id": "pmb92605",
         "title": "Wilhelminenstraße",
         "lat": "48.218092",
         "lon": "16.304464",
         "timestamp": ["1930-02-09"],
         "importance": "1"
      }
      }, 
    {
      "type": "Feature",
      "geometry": {
        "type": "Point",
        "coordinates": [16.370328, 48.189755]
      },
      "properties": {
         "id": "pmb92547",
         "title": "Graf-Starhemberg-Gasse",
         "lat": "48.189755",
         "lon": "16.370328",
         "timestamp": ["1930-02-20"],
         "importance": "1"
      }
      }, 
    {
      "type": "Feature",
      "geometry": {
        "type": "Point",
        "coordinates": [16.345587, 48.210209]
      },
      "properties": {
         "id": "pmb190508",
         "title": "Josefstädter Vitascop",
         "lat": "48.210209",
         "lon": "16.345587",
         "timestamp": ["1930-03-06"],
         "importance": "1"
      }
      }, 
    {
      "type": "Feature",
      "geometry": {
        "type": "Point",
        "coordinates": [16.3547, 48.215]
      },
      "properties": {
         "id": "pmb237967",
         "title": "Alser Kaserne",
         "lat": "48.215",
         "lon": "16.3547",
         "timestamp": ["1930-03-07"],
         "importance": "1"
      }
      }, 
    {
      "type": "Feature",
      "geometry": {
        "type": "Point",
        "coordinates": [16.339257, 48.209035]
      },
      "properties": {
         "id": "pmb237979",
         "title": "Lerchenfelder Gürtel 48",
         "lat": "48.209035",
         "lon": "16.339257",
         "timestamp": ["1930-03-11"],
         "importance": "1"
      }
      }, 
    {
      "type": "Feature",
      "geometry": {
        "type": "Point",
        "coordinates": [16.356268, 48.200455]
      },
      "properties": {
         "id": "pmb190522",
         "title": "Kino Schäffer",
         "lat": "48.200455",
         "lon": "16.356268",
         "timestamp": ["1930-03-19"],
         "importance": "1"
      }
      }, 
    {
      "type": "Feature",
      "geometry": {
        "type": "Point",
        "coordinates": [15.51973, 48.39582]
      },
      "properties": {
         "id": "pmb90558",
         "title": "Dürnstein",
         "lat": "48.39582",
         "lon": "15.51973",
         "timestamp": ["1930-03-30"],
         "importance": "1"
      }
      }, 
    {
      "type": "Feature",
      "geometry": {
        "type": "Point",
        "coordinates": [16.377256, 48.210739]
      },
      "properties": {
         "id": "pmb185533",
         "title": "Griechenbeisl",
         "lat": "48.210739",
         "lon": "16.377256",
         "timestamp": ["1930-04-09"],
         "importance": "1"
      }
      }, 
    {
      "type": "Feature",
      "geometry": {
        "type": "Point",
        "coordinates": [16.350679, 48.214993]
      },
      "properties": {
         "id": "pmb190687",
         "title": "Arkadenkino",
         "lat": "48.214993",
         "lon": "16.350679",
         "timestamp": ["1930-04-13"],
         "importance": "1"
      }
      }, 
    {
      "type": "Feature",
      "geometry": {
        "type": "Point",
        "coordinates": [16.33679, 48.22806]
      },
      "properties": {
         "id": "pmb92589",
         "title": "Café Währingerhof",
         "lat": "48.22806",
         "lon": "16.33679",
         "timestamp": ["1930-04-14", "1930-04-21"],
         "importance": "2"
      }
      }, 
    {
      "type": "Feature",
      "geometry": {
        "type": "Point",
        "coordinates": [16.367541, 48.20857]
      },
      "properties": {
         "id": "pmb238035",
         "title": "Huber & Lerner [Filiale von 1903–2002]",
         "lat": "48.20857",
         "lon": "16.367541",
         "timestamp": ["1930-04-16"],
         "importance": "1"
      }
      }, 
    {
      "type": "Feature",
      "geometry": {
        "type": "Point",
        "coordinates": [16.09456, 48.25022]
      },
      "properties": {
         "id": "pmb91592",
         "title": "Riederberg",
         "lat": "48.25022",
         "lon": "16.09456",
         "timestamp": ["1930-04-21", "1930-06-01"],
         "importance": "2"
      }
      }, 
    {
      "type": "Feature",
      "geometry": {
        "type": "Point",
        "coordinates": [16.01223, 48.25531]
      },
      "properties": {
         "id": "pmb8880",
         "title": "Sieghartskirchen",
         "lat": "48.25531",
         "lon": "16.01223",
         "timestamp": ["1930-04-21"],
         "importance": "1"
      }
      }, 
    {
      "type": "Feature",
      "geometry": {
        "type": "Point",
        "coordinates": [15.79326, 48.24349]
      },
      "properties": {
         "id": "pmb238046",
         "title": "Schloss Thalheim",
         "lat": "48.24349",
         "lon": "15.79326",
         "timestamp": ["1930-04-21", "1930-06-01"],
         "importance": "2"
      }
      }, 
    {
      "type": "Feature",
      "geometry": {
        "type": "Point",
        "coordinates": [15.79483, 48.24151]
      },
      "properties": {
         "id": "pmb238048",
         "title": "Thalheim",
         "lat": "48.24151",
         "lon": "15.79483",
         "timestamp": ["1930-04-21", "1930-05-17", "1930-06-01"],
         "importance": "3"
      }
      }, 
    {
      "type": "Feature",
      "geometry": {
        "type": "Point",
        "coordinates": [16.332974, 48.232945]
      },
      "properties": {
         "id": "pmb238059",
         "title": "Sternwartestraße 74",
         "lat": "48.232945",
         "lon": "16.332974",
         "timestamp": ["1930-04-23"],
         "importance": "1"
      }
      }, 
    {
      "type": "Feature",
      "geometry": {
        "type": "Point",
        "coordinates": [16.363947, 48.197169]
      },
      "properties": {
         "id": "pmb92516",
         "title": "Schikanedergasse",
         "lat": "48.197169",
         "lon": "16.363947",
         "timestamp": ["1930-05-02"],
         "importance": "1"
      }
      }, 
    {
      "type": "Feature",
      "geometry": {
        "type": "Point",
        "coordinates": [15.82889, 47.63255]
      },
      "properties": {
         "id": "pmb634",
         "title": "Hotel Erzherzog Johann",
         "lat": "47.63255",
         "lon": "15.82889",
         "timestamp": ["1930-05-11"],
         "importance": "1"
      }
      }, 
    {
      "type": "Feature",
      "geometry": {
        "type": "Point",
        "coordinates": [16.31877, 48.184]
      },
      "properties": {
         "id": "pmb239635",
         "title": "Meidlinger Tor",
         "lat": "48.184",
         "lon": "16.31877",
         "timestamp": ["1930-05-17"],
         "importance": "1"
      }
      }, 
    {
      "type": "Feature",
      "geometry": {
        "type": "Point",
        "coordinates": [16.24852, 48.31385]
      },
      "properties": {
         "id": "pmb90801",
         "title": "Gugging",
         "lat": "48.31385",
         "lon": "16.24852",
         "timestamp": ["1930-06-09"],
         "importance": "1"
      }
      }, 
    {
      "type": "Feature",
      "geometry": {
        "type": "Point",
        "coordinates": [16.37782, 48.19077]
      },
      "properties": {
         "id": "pmb239698",
         "title": "Mommsengasse 13",
         "lat": "48.19077",
         "lon": "16.37782",
         "timestamp": ["1930-06-10"],
         "importance": "1"
      }
      }, 
    {
      "type": "Feature",
      "geometry": {
        "type": "Point",
        "coordinates": [16.361381, 48.146093]
      },
      "properties": {
         "id": "pmb92364",
         "title": "Laxenburger Allee",
         "lat": "48.146093",
         "lon": "16.361381",
         "timestamp": ["1930-06-17"],
         "importance": "1"
      }
      }, 
    {
      "type": "Feature",
      "geometry": {
        "type": "Point",
        "coordinates": [16.365, 48.063]
      },
      "properties": {
         "id": "pmb239721",
         "title": "Schlosspark Laxenburg",
         "lat": "48.063",
         "lon": "16.365",
         "timestamp": ["1930-06-19"],
         "importance": "1"
      }
      }, 
    {
      "type": "Feature",
      "geometry": {
        "type": "Point",
        "coordinates": [16.3581, 48.0647]
      },
      "properties": {
         "id": "pmb239724",
         "title": "Schloss Laxenburg",
         "lat": "48.0647",
         "lon": "16.3581",
         "timestamp": ["1930-06-19"],
         "importance": "1"
      }
      }, 
    {
      "type": "Feature",
      "geometry": {
        "type": "Point",
        "coordinates": [16.2314, 48.00567]
      },
      "properties": {
         "id": "pmb239739",
         "title": "Café Schopf",
         "lat": "48.00567",
         "lon": "16.2314",
         "timestamp": ["1930-06-24"],
         "importance": "1"
      }
      }, 
    {
      "type": "Feature",
      "geometry": {
        "type": "Point",
        "coordinates": [16.225261, 48.008204]
      },
      "properties": {
         "id": "pmb92206",
         "title": "Doblhoffpark",
         "lat": "48.008204",
         "lon": "16.225261",
         "timestamp": ["1930-06-29"],
         "importance": "1"
      }
      }, 
    {
      "type": "Feature",
      "geometry": {
        "type": "Point",
        "coordinates": [16.22864, 48.00633]
      },
      "properties": {
         "id": "pmb239749",
         "title": "Pension Exquisite",
         "lat": "48.00633",
         "lon": "16.22864",
         "timestamp": ["1930-06-29"],
         "importance": "1"
      }
      }, 
    {
      "type": "Feature",
      "geometry": {
        "type": "Point",
        "coordinates": [16.3020317, 48.187116]
      },
      "properties": {
         "id": "pmb283",
         "title": "Parkhotel Schönbrunn",
         "lat": "48.187116",
         "lon": "16.3020317",
         "timestamp": ["1930-07-03"],
         "importance": "1"
      }
      }, 
    {
      "type": "Feature",
      "geometry": {
        "type": "Point",
        "coordinates": [16.3731991, 48.1855867]
      },
      "properties": {
         "id": "pmb60254",
         "title": "Ostbahnhof [Wien]",
         "lat": "48.1855867",
         "lon": "16.3731991",
         "timestamp": ["1930-07-05"],
         "importance": "1"
      }
      }, 
    {
      "type": "Feature",
      "geometry": {
        "type": "Point",
        "coordinates": [16.34776, 48.21719]
      },
      "properties": {
         "id": "pmb239790",
         "title": "Child-Spital",
         "lat": "48.21719",
         "lon": "16.34776",
         "timestamp": ["1930-07-09", "1930-07-10", "1930-07-11"],
         "importance": "3"
      }
      }, 
    {
      "type": "Feature",
      "geometry": {
        "type": "Point",
        "coordinates": [16.3522, 48.1928]
      },
      "properties": {
         "id": "pmb239806",
         "title": "Kaiser Franz Joseph-Ambulatorium und Jubiläumsspital",
         "lat": "48.1928",
         "lon": "16.3522",
         "timestamp": ["1930-07-12", "1930-07-13", "1930-07-14"],
         "importance": "3"
      }
      }, 
    {
      "type": "Feature",
      "geometry": {
        "type": "Point",
        "coordinates": [16.31866, 48.18382]
      },
      "properties": {
         "id": "pmb239834",
         "title": "Café Schlößl",
         "lat": "48.18382",
         "lon": "16.31866",
         "timestamp": ["1930-07-15"],
         "importance": "1"
      }
      }, 
    {
      "type": "Feature",
      "geometry": {
        "type": "Point",
        "coordinates": [9.4735, 47.1664]
      },
      "properties": {
         "id": "pmb859",
         "title": "Buchs",
         "lat": "47.1664",
         "lon": "9.4735",
         "timestamp": ["1930-07-17"],
         "importance": "1"
      }
      }, 
    {
      "type": "Feature",
      "geometry": {
        "type": "Point",
        "coordinates": [9.86084, 46.49478]
      },
      "properties": {
         "id": "pmb239842",
         "title": "Landgasthof Meierei",
         "lat": "46.49478",
         "lon": "9.86084",
         "timestamp": ["1930-07-18", "1930-07-20"],
         "importance": "2"
      }
      }, 
    {
      "type": "Feature",
      "geometry": {
        "type": "Point",
        "coordinates": [9.84591, 46.4938]
      },
      "properties": {
         "id": "pmb59387",
         "title": "St. Moritzersee",
         "lat": "46.4938",
         "lon": "9.84591",
         "timestamp": ["1930-07-18", "1930-07-19", "1930-07-20", "1930-07-28"],
         "importance": "4"
      }
      }, 
    {
      "type": "Feature",
      "geometry": {
        "type": "Point",
        "coordinates": [9.76364, 46.42886]
      },
      "properties": {
         "id": "pmb91753",
         "title": "Sils-Segl Maria",
         "lat": "46.42886",
         "lon": "9.76364",
         "timestamp": ["1930-07-20"],
         "importance": "1"
      }
      }, 
    {
      "type": "Feature",
      "geometry": {
        "type": "Point",
        "coordinates": [9.889977, 46.49503]
      },
      "properties": {
         "id": "pmb239864",
         "title": "Schlosshotel [Pontresina]",
         "lat": "46.49503",
         "lon": "9.889977",
         "timestamp": ["1930-07-20", "1930-07-25", "1930-08-01"],
         "importance": "3"
      }
      }, 
    {
      "type": "Feature",
      "geometry": {
        "type": "Point",
        "coordinates": [9.86875, 46.49619]
      },
      "properties": {
         "id": "pmb91824",
         "title": "Lej da Staz",
         "lat": "46.49619",
         "lon": "9.86875",
         "timestamp": ["1930-07-22", "1930-07-25"],
         "importance": "2"
      }
      }, 
    {
      "type": "Feature",
      "geometry": {
        "type": "Point",
        "coordinates": [9.8198988, 46.4845937]
      },
      "properties": {
         "id": "pmb92754",
         "title": "Hotel Suvretta",
         "lat": "46.4845937",
         "lon": "9.8198988",
         "timestamp": ["1930-07-26"],
         "importance": "1"
      }
      }, 
    {
      "type": "Feature",
      "geometry": {
        "type": "Point",
        "coordinates": [9.83918, 46.48478]
      },
      "properties": {
         "id": "pmb239870",
         "title": "Hotel Stahlbad",
         "lat": "46.48478",
         "lon": "9.83918",
         "timestamp": ["1930-07-27", "1930-07-31"],
         "importance": "2"
      }
      }, 
    {
      "type": "Feature",
      "geometry": {
        "type": "Point",
        "coordinates": [9.835247, 46.501438]
      },
      "properties": {
         "id": "pmb92186",
         "title": "Chantarella",
         "lat": "46.501438",
         "lon": "9.835247",
         "timestamp": ["1930-07-29"],
         "importance": "1"
      }
      }, 
    {
      "type": "Feature",
      "geometry": {
        "type": "Point",
        "coordinates": [9.8188, 46.50812]
      },
      "properties": {
         "id": "pmb90496",
         "title": "Corviglia",
         "lat": "46.50812",
         "lon": "9.8188",
         "timestamp": ["1930-07-29"],
         "importance": "1"
      }
      }, 
    {
      "type": "Feature",
      "geometry": {
        "type": "Point",
        "coordinates": [9.82738, 46.49103]
      },
      "properties": {
         "id": "pmb91373",
         "title": "Alpina",
         "lat": "46.49103",
         "lon": "9.82738",
         "timestamp": ["1930-07-29"],
         "importance": "1"
      }
      }, 
    {
      "type": "Feature",
      "geometry": {
        "type": "Point",
        "coordinates": [9.82183, 46.47969]
      },
      "properties": {
         "id": "pmb239878",
         "title": "Villa Story",
         "lat": "46.47969",
         "lon": "9.82183",
         "timestamp": ["1930-08-01"],
         "importance": "1"
      }
      }, 
    {
      "type": "Feature",
      "geometry": {
        "type": "Point",
        "coordinates": [10.98633, 47.28109]
      },
      "properties": {
         "id": "pmb90933",
         "title": "Inntal",
         "lat": "47.28109",
         "lon": "10.98633",
         "timestamp": ["1930-08-10"],
         "importance": "1"
      }
      }, 
    {
      "type": "Feature",
      "geometry": {
        "type": "Point",
        "coordinates": [12.70357, 49.977411]
      },
      "properties": {
         "id": "pmb185538",
         "title": "Tepler Haus",
         "lat": "49.977411",
         "lon": "12.70357",
         "timestamp": ["1930-08-27", "1930-08-28", "1930-09-03"],
         "importance": "3"
      }
      }, 
    {
      "type": "Feature",
      "geometry": {
        "type": "Point",
        "coordinates": [12.668004, 50.026436]
      },
      "properties": {
         "id": "pmb92257",
         "title": "Glatzen",
         "lat": "50.026436",
         "lon": "12.668004",
         "timestamp": ["1930-08-30"],
         "importance": "1"
      }
      }, 
    {
      "type": "Feature",
      "geometry": {
        "type": "Point",
        "coordinates": [12.73279, 50.05007]
      },
      "properties": {
         "id": "pmb91655",
         "title": "Prameny",
         "lat": "50.05007",
         "lon": "12.73279",
         "timestamp": ["1930-08-30"],
         "importance": "1"
      }
      }, 
    {
      "type": "Feature",
      "geometry": {
        "type": "Point",
        "coordinates": [15.43759, 48.27094]
      },
      "properties": {
         "id": "pmb92097",
         "title": "Wolfstein",
         "lat": "48.27094",
         "lon": "15.43759",
         "timestamp": ["1930-09-03"],
         "importance": "1"
      }
      }, 
    {
      "type": "Feature",
      "geometry": {
        "type": "Point",
        "coordinates": [13.361111711854438, 52.50998522556431]
      },
      "properties": {
         "id": "pmb52476",
         "title": "Tiergartenstraße",
         "lat": "52.50998522556431",
         "lon": "13.361111711854438",
         "timestamp": ["1930-11-11"],
         "importance": "1"
      }
      }, 
    {
      "type": "Feature",
      "geometry": {
        "type": "Point",
        "coordinates": [13.341373, 52.485146]
      },
      "properties": {
         "id": "pmb92302",
         "title": "Innsbruckerstraße",
         "lat": "52.485146",
         "lon": "13.341373",
         "timestamp": ["1930-11-14"],
         "importance": "1"
      }
      }, 
    {
      "type": "Feature",
      "geometry": {
        "type": "Point",
        "coordinates": [13.314998, 52.468969]
      },
      "properties": {
         "id": "pmb92362",
         "title": "Laubenheimer Straße",
         "lat": "52.468969",
         "lon": "13.314998",
         "timestamp": ["1930-11-19"],
         "importance": "1"
      }
      }, 
    {
      "type": "Feature",
      "geometry": {
        "type": "Point",
        "coordinates": [16.323771, 48.233323]
      },
      "properties": {
         "id": "pmb92236",
         "title": "Ferrogasse",
         "lat": "48.233323",
         "lon": "16.323771",
         "timestamp": ["1930-12-07"],
         "importance": "1"
      }
      }, 
    {
      "type": "Feature",
      "geometry": {
        "type": "Point",
        "coordinates": [16.355290027043036, 48.20816442899423]
      },
      "properties": {
         "id": "pmb52516",
         "title": "Auerspergstraße",
         "lat": "48.20816442899423",
         "lon": "16.355290027043036",
         "timestamp": ["1930-12-27"],
         "importance": "1"
      }
      }
  ]
}