{
  "type": "FeatureCollection",
  "features": [
    {
      "type": "Feature", 
      "geometry": {
        "type": "LineString", 
        "coordinates": [
            [16.28921, 48.08605], 
            [16.361381, 48.146093], 
            [16.37312, 48.20122], 
            [16.367725, 48.212284], 
            [16.33716, 48.23188]
          ]
      },
      "properties": {
        "name": "17. Juni 1930"
      }
    },
    {
      "type": "Feature",
      "geometry": {
        "type": "Point",
        "coordinates": [
          16.37312, 48.20122
        ]
      },
      "properties": {
        "title": "Café Imperial",
        "timestamp": ["1930-06-17"],
        "pmb": "https://pmb.acdh.oeaw.ac.at/entity//", 
        "wikipedia": "https://de.wikipedia.org/wiki/Hotel_Imperial_(Wien)", 
        "wiengeschichtewiki": "https://www.geschichtewiki.wien.gv.at/Café_Imperial"
      }
      },
    {
      "type": "Feature",
      "geometry": {
        "type": "Point",
        "coordinates": [
          16.33716, 48.23188
        ]
      },
      "properties": {
        "title": "Sternwartestraße 71",
        "timestamp": ["1930-06-17"],
        "pmb": "https://pmb.acdh.oeaw.ac.at/entity//"
      }
      },
    {
      "type": "Feature",
      "geometry": {
        "type": "Point",
        "coordinates": [
          16.28921, 48.08605
        ]
      },
      "properties": {
        "title": "Mödling",
        "timestamp": ["1930-06-17"],
        "pmb": "https://pmb.acdh.oeaw.ac.at/entity//", 
        "wikipedia": "https://de.wikipedia.org/wiki/M%C3%B6dling"
      }
      },
    {
      "type": "Feature",
      "geometry": {
        "type": "Point",
        "coordinates": [
          16.361381, 48.146093
        ]
      },
      "properties": {
        "title": "Laxenburger Allee",
        "timestamp": ["1930-06-17"],
        "pmb": "https://pmb.acdh.oeaw.ac.at/entity//"
      }
      },
    {
      "type": "Feature",
      "geometry": {
        "type": "Point",
        "coordinates": [
          16.367725, 48.212284
        ]
      },
      "properties": {
        "title": "Tiefer Graben 17",
        "timestamp": ["1930-06-17"],
        "pmb": "https://pmb.acdh.oeaw.ac.at/entity//"
      }
      }
  ]
}