{
  "type": "FeatureCollection",
  "features": [
    {
      "type": "Feature",
      "geometry": {
        "type": "Point",
        "coordinates": [16.373056, 48.208333]
      },
      "properties": {
         "id": "pmb50",
         "title": "Wien",
         "lat": "48.208333",
         "lon": "16.373056",
         "timestamp": ["1930-05-01", "1930-05-02", "1930-05-03", "1930-05-04", "1930-05-05", "1930-05-06", "1930-05-07", "1930-05-08", "1930-05-13", "1930-05-14", "1930-05-15", "1930-05-16", "1930-05-17", "1930-05-18", "1930-05-19", "1930-05-20", "1930-05-21", "1930-05-22", "1930-05-23", "1930-05-24", "1930-05-25", "1930-05-26", "1930-05-27", "1930-05-28", "1930-05-29", "1930-05-30", "1930-05-31"],
         "importance": "27"
      }
      }, 
    {
      "type": "Feature",
      "geometry": {
        "type": "Point",
        "coordinates": [16.379608025302, 48.204824018066]
      },
      "properties": {
         "id": "pmb575",
         "title": "Stadtpark",
         "lat": "48.204824018066",
         "lon": "16.379608025302",
         "timestamp": ["1930-05-02"],
         "importance": "1"
      }
      }, 
    {
      "type": "Feature",
      "geometry": {
        "type": "Point",
        "coordinates": [16.37547, 48.2644]
      },
      "properties": {
         "id": "pmb90538",
         "title": "Neue Donau",
         "lat": "48.2644",
         "lon": "16.37547",
         "timestamp": ["1930-05-29"],
         "importance": "1"
      }
      }, 
    {
      "type": "Feature",
      "geometry": {
        "type": "Point",
        "coordinates": [15.93893, 47.67487]
      },
      "properties": {
         "id": "pmb50715",
         "title": "Gloggnitz",
         "lat": "47.67487",
         "lon": "15.93893",
         "timestamp": ["1930-05-12"],
         "importance": "1"
      }
      }, 
    {
      "type": "Feature",
      "geometry": {
        "type": "Point",
        "coordinates": [16.33255, 48.27617]
      },
      "properties": {
         "id": "pmb574",
         "title": "Kahlenberg",
         "lat": "48.27617",
         "lon": "16.33255",
         "timestamp": ["1930-05-04", "1930-05-18"],
         "importance": "2"
      }
      }, 
    {
      "type": "Feature",
      "geometry": {
        "type": "Point",
        "coordinates": [16.355191, 48.248422]
      },
      "properties": {
         "id": "pmb92292",
         "title": "Hohe Warte",
         "lat": "48.248422",
         "lon": "16.355191",
         "timestamp": ["1930-05-04"],
         "importance": "1"
      }
      }, 
    {
      "type": "Feature",
      "geometry": {
        "type": "Point",
        "coordinates": [16.3566, 48.205142]
      },
      "properties": {
         "id": "pmb20",
         "title": "Volkstheater",
         "lat": "48.205142",
         "lon": "16.3566",
         "timestamp": ["1930-05-15"],
         "importance": "1"
      }
      }, 
    {
      "type": "Feature",
      "geometry": {
        "type": "Point",
        "coordinates": [16.3067984, 48.1806202]
      },
      "properties": {
         "id": "pmb92518",
         "title": "Schlosspark Schönbrunn",
         "lat": "48.1806202",
         "lon": "16.3067984",
         "timestamp": ["1930-05-17"],
         "importance": "1"
      }
      }, 
    {
      "type": "Feature",
      "geometry": {
        "type": "Point",
        "coordinates": [16.37312, 48.20122]
      },
      "properties": {
         "id": "pmb43",
         "title": "Café Imperial",
         "lat": "48.20122",
         "lon": "16.37312",
         "timestamp": ["1930-05-25"],
         "importance": "1"
      }
      }, 
    {
      "type": "Feature",
      "geometry": {
        "type": "Point",
        "coordinates": [16.371211, 48.206416]
      },
      "properties": {
         "id": "pmb96",
         "title": "Meissl & Schadn",
         "lat": "48.206416",
         "lon": "16.371211",
         "timestamp": ["1930-05-01", "1930-05-16", "1930-05-21", "1930-05-22", "1930-05-24", "1930-05-25", "1930-05-29"],
         "importance": "7"
      }
      }, 
    {
      "type": "Feature",
      "geometry": {
        "type": "Point",
        "coordinates": [16.333568462613, 48.235119783861]
      },
      "properties": {
         "id": "pmb113",
         "title": "Türkenschanzpark",
         "lat": "48.235119783861",
         "lon": "16.333568462613",
         "timestamp": ["1930-05-02", "1930-05-04"],
         "importance": "2"
      }
      }, 
    {
      "type": "Feature",
      "geometry": {
        "type": "Point",
        "coordinates": [16.300034240016, 48.246838181084]
      },
      "properties": {
         "id": "pmb169",
         "title": "Pötzleinsdorf",
         "lat": "48.246838181084",
         "lon": "16.300034240016",
         "timestamp": ["1930-05-30"],
         "importance": "1"
      }
      }, 
    {
      "type": "Feature",
      "geometry": {
        "type": "Point",
        "coordinates": [15.8241, 47.64224]
      },
      "properties": {
         "id": "pmb189",
         "title": "Semmering",
         "lat": "47.64224",
         "lon": "15.8241",
         "timestamp": ["1930-05-08", "1930-05-09", "1930-05-10", "1930-05-11", "1930-05-12", "1930-05-13"],
         "importance": "6"
      }
      }, 
    {
      "type": "Feature",
      "geometry": {
        "type": "Point",
        "coordinates": [16.342154562605, 48.250804274577]
      },
      "properties": {
         "id": "pmb225",
         "title": "Grinzing",
         "lat": "48.250804274577",
         "lon": "16.342154562605",
         "timestamp": ["1930-05-18"],
         "importance": "1"
      }
      }, 
    {
      "type": "Feature",
      "geometry": {
        "type": "Point",
        "coordinates": [16.28610371233, 48.233119188484]
      },
      "properties": {
         "id": "pmb170",
         "title": "Neuwaldegg",
         "lat": "48.233119188484",
         "lon": "16.28610371233",
         "timestamp": ["1930-05-30"],
         "importance": "1"
      }
      }, 
    {
      "type": "Feature",
      "geometry": {
        "type": "Point",
        "coordinates": [16.43898217221, 48.19252071812]
      },
      "properties": {
         "id": "pmb185",
         "title": "Lusthaus",
         "lat": "48.19252071812",
         "lon": "16.43898217221",
         "timestamp": ["1930-05-29"],
         "importance": "1"
      }
      }, 
    {
      "type": "Feature",
      "geometry": {
        "type": "Point",
        "coordinates": [15.8634, 47.69209]
      },
      "properties": {
         "id": "pmb948",
         "title": "Payerbach",
         "lat": "47.69209",
         "lon": "15.8634",
         "timestamp": ["1930-05-12"],
         "importance": "1"
      }
      }, 
    {
      "type": "Feature",
      "geometry": {
        "type": "Point",
        "coordinates": [16.33787, 48.19653]
      },
      "properties": {
         "id": "pmb438",
         "title": "Westbahnhof-Restaurant",
         "lat": "48.19653",
         "lon": "16.33787",
         "timestamp": ["1930-05-17", "1930-05-18"],
         "importance": "2"
      }
      }, 
    {
      "type": "Feature",
      "geometry": {
        "type": "Point",
        "coordinates": [16.322222222222, 48.263611111111]
      },
      "properties": {
         "id": "pmb194903",
         "title": "Am Kobenzl",
         "lat": "48.263611111111",
         "lon": "16.322222222222",
         "timestamp": ["1930-05-04", "1930-05-18"],
         "importance": "2"
      }
      }, 
    {
      "type": "Feature",
      "geometry": {
        "type": "Point",
        "coordinates": [16.30627, 48.2435]
      },
      "properties": {
         "id": "pmb147205",
         "title": "Zum weißen Lamm",
         "lat": "48.2435",
         "lon": "16.30627",
         "timestamp": ["1930-05-30"],
         "importance": "1"
      }
      }, 
    {
      "type": "Feature",
      "geometry": {
        "type": "Point",
        "coordinates": [15.86924, 47.64168]
      },
      "properties": {
         "id": "pmb7390",
         "title": "Maria Schutz",
         "lat": "47.64168",
         "lon": "15.86924",
         "timestamp": ["1930-05-12"],
         "importance": "1"
      }
      }, 
    {
      "type": "Feature",
      "geometry": {
        "type": "Point",
        "coordinates": [15.81667, 47.65]
      },
      "properties": {
         "id": "pmb91482",
         "title": "Pinkenkogel",
         "lat": "47.65",
         "lon": "15.81667",
         "timestamp": ["1930-05-11"],
         "importance": "1"
      }
      }, 
    {
      "type": "Feature",
      "geometry": {
        "type": "Point",
        "coordinates": [15.827286, 47.640258]
      },
      "properties": {
         "id": "pmb236041",
         "title": "Hochstraße [Semmering]",
         "lat": "47.640258",
         "lon": "15.827286",
         "timestamp": ["1930-05-09"],
         "importance": "1"
      }
      }, 
    {
      "type": "Feature",
      "geometry": {
        "type": "Point",
        "coordinates": [15.83, 47.647222]
      },
      "properties": {
         "id": "pmb413",
         "title": "Südbahnhotel [Semmering]",
         "lat": "47.647222",
         "lon": "15.83",
         "timestamp": ["1930-05-08", "1930-05-09", "1930-05-10", "1930-05-11", "1930-05-12", "1930-05-13"],
         "importance": "6"
      }
      }, 
    {
      "type": "Feature",
      "geometry": {
        "type": "Point",
        "coordinates": [16.33641, 48.23362]
      },
      "properties": {
         "id": "pmb235132",
         "title": "Türkenschanzstraße 48",
         "lat": "48.23362",
         "lon": "16.33641",
         "timestamp": ["1930-05-31"],
         "importance": "1"
      }
      }, 
    {
      "type": "Feature",
      "geometry": {
        "type": "Point",
        "coordinates": [15.792916, 47.663198]
      },
      "properties": {
         "id": "pmb250",
         "title": "Orthof",
         "lat": "47.663198",
         "lon": "15.792916",
         "timestamp": ["1930-05-12"],
         "importance": "1"
      }
      }, 
    {
      "type": "Feature",
      "geometry": {
        "type": "Point",
        "coordinates": [16.35689, 48.21787]
      },
      "properties": {
         "id": "pmb232768",
         "title": "Beethovengasse 6",
         "lat": "48.21787",
         "lon": "16.35689",
         "timestamp": ["1930-05-23"],
         "importance": "1"
      }
      }, 
    {
      "type": "Feature",
      "geometry": {
        "type": "Point",
        "coordinates": [15.824188, 47.645877]
      },
      "properties": {
         "id": "pmb200897",
         "title": "Meiereiweg",
         "lat": "47.645877",
         "lon": "15.824188",
         "timestamp": ["1930-05-09"],
         "importance": "1"
      }
      }, 
    {
      "type": "Feature",
      "geometry": {
        "type": "Point",
        "coordinates": [16.33716, 48.23188]
      },
      "properties": {
         "id": "pmb168815",
         "title": "Sternwartestraße 71",
         "lat": "48.23188",
         "lon": "16.33716",
         "timestamp": ["1930-05-01", "1930-05-02", "1930-05-03", "1930-05-04", "1930-05-05", "1930-05-06", "1930-05-07", "1930-05-08", "1930-05-13", "1930-05-14", "1930-05-15", "1930-05-16", "1930-05-17", "1930-05-18", "1930-05-19", "1930-05-20", "1930-05-21", "1930-05-22", "1930-05-23", "1930-05-24", "1930-05-25", "1930-05-26", "1930-05-27", "1930-05-28", "1930-05-29", "1930-05-30", "1930-05-31"],
         "importance": "27"
      }
      }, 
    {
      "type": "Feature",
      "geometry": {
        "type": "Point",
        "coordinates": [16.35137, 48.21346]
      },
      "properties": {
         "id": "pmb232800",
         "title": "Laudongasse 12",
         "lat": "48.21346",
         "lon": "16.35137",
         "timestamp": ["1930-05-20"],
         "importance": "1"
      }
      }, 
    {
      "type": "Feature",
      "geometry": {
        "type": "Point",
        "coordinates": [16.37438, 48.21099]
      },
      "properties": {
         "id": "pmb253",
         "title": "Imperialkino",
         "lat": "48.21099",
         "lon": "16.37438",
         "timestamp": ["1930-05-25"],
         "importance": "1"
      }
      }, 
    {
      "type": "Feature",
      "geometry": {
        "type": "Point",
        "coordinates": [16.367725, 48.212284]
      },
      "properties": {
         "id": "pmb207301",
         "title": "Tiefer Graben 17",
         "lat": "48.212284",
         "lon": "16.367725",
         "timestamp": ["1930-05-02", "1930-05-20", "1930-05-27"],
         "importance": "3"
      }
      }, 
    {
      "type": "Feature",
      "geometry": {
        "type": "Point",
        "coordinates": [16.3133253, 48.1807992]
      },
      "properties": {
         "id": "pmb200859",
         "title": "Römische Ruine [Schlosspark Schönbrunn]",
         "lat": "48.1807992",
         "lon": "16.3133253",
         "timestamp": ["1930-05-17"],
         "importance": "1"
      }
      }, 
    {
      "type": "Feature",
      "geometry": {
        "type": "Point",
        "coordinates": [16.351435, 48.209524]
      },
      "properties": {
         "id": "pmb185511",
         "title": "Restaurant zum weißen Hahn",
         "lat": "48.209524",
         "lon": "16.351435",
         "timestamp": ["1930-05-27"],
         "importance": "1"
      }
      }, 
    {
      "type": "Feature",
      "geometry": {
        "type": "Point",
        "coordinates": [16.379436, 48.213062]
      },
      "properties": {
         "id": "pmb190479",
         "title": "Ferdinandskino",
         "lat": "48.213062",
         "lon": "16.379436",
         "timestamp": ["1930-05-07"],
         "importance": "1"
      }
      }, 
    {
      "type": "Feature",
      "geometry": {
        "type": "Point",
        "coordinates": [16.11437, 48.13047]
      },
      "properties": {
         "id": "pmb90889",
         "title": "Hochroterd",
         "lat": "48.13047",
         "lon": "16.11437",
         "timestamp": ["1930-05-25"],
         "importance": "1"
      }
      }, 
    {
      "type": "Feature",
      "geometry": {
        "type": "Point",
        "coordinates": [16.367295, 48.207185]
      },
      "properties": {
         "id": "pmb235837",
         "title": "Reitschulgasse 2",
         "lat": "48.207185",
         "lon": "16.367295",
         "timestamp": ["1930-05-20"],
         "importance": "1"
      }
      }, 
    {
      "type": "Feature",
      "geometry": {
        "type": "Point",
        "coordinates": [16.338016, 48.234091]
      },
      "properties": {
         "id": "pmb236372",
         "title": "Gregor-Mendel-Straße 34",
         "lat": "48.234091",
         "lon": "16.338016",
         "timestamp": ["1930-05-01", "1930-05-02", "1930-05-03", "1930-05-06", "1930-05-08", "1930-05-14", "1930-05-15", "1930-05-19", "1930-05-23", "1930-05-27", "1930-05-31"],
         "importance": "11"
      }
      }, 
    {
      "type": "Feature",
      "geometry": {
        "type": "Point",
        "coordinates": [15.826389, 47.652222]
      },
      "properties": {
         "id": "pmb442",
         "title": "Kurhaus Semmering",
         "lat": "47.652222",
         "lon": "15.826389",
         "timestamp": ["1930-05-10"],
         "importance": "1"
      }
      }, 
    {
      "type": "Feature",
      "geometry": {
        "type": "Point",
        "coordinates": [16.333056, 48.233056]
      },
      "properties": {
         "id": "pmb61755",
         "title": "Cottage-Sanatorium für Nerven- und Stoffwechselkranke",
         "lat": "48.233056",
         "lon": "16.333056",
         "timestamp": ["1930-05-06", "1930-05-13"],
         "importance": "2"
      }
      }, 
    {
      "type": "Feature",
      "geometry": {
        "type": "Point",
        "coordinates": [16.309305, 48.253492]
      },
      "properties": {
         "id": "pmb237889",
         "title": "Agnesgasse 30",
         "lat": "48.253492",
         "lon": "16.309305",
         "timestamp": ["1930-05-02", "1930-05-30"],
         "importance": "2"
      }
      }, 
    {
      "type": "Feature",
      "geometry": {
        "type": "Point",
        "coordinates": [16.356412, 48.213361]
      },
      "properties": {
         "id": "pmb236861",
         "title": "Krankenhaus der Wiener Kaufmannschaft",
         "lat": "48.213361",
         "lon": "16.356412",
         "timestamp": ["1930-05-30"],
         "importance": "1"
      }
      }, 
    {
      "type": "Feature",
      "geometry": {
        "type": "Point",
        "coordinates": [15.84854, 47.63882]
      },
      "properties": {
         "id": "pmb236397",
         "title": "Liechtensteinstraße [Semmering]",
         "lat": "47.63882",
         "lon": "15.84854",
         "timestamp": ["1930-05-10", "1930-05-13"],
         "importance": "2"
      }
      }, 
    {
      "type": "Feature",
      "geometry": {
        "type": "Point",
        "coordinates": [16.34167, 48.233004]
      },
      "properties": {
         "id": "pmb235812",
         "title": "Cottagegasse 37",
         "lat": "48.233004",
         "lon": "16.34167",
         "timestamp": ["1930-05-01"],
         "importance": "1"
      }
      }, 
    {
      "type": "Feature",
      "geometry": {
        "type": "Point",
        "coordinates": [15.79483, 48.24151]
      },
      "properties": {
         "id": "pmb238048",
         "title": "Thalheim",
         "lat": "48.24151",
         "lon": "15.79483",
         "timestamp": ["1930-05-17"],
         "importance": "1"
      }
      }, 
    {
      "type": "Feature",
      "geometry": {
        "type": "Point",
        "coordinates": [16.363947, 48.197169]
      },
      "properties": {
         "id": "pmb92516",
         "title": "Schikanedergasse",
         "lat": "48.197169",
         "lon": "16.363947",
         "timestamp": ["1930-05-02"],
         "importance": "1"
      }
      }, 
    {
      "type": "Feature",
      "geometry": {
        "type": "Point",
        "coordinates": [15.82889, 47.63255]
      },
      "properties": {
         "id": "pmb634",
         "title": "Hotel Erzherzog Johann",
         "lat": "47.63255",
         "lon": "15.82889",
         "timestamp": ["1930-05-11"],
         "importance": "1"
      }
      }, 
    {
      "type": "Feature",
      "geometry": {
        "type": "Point",
        "coordinates": [16.31877, 48.184]
      },
      "properties": {
         "id": "pmb239635",
         "title": "Meidlinger Tor",
         "lat": "48.184",
         "lon": "16.31877",
         "timestamp": ["1930-05-17"],
         "importance": "1"
      }
      }
  ]
}