{
  "type": "FeatureCollection",
  "features": [
    {
      "type": "Feature", 
      "geometry": {
        "type": "LineString", 
        "coordinates": [
            [16.367725, 48.212284], 
            [16.401694, 48.213944], 
            [16.402222, 48.214722], 
            [16.3611, 48.2261], 
            [16.338016, 48.234091], 
            [16.33716, 48.23188]
          ]
      },
      "properties": {
        "name": "1. Juli 1930"
      }
    },
    {
      "type": "Feature",
      "geometry": {
        "type": "Point",
        "coordinates": [
          16.402222, 48.214722
        ]
      },
      "properties": {
        "title": "Wurstelprater",
        "timestamp": ["1930-07-01"],
        "pmb": "https://pmb.acdh.oeaw.ac.at/entity//", 
        "wikipedia": "https://de.wikipedia.org/wiki/Wurstelprater", 
        "wiengeschichtewiki": "https://www.geschichtewiki.wien.gv.at/Special:URIResolver/?curid=10997"
      }
      },
    {
      "type": "Feature",
      "geometry": {
        "type": "Point",
        "coordinates": [
          16.401694, 48.213944
        ]
      },
      "properties": {
        "title": "Schweizerhaus",
        "timestamp": ["1930-07-01"],
        "pmb": "https://pmb.acdh.oeaw.ac.at/entity//", 
        "wikipedia": "https://de.wikipedia.org/wiki/Schweizerhaus_(Wien)"
      }
      },
    {
      "type": "Feature",
      "geometry": {
        "type": "Point",
        "coordinates": [
          16.3611, 48.2261
        ]
      },
      "properties": {
        "title": "Franz-Josefs-Bahnhof",
        "timestamp": ["1930-07-01"],
        "pmb": "https://pmb.acdh.oeaw.ac.at/entity//", 
        "wikipedia": "https://de.wikipedia.org/wiki/Wien_Franz-Josefs-Bahnhof"
      }
      },
    {
      "type": "Feature",
      "geometry": {
        "type": "Point",
        "coordinates": [
          16.33716, 48.23188
        ]
      },
      "properties": {
        "title": "Sternwartestraße 71",
        "timestamp": ["1930-07-01"],
        "pmb": "https://pmb.acdh.oeaw.ac.at/entity//"
      }
      },
    {
      "type": "Feature",
      "geometry": {
        "type": "Point",
        "coordinates": [
          16.338016, 48.234091
        ]
      },
      "properties": {
        "title": "Gregor-Mendel-Straße 34",
        "timestamp": ["1930-07-01"],
        "pmb": "https://pmb.acdh.oeaw.ac.at/entity//"
      }
      },
    {
      "type": "Feature",
      "geometry": {
        "type": "Point",
        "coordinates": [
          16.367725, 48.212284
        ]
      },
      "properties": {
        "title": "Tiefer Graben 17",
        "timestamp": ["1930-07-01"],
        "pmb": "https://pmb.acdh.oeaw.ac.at/entity//"
      }
      }
  ]
}