{
  "type": "FeatureCollection",
  "features": [
    {
      "type": "Feature",
      "geometry": {
        "type": "Point",
        "coordinates": [16.373056, 48.208333]
      },
      "properties": {
         "id": "pmb50",
         "title": "Wien",
         "lat": "48.208333",
         "lon": "16.373056",
         "timestamp": ["1931-07-02", "1931-07-03", "1931-07-04", "1931-07-06", "1931-07-07", "1931-07-09", "1931-07-11", "1931-07-12", "1931-07-13", "1931-07-14", "1931-07-15", "1931-07-16", "1931-07-19", "1931-07-28", "1931-07-29", "1931-07-30", "1931-07-31"],
         "importance": "17"
      }
      }, 
    {
      "type": "Feature",
      "geometry": {
        "type": "Point",
        "coordinates": [16.24801, 48.08509]
      },
      "properties": {
         "id": "pmb44413",
         "title": "Brühl",
         "lat": "48.08509",
         "lon": "16.24801",
         "timestamp": ["1931-07-01"],
         "importance": "1"
      }
      }, 
    {
      "type": "Feature",
      "geometry": {
        "type": "Point",
        "coordinates": [16.275701, 48.219421]
      },
      "properties": {
         "id": "pmb90687",
         "title": "Gallitzinberg",
         "lat": "48.219421",
         "lon": "16.275701",
         "timestamp": ["1931-07-05"],
         "importance": "1"
      }
      }, 
    {
      "type": "Feature",
      "geometry": {
        "type": "Point",
        "coordinates": [15.83333, 47.7]
      },
      "properties": {
         "id": "pmb483",
         "title": "Reichenau an der Rax",
         "lat": "47.7",
         "lon": "15.83333",
         "timestamp": ["1931-07-23"],
         "importance": "1"
      }
      }, 
    {
      "type": "Feature",
      "geometry": {
        "type": "Point",
        "coordinates": [16.28921, 48.08605]
      },
      "properties": {
         "id": "pmb968",
         "title": "Mödling",
         "lat": "48.08605",
         "lon": "16.28921",
         "timestamp": ["1931-07-01"],
         "importance": "1"
      }
      }, 
    {
      "type": "Feature",
      "geometry": {
        "type": "Point",
        "coordinates": [16.32586, 48.17192]
      },
      "properties": {
         "id": "pmb62",
         "title": "XII., Meidling",
         "lat": "48.17192",
         "lon": "16.32586",
         "timestamp": ["1931-07-10"],
         "importance": "1"
      }
      }, 
    {
      "type": "Feature",
      "geometry": {
        "type": "Point",
        "coordinates": [16.337778, 48.196667]
      },
      "properties": {
         "id": "pmb184918",
         "title": "Westbahnhof",
         "lat": "48.196667",
         "lon": "16.337778",
         "timestamp": ["1931-07-03", "1931-07-10"],
         "importance": "2"
      }
      }, 
    {
      "type": "Feature",
      "geometry": {
        "type": "Point",
        "coordinates": [16.402222, 48.214722]
      },
      "properties": {
         "id": "pmb685",
         "title": "Wurstelprater",
         "lat": "48.214722",
         "lon": "16.402222",
         "timestamp": ["1931-07-06"],
         "importance": "1"
      }
      }, 
    {
      "type": "Feature",
      "geometry": {
        "type": "Point",
        "coordinates": [16.43898217221, 48.19252071812]
      },
      "properties": {
         "id": "pmb185",
         "title": "Lusthaus",
         "lat": "48.19252071812",
         "lon": "16.43898217221",
         "timestamp": ["1931-07-02", "1931-07-13", "1931-07-31"],
         "importance": "3"
      }
      }, 
    {
      "type": "Feature",
      "geometry": {
        "type": "Point",
        "coordinates": [16.322222222222, 48.263611111111]
      },
      "properties": {
         "id": "pmb194903",
         "title": "Am Kobenzl",
         "lat": "48.263611111111",
         "lon": "16.322222222222",
         "timestamp": ["1931-07-10"],
         "importance": "1"
      }
      }, 
    {
      "type": "Feature",
      "geometry": {
        "type": "Point",
        "coordinates": [15.8121, 47.644]
      },
      "properties": {
         "id": "pmb200876",
         "title": "Meierei des Südbahnhotels",
         "lat": "47.644",
         "lon": "15.8121",
         "timestamp": ["1931-07-17", "1931-07-26"],
         "importance": "2"
      }
      }, 
    {
      "type": "Feature",
      "geometry": {
        "type": "Point",
        "coordinates": [15.827286, 47.640258]
      },
      "properties": {
         "id": "pmb236041",
         "title": "Hochstraße [Semmering]",
         "lat": "47.640258",
         "lon": "15.827286",
         "timestamp": ["1931-07-21"],
         "importance": "1"
      }
      }, 
    {
      "type": "Feature",
      "geometry": {
        "type": "Point",
        "coordinates": [15.83, 47.647222]
      },
      "properties": {
         "id": "pmb413",
         "title": "Südbahnhotel [Semmering]",
         "lat": "47.647222",
         "lon": "15.83",
         "timestamp": ["1931-07-16", "1931-07-17", "1931-07-18", "1931-07-19", "1931-07-20", "1931-07-21", "1931-07-22", "1931-07-23", "1931-07-24", "1931-07-25", "1931-07-26", "1931-07-27", "1931-07-28"],
         "importance": "13"
      }
      }, 
    {
      "type": "Feature",
      "geometry": {
        "type": "Point",
        "coordinates": [15.824188, 47.645877]
      },
      "properties": {
         "id": "pmb200897",
         "title": "Meiereiweg",
         "lat": "47.645877",
         "lon": "15.824188",
         "timestamp": ["1931-07-22", "1931-07-24"],
         "importance": "2"
      }
      }, 
    {
      "type": "Feature",
      "geometry": {
        "type": "Point",
        "coordinates": [16.360145, 48.220337]
      },
      "properties": {
         "id": "pmb190562",
         "title": "Fliegerkino",
         "lat": "48.220337",
         "lon": "16.360145",
         "timestamp": ["1931-07-08"],
         "importance": "1"
      }
      }, 
    {
      "type": "Feature",
      "geometry": {
        "type": "Point",
        "coordinates": [16.349979, 48.224251]
      },
      "properties": {
         "id": "pmb185452",
         "title": "Josef Pohl",
         "lat": "48.224251",
         "lon": "16.349979",
         "timestamp": ["1931-07-08"],
         "importance": "1"
      }
      }, 
    {
      "type": "Feature",
      "geometry": {
        "type": "Point",
        "coordinates": [16.332896, 48.253174]
      },
      "properties": {
         "id": "pmb92316",
         "title": "Kaasgraben",
         "lat": "48.253174",
         "lon": "16.332896",
         "timestamp": ["1931-07-04"],
         "importance": "1"
      }
      }, 
    {
      "type": "Feature",
      "geometry": {
        "type": "Point",
        "coordinates": [16.268889, 48.150556]
      },
      "properties": {
         "id": "pmb7728",
         "title": "Mauer",
         "lat": "48.150556",
         "lon": "16.268889",
         "timestamp": ["1931-07-01"],
         "importance": "1"
      }
      }, 
    {
      "type": "Feature",
      "geometry": {
        "type": "Point",
        "coordinates": [15.833483, 47.623166]
      },
      "properties": {
         "id": "pmb92375",
         "title": "Liechtensteinweg",
         "lat": "47.623166",
         "lon": "15.833483",
         "timestamp": ["1931-07-18"],
         "importance": "1"
      }
      }, 
    {
      "type": "Feature",
      "geometry": {
        "type": "Point",
        "coordinates": [15.8, 47.61667]
      },
      "properties": {
         "id": "pmb91838",
         "title": "Steinhaus am Semmering",
         "lat": "47.61667",
         "lon": "15.8",
         "timestamp": ["1931-07-23", "1931-07-26"],
         "importance": "2"
      }
      }, 
    {
      "type": "Feature",
      "geometry": {
        "type": "Point",
        "coordinates": [15.81667, 47.61667]
      },
      "properties": {
         "id": "pmb90667",
         "title": "Fröschnitz",
         "lat": "47.61667",
         "lon": "15.81667",
         "timestamp": ["1931-07-23"],
         "importance": "1"
      }
      }, 
    {
      "type": "Feature",
      "geometry": {
        "type": "Point",
        "coordinates": [15.81667, 47.56667]
      },
      "properties": {
         "id": "pmb91464",
         "title": "Pfaffensattel",
         "lat": "47.56667",
         "lon": "15.81667",
         "timestamp": ["1931-07-23"],
         "importance": "1"
      }
      }, 
    {
      "type": "Feature",
      "geometry": {
        "type": "Point",
        "coordinates": [16.387458, 48.199544]
      },
      "properties": {
         "id": "pmb92574",
         "title": "Ungargasse",
         "lat": "48.199544",
         "lon": "16.387458",
         "timestamp": ["1931-07-31"],
         "importance": "1"
      }
      }
  ]
}