{
  "type": "FeatureCollection",
  "features": [
    {
      "type": "Feature",
      "geometry": {
        "type": "Point",
        "coordinates": [16.373056, 48.208333]
      },
      "properties": {
         "id": "pmb50",
         "title": "Wien",
         "lat": "48.208333",
         "lon": "16.373056",
         "timestamp": ["1931-09-01", "1931-09-02", "1931-09-03", "1931-09-04", "1931-09-05", "1931-09-07", "1931-09-08", "1931-09-09", "1931-09-13", "1931-09-14", "1931-09-17", "1931-09-19", "1931-09-21", "1931-09-22", "1931-09-23", "1931-09-24", "1931-09-25", "1931-09-26", "1931-09-27", "1931-09-28", "1931-09-29"],
         "importance": "21"
      }
      }, 
    {
      "type": "Feature",
      "geometry": {
        "type": "Point",
        "coordinates": [16.355191, 48.248422]
      },
      "properties": {
         "id": "pmb92292",
         "title": "Hohe Warte",
         "lat": "48.248422",
         "lon": "16.355191",
         "timestamp": ["1931-09-15"],
         "importance": "1"
      }
      }, 
    {
      "type": "Feature",
      "geometry": {
        "type": "Point",
        "coordinates": [16.3566, 48.205142]
      },
      "properties": {
         "id": "pmb20",
         "title": "Volkstheater",
         "lat": "48.205142",
         "lon": "16.3566",
         "timestamp": ["1931-09-04", "1931-09-16"],
         "importance": "2"
      }
      }, 
    {
      "type": "Feature",
      "geometry": {
        "type": "Point",
        "coordinates": [16.371211, 48.206416]
      },
      "properties": {
         "id": "pmb96",
         "title": "Meissl & Schadn",
         "lat": "48.206416",
         "lon": "16.371211",
         "timestamp": ["1931-09-02", "1931-09-25"],
         "importance": "2"
      }
      }, 
    {
      "type": "Feature",
      "geometry": {
        "type": "Point",
        "coordinates": [16.362946, 48.214527]
      },
      "properties": {
         "id": "pmb337",
         "title": "Hotel de France",
         "lat": "48.214527",
         "lon": "16.362946",
         "timestamp": ["1931-09-04"],
         "importance": "1"
      }
      }, 
    {
      "type": "Feature",
      "geometry": {
        "type": "Point",
        "coordinates": [16.361378, 48.203661]
      },
      "properties": {
         "id": "pmb47660",
         "title": "Kunsthistorisches Museum",
         "lat": "48.203661",
         "lon": "16.361378",
         "timestamp": ["1931-09-25"],
         "importance": "1"
      }
      }, 
    {
      "type": "Feature",
      "geometry": {
        "type": "Point",
        "coordinates": [16.300034240016, 48.246838181084]
      },
      "properties": {
         "id": "pmb169",
         "title": "Pötzleinsdorf",
         "lat": "48.246838181084",
         "lon": "16.300034240016",
         "timestamp": ["1931-09-13"],
         "importance": "1"
      }
      }, 
    {
      "type": "Feature",
      "geometry": {
        "type": "Point",
        "coordinates": [16.34706, 48.21126]
      },
      "properties": {
         "id": "pmb58",
         "title": "VIII., Josefstadt",
         "lat": "48.21126",
         "lon": "16.34706",
         "timestamp": ["1931-09-10", "1931-09-16", "1931-09-30"],
         "importance": "3"
      }
      }, 
    {
      "type": "Feature",
      "geometry": {
        "type": "Point",
        "coordinates": [16.322222222222, 48.263611111111]
      },
      "properties": {
         "id": "pmb194903",
         "title": "Am Kobenzl",
         "lat": "48.263611111111",
         "lon": "16.322222222222",
         "timestamp": ["1931-09-06"],
         "importance": "1"
      }
      }, 
    {
      "type": "Feature",
      "geometry": {
        "type": "Point",
        "coordinates": [16.328822485916, 48.231291362993]
      },
      "properties": {
         "id": "pmb291",
         "title": "Gersthof",
         "lat": "48.231291362993",
         "lon": "16.328822485916",
         "timestamp": ["1931-09-09"],
         "importance": "1"
      }
      }, 
    {
      "type": "Feature",
      "geometry": {
        "type": "Point",
        "coordinates": [16.33716, 48.23188]
      },
      "properties": {
         "id": "pmb168815",
         "title": "Sternwartestraße 71",
         "lat": "48.23188",
         "lon": "16.33716",
         "timestamp": ["1931-09-06", "1931-09-11", "1931-09-18"],
         "importance": "3"
      }
      }, 
    {
      "type": "Feature",
      "geometry": {
        "type": "Point",
        "coordinates": [16.360145, 48.220337]
      },
      "properties": {
         "id": "pmb190562",
         "title": "Fliegerkino",
         "lat": "48.220337",
         "lon": "16.360145",
         "timestamp": ["1931-09-20"],
         "importance": "1"
      }
      }, 
    {
      "type": "Feature",
      "geometry": {
        "type": "Point",
        "coordinates": [16.32464, 48.257868]
      },
      "properties": {
         "id": "pmb92285",
         "title": "Himmelstraße",
         "lat": "48.257868",
         "lon": "16.32464",
         "timestamp": ["1931-09-06"],
         "importance": "1"
      }
      }, 
    {
      "type": "Feature",
      "geometry": {
        "type": "Point",
        "coordinates": [16.371024, 48.206219]
      },
      "properties": {
         "id": "pmb192438",
         "title": "Restaurant Lido",
         "lat": "48.206219",
         "lon": "16.371024",
         "timestamp": ["1931-09-26"],
         "importance": "1"
      }
      }, 
    {
      "type": "Feature",
      "geometry": {
        "type": "Point",
        "coordinates": [16.349979, 48.224251]
      },
      "properties": {
         "id": "pmb185452",
         "title": "Josef Pohl",
         "lat": "48.224251",
         "lon": "16.349979",
         "timestamp": ["1931-09-20"],
         "importance": "1"
      }
      }, 
    {
      "type": "Feature",
      "geometry": {
        "type": "Point",
        "coordinates": [16.327784, 48.227627]
      },
      "properties": {
         "id": "pmb190582",
         "title": "Michelbeuerntheater",
         "lat": "48.227627",
         "lon": "16.327784",
         "timestamp": ["1931-09-11"],
         "importance": "1"
      }
      }, 
    {
      "type": "Feature",
      "geometry": {
        "type": "Point",
        "coordinates": [16.361439, 48.220123]
      },
      "properties": {
         "id": "pmb190541",
         "title": "Heimatkino",
         "lat": "48.220123",
         "lon": "16.361439",
         "timestamp": ["1931-09-18"],
         "importance": "1"
      }
      }, 
    {
      "type": "Feature",
      "geometry": {
        "type": "Point",
        "coordinates": [16.379436, 48.213062]
      },
      "properties": {
         "id": "pmb190479",
         "title": "Ferdinandskino",
         "lat": "48.213062",
         "lon": "16.379436",
         "timestamp": ["1931-09-06"],
         "importance": "1"
      }
      }, 
    {
      "type": "Feature",
      "geometry": {
        "type": "Point",
        "coordinates": [16.354994, 48.239765]
      },
      "properties": {
         "id": "pmb190532",
         "title": "Ideal Kino",
         "lat": "48.239765",
         "lon": "16.354994",
         "timestamp": ["1931-09-12"],
         "importance": "1"
      }
      }
  ]
}