{
  "type": "FeatureCollection",
  "features": [
    {
      "type": "Feature",
      "geometry": {
        "type": "Point",
        "coordinates": [16.373056, 48.208333]
      },
      "properties": {
         "id": "pmb50",
         "title": "Wien",
         "lat": "48.208333",
         "lon": "16.373056",
         "timestamp": ["1931-02-01", "1931-02-02", "1931-02-03", "1931-02-06", "1931-02-07", "1931-02-08", "1931-02-09", "1931-02-10", "1931-02-11", "1931-02-12", "1931-02-13", "1931-02-14", "1931-02-15", "1931-02-16", "1931-02-17", "1931-02-18", "1931-02-19", "1931-02-20", "1931-02-21", "1931-02-22", "1931-02-23", "1931-02-24", "1931-02-25", "1931-02-26", "1931-02-27", "1931-02-28"],
         "importance": "26"
      }
      }, 
    {
      "type": "Feature",
      "geometry": {
        "type": "Point",
        "coordinates": [16.361139, 48.210333]
      },
      "properties": {
         "id": "pmb14",
         "title": "Burgtheater",
         "lat": "48.210333",
         "lon": "16.361139",
         "timestamp": ["1931-02-02", "1931-02-03", "1931-02-03", "1931-02-07", "1931-02-09", "1931-02-10", "1931-02-10", "1931-02-11", "1931-02-12", "1931-02-13", "1931-02-14", "1931-02-22"],
         "importance": "12"
      }
      }, 
    {
      "type": "Feature",
      "geometry": {
        "type": "Point",
        "coordinates": [16.37312, 48.20122]
      },
      "properties": {
         "id": "pmb43",
         "title": "Café Imperial",
         "lat": "48.20122",
         "lon": "16.37312",
         "timestamp": ["1931-02-22"],
         "importance": "1"
      }
      }, 
    {
      "type": "Feature",
      "geometry": {
        "type": "Point",
        "coordinates": [16.371211, 48.206416]
      },
      "properties": {
         "id": "pmb96",
         "title": "Meissl & Schadn",
         "lat": "48.206416",
         "lon": "16.371211",
         "timestamp": ["1931-02-08", "1931-02-13", "1931-02-17", "1931-02-28"],
         "importance": "4"
      }
      }, 
    {
      "type": "Feature",
      "geometry": {
        "type": "Point",
        "coordinates": [16.333568462613, 48.235119783861]
      },
      "properties": {
         "id": "pmb113",
         "title": "Türkenschanzpark",
         "lat": "48.235119783861",
         "lon": "16.333568462613",
         "timestamp": ["1931-02-15"],
         "importance": "1"
      }
      }, 
    {
      "type": "Feature",
      "geometry": {
        "type": "Point",
        "coordinates": [15.8241, 47.64224]
      },
      "properties": {
         "id": "pmb189",
         "title": "Semmering",
         "lat": "47.64224",
         "lon": "15.8241",
         "timestamp": ["1931-02-03", "1931-02-04", "1931-02-05", "1931-02-06"],
         "importance": "4"
      }
      }, 
    {
      "type": "Feature",
      "geometry": {
        "type": "Point",
        "coordinates": [16.373293, 48.207882]
      },
      "properties": {
         "id": "pmb172",
         "title": "Kellerei und Gastwirtschaft Deutsches Haus, Friedrich Kargl",
         "lat": "48.207882",
         "lon": "16.373293",
         "timestamp": ["1931-02-20"],
         "importance": "1"
      }
      }, 
    {
      "type": "Feature",
      "geometry": {
        "type": "Point",
        "coordinates": [15.827286, 47.640258]
      },
      "properties": {
         "id": "pmb236041",
         "title": "Hochstraße [Semmering]",
         "lat": "47.640258",
         "lon": "15.827286",
         "timestamp": ["1931-02-04"],
         "importance": "1"
      }
      }, 
    {
      "type": "Feature",
      "geometry": {
        "type": "Point",
        "coordinates": [16.35689, 48.21787]
      },
      "properties": {
         "id": "pmb232768",
         "title": "Beethovengasse 6",
         "lat": "48.21787",
         "lon": "16.35689",
         "timestamp": ["1931-02-20"],
         "importance": "1"
      }
      }, 
    {
      "type": "Feature",
      "geometry": {
        "type": "Point",
        "coordinates": [16.33716, 48.23188]
      },
      "properties": {
         "id": "pmb168815",
         "title": "Sternwartestraße 71",
         "lat": "48.23188",
         "lon": "16.33716",
         "timestamp": ["1931-02-01", "1931-02-02", "1931-02-03", "1931-02-06", "1931-02-07", "1931-02-08", "1931-02-09", "1931-02-10", "1931-02-11", "1931-02-12", "1931-02-13", "1931-02-14", "1931-02-15", "1931-02-16", "1931-02-17", "1931-02-18", "1931-02-19", "1931-02-20", "1931-02-21", "1931-02-22", "1931-02-23", "1931-02-24", "1931-02-25", "1931-02-26", "1931-02-27", "1931-02-28"],
         "importance": "26"
      }
      }, 
    {
      "type": "Feature",
      "geometry": {
        "type": "Point",
        "coordinates": [16.35137, 48.21346]
      },
      "properties": {
         "id": "pmb232800",
         "title": "Laudongasse 12",
         "lat": "48.21346",
         "lon": "16.35137",
         "timestamp": ["1931-02-17", "1931-02-24", "1931-02-28"],
         "importance": "3"
      }
      }, 
    {
      "type": "Feature",
      "geometry": {
        "type": "Point",
        "coordinates": [16.367725, 48.212284]
      },
      "properties": {
         "id": "pmb207301",
         "title": "Tiefer Graben 17",
         "lat": "48.212284",
         "lon": "16.367725",
         "timestamp": ["1931-02-27"],
         "importance": "1"
      }
      }, 
    {
      "type": "Feature",
      "geometry": {
        "type": "Point",
        "coordinates": [16.379436, 48.213062]
      },
      "properties": {
         "id": "pmb190479",
         "title": "Ferdinandskino",
         "lat": "48.213062",
         "lon": "16.379436",
         "timestamp": ["1931-02-13"],
         "importance": "1"
      }
      }
  ]
}